     2.11           OBSERVATION DATA    M (MIXED)           RINEX VERSION / TYPE
teqc  2018Jan11     Thomas Touz         20180404 19:51:17UTCPGM / RUN BY / DATE
AUBE                                                        MARKER NAME
AUBE                                                        MARKER NUMBER
EC+G                HEIG                                    OBSERVER / AGENCY
GS25JAUNE           LEICA GS25          7.00.125/7.300      REC # / TYPE / VERS
AR10JAUNE           LEIAR10         NONE                    ANT # / TYPE
  4345466.3891   492267.9430  4628777.6650                  APPROX POSITION XYZ
       -0.0507        0.0000        0.0000                  ANTENNA: DELTA H/E/N
     1     1                                                WAVELENGTH FACT L1/2
    15    C1    L1    D1    P2    L2    D2    C5    L5    D5# / TYPES OF OBSERV
          C7    L7    D7    C8    L8    D8                  # / TYPES OF OBSERV
Linux 2.6.32-573.12.1.x86_64|x86_64|gcc|Linux 64|=+         COMMENT
GS25 V7.00          HEIG                2018 04 04 07:14    COMMENT
                                                            COMMENT
    30.0000                                                 INTERVAL
    18                                                      LEAP SECONDS
BIT 2 OF LLI FLAGS DATA COLLECTED UNDER A/S CONDITION       COMMENT
SNR is mapped to RINEX snr flag value [1-9]                 COMMENT
LX:    >= 25dBHz -> 1; 26-27dBHz -> 2; 28-31dBHz -> 3       COMMENT
       32-35dBHz -> 4; 36-38dBHz -> 5; 39-41dBHz -> 6       COMMENT
       42-44dBHz -> 7; 45-48dBHz -> 8; >= 49dBHz -> 9       COMMENT
teqc windowed:  end  @ 2018 Apr  4 10:01:00.000             COMMENT
  2018     4     4     7    15    0.0000000     GPS         TIME OF FIRST OBS
                                                            END OF HEADER
 18  4  4  7 15  0.0000000  0 15G02G05G07G09G13G28G30R01R02R11R12R13
                                R19E07E30
  23845498.806   125308927.02217     -2762.761    23845495.596    97643314.90655
     -2152.801

  20616781.885   108341922.54819       592.403    20616780.450    84422269.00058
       461.613

  21311331.090   111991801.68519     -1826.285    21311329.580    87266332.84757
     -1423.079

  23270008.516   122284717.61318     -2920.588    23270010.455    95286794.71557
     -2275.786    23270010.582    91316516.66219     -2180.874

  22534155.770   118417787.81919      2694.468    22534154.353    92273592.87657
      2099.585

  22864100.898   120151661.29518      2859.914    22864099.866    93624663.90856
      2228.504

  20288505.510   106616815.30719      -247.305    20288506.190    83078040.36859
      -192.705    20288506.388    79616456.04819      -184.745

  21273713.547   113720200.07818     -3023.056    21273716.396    88449048.75417
     -2351.266

  19242161.198   102679857.91619       949.913    19242162.054    79862112.47718
       738.820

  20544843.153   109785409.87419     -2648.494    20544843.600    85388654.39018
     -2059.940

  19306664.951   103132734.72119      1150.740


  22898652.688   122277530.12315      4369.334    22898654.840    95104759.20414
      3398.372

  23530188.183   125870676.84814       216.738    23530187.349    97899407.68215
       168.574

  24644119.167   129505713.53819     -1779.581
                  24644122.875    96708826.34819     -1328.988    24644120.632
  99231659.21019     -1363.678    24644121.853    97970243.38019     -1346.315
  22945921.358   120581629.65819     -1297.645
                  22945923.613    90044732.90219      -969.085    22945921.182
  92393715.72119      -994.362    22945922.604    91219224.91419      -981.710
 18  4  4  7 15 30.0000000  0 15G02G05G07G09G13G28G30R01R02R11R12R13
                                R19E07E30
  23861289.903   125391909.940 7     -2769.128    23861286.787    97707976.82745
     -2157.765

  20613453.726   108324432.908 9       573.783    20613452.307    84408640.69548
       447.104

  21321791.319   112046770.533 9     -1837.971    21321789.783    87309165.70747
     -1432.185

  23286694.950   122372405.223 8     -2924.990    23286696.844    95355122.69747
     -2279.213    23286697.042    91381997.629 9     -2184.335

  22518790.399   118337042.259 8      2688.832    22518788.983    92210674.25847
      2095.194

  22847800.839   120066003.975 8      2850.767    22847799.824    93557917.93946
      2221.378

  20289965.575   106624488.104 9      -263.980    20289966.274    83084019.16149
      -205.699    20289966.483    79622185.726 9      -197.161

  21290716.304   113811088.965 7     -3036.006    21290719.168    88519740.015 7
     -2361.340

  19236871.359   102651630.288 9       932.185    19236872.210    79840157.666 8
       725.033

  20559765.981   109865152.878 9     -2667.387    20559766.375    85450676.736 8
     -2074.634

  19300275.798   103098605.022 9      1124.802


  22874126.156   122146560.160 5      4362.461    22874128.235    95002893.720 5
      3393.028

  23529041.346   125864544.16313       191.337    23529044.741    97894643.24215
       148.810

  24654299.515   129559211.669 9     -1786.699
                  24654303.287    96748776.219 9     -1334.256    24654301.054
  99272651.259 9     -1369.047    24654302.228    98010714.343 9     -1351.654
  22953366.873   120620756.244 9     -1310.486
                  22953369.158    90073950.805 9      -978.688    22953366.803
  92423695.821 9     -1004.201    22953368.141    91248823.915 9      -991.435
 18  4  4  7 16  0.0000000  0 15G02G05G07G09G13G28G30R01R02R11R12R13
                                R19E07E30
  23877114.395   125475067.929 8     -2774.972    23877111.197    97772775.14545
     -2162.319

  20610230.552   108307495.015 9       555.326    20610229.146    84395442.33848
       432.722

  21332316.838   112102082.395 9     -1849.552    21332315.275    87352265.84247
     -1441.210

  23303406.171   122460222.797 8     -2929.705    23303408.023    95423551.87447
     -2282.893    23303408.327    91447575.624 9     -2187.714

  22503455.830   118256458.638 9      2683.400    22503454.422    92147881.84447
      2090.962

  22831552.131   119980616.538 8      2841.637    22831551.135    93491382.29546
      2214.265

  20291519.294   106632652.985 9      -280.481    20291519.994    83090381.40649
      -218.557    20291520.205    79628282.875 9      -209.483

  21307789.341   113902353.894 8     -3048.467    21307792.212    88590723.823 5
     -2371.029

  19231679.649   102623926.270 9       914.628    19231680.481    79818610.088 8
       711.377

  20574793.371   109945454.545 9     -2686.134    20574793.740    85513133.569 8
     -2089.216

  19294031.104   103065246.868 9      1098.971


  22849638.353   122015797.209 5      4354.894    22849640.602    94901189.244 5
      3387.140

  23528044.461   125859166.02613       165.275    23528042.670    97890467.71014
       128.538

  24664518.509   129612912.768 9     -1793.516
                  24664522.310    96788877.656 9     -1339.356    24664520.097
  99313798.821 9     -1374.284    24664521.232    98051338.844 9     -1356.816
  22960884.398   120660261.174 9     -1323.275
                  22960886.721    90103451.223 9      -988.173    22960884.427
  92453965.812 9     -1013.944    22960885.683    91278709.123 9     -1001.083
 18  4  4  7 16 30.0000000  0 15G02G05G07G09G13G28G30R01R02R11R12R13
                                R19E07E30
  23892971.886   125558399.109 8     -2781.032    23892968.499    97837708.44246
     -2167.042

  20607112.708   108291110.562 9       536.450    20607111.328    84382675.20848
       418.012

  21342907.515   112157736.629 9     -1861.258    21342905.918    87395632.76548
     -1450.331

  23320142.090   122548170.491 8     -2934.124    23320143.895    95492082.53547
     -2286.329    23320144.245    91513250.855 9     -2191.091

  22488152.452   118176038.919 9      2677.487    22488151.054    92085217.14547
      2086.355

  22815355.654   119895503.519 8      2832.055    22815354.678    93425060.48046
      2206.796

  20293166.679   106641310.035 9      -297.262    20293167.385    83097127.14949
      -231.633    20293167.592    79634747.541 9      -221.966

  21324932.736   113993994.900 8     -3061.300    21324935.520    88662000.152 6
     -2381.013

  19226586.598   102596748.817 9       896.677    19226587.417    79797472.071 8
       697.416

  20589924.753   110026312.011 9     -2704.899    20589925.126    85576022.703 8
     -2103.810

  19287931.117   103032661.597 9      1072.892


  22825190.268   121885246.587 5      4347.949    22825192.758    94799649.885 5
      3381.738

  23527188.396   125854585.064 3       139.597    23527184.820    97886904.805 3
       108.573

  24674776.289   129666817.620 9     -1800.623
                  24674780.085    96829131.244 9     -1344.624    24674777.903
  99355102.505 9     -1379.746    24674779.009    98092117.482 9     -1362.210
  22968473.829   120700144.030 9     -1336.194
                  22968476.176    90133233.868 9      -997.756    22968473.944
  92484525.402 9     -1023.814    22968475.136    91308880.240 9     -1010.804
 18  4  4  7 17  0.0000000  0 14G02G05G07G09G13G28G30R01R02R11R12R13
                                E07E30
  23908862.134   125641902.395 8     -2786.273    23908858.595    97902775.87647
     -2171.125

  20604100.739   108275282.581 9       518.360    20604099.374    84370341.72148
       403.917

  21353563.320   112213733.136 9     -1872.197    21353561.684    87439266.40948
     -1458.856

  23336903.060   122636249.567 8     -2938.196    23336904.840    95560715.51747
     -2289.507    23336905.191    91579024.071 9     -2194.007

  22472880.759   118095785.650 9      2672.396    22472879.376    92022682.12547
      2082.385

  22799212.185   119810669.034 8      2823.245    22799211.226    93358955.70347
      2199.935

  20294907.871   106650460.091 9      -313.188    20294908.591    83104257.06349
      -244.043    20294908.783    79641580.367 9      -233.813

  21342146.565   114086012.174 7     -3073.433    21342149.267    88733569.093 7
     -2390.449

  19221592.945   102570101.663 9       879.446    19221593.764    79776746.489 8
       684.014

  20605159.845   110107723.637 9     -2722.882    20605160.236    85639342.833 8
     -2117.798

  19281976.301   103000851.872 9      1047.475


  22800782.867   121754912.921 6      4340.878    22800785.493    94698279.281 5
      3376.240

  24685073.148   129720927.837 9     -1807.040
                  24685076.918    96869538.199 9     -1349.344    24685074.785
  99396563.564 9     -1384.585    24685075.853    98133051.482 9     -1366.943
  22976135.265   120740405.318 9     -1348.290
                  22976137.628    90163299.112 9     -1006.837    22976135.445
  92515374.952 9     -1033.074    22976136.601    91339337.637 9     -1019.968
 18  4  4  7 17 30.0000000  0 14G02G05G07G09G13G28G30R01R02R11R12R13
                                E07E30
  23924785.153   125725577.924 7     -2792.141    23924781.528    97967977.54447
     -2175.696

  20601195.429   108260014.993 9       499.406    20601194.072    84358444.88248
       389.147

  21364284.581   112270073.519 9     -1883.931    21364282.924    87483167.98148
     -1467.999

  23353689.417   122724462.217 8     -2942.749    23353691.227    95629452.57247
     -2293.052    23353691.572    91644897.089 9     -2197.527

  22457641.476   118015702.745 9      2666.438    22457640.099    91960279.86947
      2077.746

  22783122.804   119726118.861 7      2813.454    22783121.877    93293072.46947
      2192.303

  20296743.286   106660105.216 9      -329.894    20296744.007    83111772.74249
      -257.061    20296744.198    79648782.903 9      -246.377

  21359431.049   114178407.431 8     -3086.295    21359433.766    88805432.034 7
     -2400.452

  19216699.606   102543989.796 9       861.357    19216700.402    79756437.251 8
       669.944

  20620498.518   110189688.723 9     -2741.448    20620498.933    85703093.429 9
     -2132.239

  19276167.089   102969820.938 9      1021.213


  22776417.197   121624801.600 5      4333.221    22776419.879    94597081.571 5
      3370.283

  24695409.640   129775246.316 9     -1814.234
                  24695413.383    96910100.668 9     -1354.792    24695411.306
  99438184.180 9     -1390.101    24695412.336    98174143.029 9     -1372.437
  22983869.034   120781046.682 9     -1361.175
                  22983871.416    90193648.171 9     -1016.507    22983869.276
  92546515.732 9     -1043.032    22983870.401    91370082.555 9     -1029.775
 18  4  4  7 18  0.0000000  0 14G02G05G07G09G13G28G30R01R02R11R12R13
                                E07E30
  23940739.156   125809416.583 6     -2797.559    23940735.522    98033306.37246
     -2179.914

  20598395.820   108245302.951 9       480.976    20598394.471    84346980.95248
       374.786

  21375069.784   112326749.978 9     -1894.973    21375068.109    87527331.44948
     -1476.602

  23370499.896   122812802.037 8     -2947.080    23370501.763    95698288.78547
     -2296.428    23370502.048    91710865.086 9     -2200.682

  22442433.649   117935785.119 9      2661.020    22442432.260    91898006.40647
      2073.523

  22767086.945   119641850.090 8      2804.019    22767086.037    93227408.53746
      2184.950

  20298671.627   106670238.688 9      -346.152    20298672.354    83119668.95549
      -269.729    20298672.543    79656350.103 9      -258.493

  21376784.835   114271173.539 8     -3098.743    21376787.602    88877583.470 6
     -2410.133

  19211905.903   102518409.575 9       843.588    19211906.665    79736541.513 8
       656.124

  20635938.952   110272197.657 9     -2759.387    20635939.378    85767267.029 8
     -2146.190

  19270502.867   102939563.671 9       995.494


  22752092.720   121494910.370 6      4325.791    22752095.381    94496055.104 5
      3364.507

  24705784.631   129829767.080 9     -1820.941
                  24705788.349    96950814.185 9     -1359.800    24705786.326
  99479959.814 9     -1395.319    24705787.332    98215387.605 9     -1377.562
  22991673.766   120822060.999 9     -1373.587
                  22991676.183    90224275.738 9     -1025.754    22991674.064
  92577942.276 9     -1052.527    22991675.165    91401109.613 9     -1039.164
 18  4  4  7 18 30.0000000  0 14G02G05G07G09G13G28G30R01R02R11R12R13
                                E07E30
  23956724.652   125893421.336 5     -2803.138    23956721.138    98098764.64645
     -2184.261

  20595703.208   108231153.142 9       462.118    20595701.867    84335955.11548
       360.092

  21385919.760   112383766.836 9     -1906.433    21385918.076    87571760.15748
     -1485.532

  23387335.632   122901274.352 8     -2951.537    23387337.557    95767228.18047
     -2299.901    23387337.789    91776932.019 9     -2204.046

  22427258.564   117856039.520 9      2655.172    22427257.149    91835866.98747
      2068.965

  22751106.279   119557871.207 8      2794.102    22751105.334    93161970.48647
      2177.223

  20300693.856   106680865.540 9      -362.675    20300694.596    83127949.61649
      -282.604    20300694.781    79664285.737 9      -270.818

  21394208.914   114364315.103 8     -3111.093    21394211.684    88950026.856 6
     -2419.742

  19207213.313   102493368.921 9       825.436    19207214.044    79717065.439 8
       642.006

  20651481.611   110355252.870 9     -2777.827    20651482.021    85831865.520 8
     -2160.532

  19264984.673   102910086.493 9       969.314


  22727811.224   121365248.639 6      4317.850    22727813.822    94395207.154 5
      3358.330

  24716199.218   129884495.988 9     -1828.010
                  24716202.909    96991683.154 9     -1365.029    24716200.916
  99521894.921 9     -1400.648    24716201.920    98256789.642 9     -1382.831
  22999550.360   120863452.897 9     -1386.224
                  22999552.822    90255185.255 9     -1035.140    22999550.705
  92609658.132 9     -1062.154    22999551.791    91432422.295 9     -1048.612
 18  4  4  7 19  0.0000000  0 15G02G05G07G09G13G28G30R01R02R11R12R13
                                R19E07E30
  23972739.591   125977581.179 7     -2808.108    23972736.280    98164343.76647
     -2188.139

  20593116.259   108217558.615 9       443.644    20593114.918    84325361.96748
       345.696

  21396832.613   112441114.150 9     -1917.360    21396830.922    87616446.37147
     -1494.046

  23404194.891   122989870.274 8     -2955.541    23404196.825    95836263.92947
     -2303.021    23404196.995    91843091.266 9     -2207.088

  22412114.823   117776458.629 9      2649.784    22412113.384    91773855.91147
      2064.767

  22735179.769   119474176.870 8      2784.775    22735178.783    93096754.14847
      2169.957

  20302808.221   106691976.578 9      -378.647    20302808.961    83136607.57349
      -295.050    20302809.147    79672582.945 9      -282.812

  21411701.461   114457822.398 8     -3123.343    21411704.179    89022754.660 7
     -2429.268

  19202620.649   102468861.555 9       807.685    19202621.358    79698004.152 8
       628.199

  20667124.225   110438842.214 9     -2795.444    20667124.606    85896879.451 8
     -2174.235

  19259610.887   102881381.213 9       943.728


  22703571.681   121235810.781 5      4310.604    22703574.220    94294533.283 5
      3352.694

  23525066.565   125843263.62113        11.957    23525061.227    97878068.46213
         9.300

  24726651.799   129939424.637 9     -1834.531
                  24726655.494    97032701.278 9     -1369.984    24726653.496
  99563983.068 9     -1405.731    24726654.510    98298342.779 9     -1387.844
  23007496.994   120905212.842 9     -1398.345
                  23007499.484    90286369.620 9     -1044.318    23007497.369
  92641656.007 9     -1071.528    23007498.450    91464013.417 9     -1057.945
 18  4  4  7 19 30.0000000  0 15G02G05G07G09G13G28G30R01R02R11R12R13
                                R19E07E30
  23988784.027   126061895.543 7     -2813.216    23988780.876    98230043.21646
     -2192.119

  20590635.485   108204522.015 9       424.936    20590634.147    84315203.56448
       331.118

  21407808.348   112498791.901 9     -1928.414    21407806.651    87661390.06347
     -1502.661

  23421077.997   123078591.148 8     -2959.549    23421079.914    95905397.00546
     -2306.147    23421080.049    91909343.801 9     -2210.189

  22397002.933   117697045.123 9      2644.031    22397001.489    91711975.26347
      2060.284

  22719308.314   119390771.902 8      2775.063    22719307.351    93031763.26446
      2162.386

  20305014.929   106703572.850 9      -394.934    20305015.667    83145643.63049
      -307.741    20305015.860    79681242.496 9      -294.978

  21429262.525   114551696.201 7     -3135.554    21429265.213    89095767.599 7
     -2438.764

  19198128.698   102444891.663 9       789.724    19198129.400    79679360.896 8
       614.230

  20682866.523   110522964.176 9     -2813.178    20682866.880    85962307.620 8
     -2188.029

  19254382.228   102853450.496 9       917.854


  22679375.071   121106602.136 6      4302.847    22679377.505    94194037.702 5
      3346.660

  23525072.093   125843297.216 3       -14.427    23525068.348    97878094.588 4
       -11.220

  24737142.750   129994554.939 9     -1841.306
                  24737146.474    97073869.982 9     -1375.048    24737144.436
  99606225.741 9     -1410.931    24737145.473    98340048.465 9     -1392.982
  23015513.796   120947341.472 9     -1410.680
                  23015516.307    90317829.299 9     -1053.476    23015514.193
  92673936.383 9     -1081.017    23015515.274    91495883.445 9     -1067.248
 18  4  4  7 20  0.0000000  0 15G02G05G07G09G13G28G30R01R02R11R12R13
                                R19E07E30
  24004858.170   126146365.594 8     -2818.322    24004855.094    98295863.94846
     -2196.099

  20588261.868   108192048.521 9       406.293    20588260.535    84305483.94548
       316.592

  21418847.457   112556802.702 9     -1939.332    21418845.751    87706593.27448
     -1511.168

  23437985.616   123167440.821 8     -2964.049    23437987.483    95974630.46547
     -2309.649    23437987.629    91975692.499 9     -2213.269

  22381923.914   117617804.390 9      2638.386    22381922.475    91650229.25147
      2055.886

  22703493.273   119307663.494 8      2765.209    22703492.373    92967003.46946
      2154.708

  20307314.638   106715657.828 9      -411.101    20307315.376    83155060.49249
      -320.338    20307315.575    79690266.981 9      -306.966

  21446892.695   114645939.639 7     -3147.544    21446895.431    89169068.055 6
     -2448.091

  19193738.681   102421465.679 9       771.671    19193739.375    79661140.671 8
       600.189

  20698708.631   110607619.562 9     -2830.792    20698708.976    86028150.687 8
     -2201.728

  19249299.447   102826298.943 9       891.989


  22655222.880   120977630.661 6      4294.776    22655225.156    94093726.600 5
      3340.383

  23525221.755   125844101.583 3       -40.729    23525220.035    97878720.203 3
       -31.683

  24747672.900   130049891.142 9     -1847.976
                  24747676.632    97115192.443 9     -1380.043    24747674.563
  99648626.187 9     -1416.026    24747675.618    98381909.919 9     -1398.027
  23023601.344   120989841.858 9     -1422.962
                  23023603.882    90349566.591 9     -1062.594    23023601.744
  92706501.601 9     -1090.304    23023602.837    91528034.699 9     -1076.451
 18  4  4  7 20 30.0000000  0 14G02G05G07G09G13G28G30R01R02R11R12R13
                                E07E30
  24020960.150   126230981.575 7     -2823.074    24020957.074    98361798.36446
     -2199.801

  20585994.350   108180132.635 9       387.702    20585993.017    84296198.83948
       302.106

  21429948.398   112615138.395 9     -1950.102    21429946.678    87752049.63748
     -1519.561

  23454916.314   123256411.784 8     -2967.812    23454918.114    96043958.44846
     -2312.581    23454918.324    92042131.799 9     -2216.325

  22366876.687   117538730.676 8      2632.751    22366875.257    91588613.37547
      2051.494

  22687733.959   119224847.903 8      2755.402    22687733.100    92902471.85046
      2147.068

  20309705.872   106728223.768 9      -427.055    20309706.613    83164852.12649
      -332.770    20309706.813    79699650.632 9      -318.893

  21464590.447   114740544.262 8     -3159.759    21464593.278    89242649.375 6
     -2457.594

  19189449.671   102398578.675 9       753.708    19189450.353    79643339.656 8
       586.218

  20714648.589   110692797.779 9     -2848.243    20714648.931    86094400.381 8
     -2215.302

  19244361.153   102799920.081 9       866.224


  22631114.261   120848891.838 6      4286.749    22631116.395    93993596.442 5
      3334.139

  24758240.936   130105426.344 9     -1854.606
                  24758244.660    97156663.491 9     -1384.943    24758242.594
  99691179.100 9     -1421.085    24758243.650    98423921.898 9     -1402.992
  23031758.109   121032705.939 9     -1435.127
                  23031760.675    90381575.465 9     -1071.656    23031758.511
  92739345.495 9     -1099.520    23031759.620    91560461.086 9     -1085.589
 18  4  4  7 21  0.0000000  0 14G02G05G07G09G13G28G30R01R02R11R12R13
                                E07E30
  24037091.119   126315749.937 7     -2828.044    24037088.000    98427851.56047
     -2203.672

  20583834.828   108168784.234 9       368.911    20583833.511    84287355.91648
       287.463

  21441112.550   112673806.321 9     -1961.017    21441110.812    87797764.89147
     -1528.067

  23471871.690   123345512.680 8     -2972.124    23471873.418    96113387.71047
     -2315.941    23471873.705    92108668.140 9     -2219.457

  22351863.070   117459833.610 9      2626.968    22351861.647    91527135.15147
      2046.989

  22672032.592   119142336.724 8      2745.367    22672031.711    92838177.45547
      2139.249

  20312190.186   106741278.868 9      -443.282    20312190.916    83175024.92949
      -345.415    20312191.119    79709399.566 9      -331.033

  21482357.365   114835518.307 8     -3171.826    21482360.239    89316517.989 7
     -2466.980

  19185263.795   102376241.943 9       735.349    19185264.464    79625966.627 8
       571.937

  20730687.417   110778504.374 9     -2865.658    20730687.752    86161061.047 8
     -2228.845

  19239569.460   102774323.917 9       840.257


  22607051.641   120720398.636 6      4278.991    22607053.644    93893657.335 5
      3328.106

  24768848.562   130161169.670 9     -1861.517
                  24768852.284    97198289.971 9     -1390.079    24768850.235
  99733891.485 9     -1426.304    24768851.275    98466091.333 9     -1408.183
  23039985.575   121075941.538 9     -1447.288
                  23039988.146    90413861.782 9     -1080.743    23039985.968
  92772474.072 9     -1108.974    23039987.094    91593168.531 9     -1094.856
 18  4  4  7 21 30.0000000  0 14G02G05G07G09G13G28G30R01R02R11R12R13
                                E07E30
  24053249.775   126400664.064 7     -2832.872    24053246.637    98494018.38547
     -2207.434

  20581782.682   108158000.127 9       349.996    20581781.388    84278952.71048
       272.724

  21452338.879   112732800.992 9     -1971.946    21452337.129    87843734.75047
     -1536.582

  23488850.986   123434739.183 8     -2976.422    23488852.667    96182914.79847
     -2319.292    23488853.040    92175298.258 9     -2222.565

  22336882.633   117381110.890 8      2621.123    22336881.217    91465792.77847
      2042.433

  22656388.978   119060128.982 8      2734.928    22656388.023    92774119.52046
      2131.114

  20314766.683   106754818.407 9      -459.515    20314767.400    83185575.21849
      -358.063    20314767.599    79719510.255 9      -343.129

  21500192.335   114930856.295 7     -3184.189    21500195.227    89390669.733 7
     -2476.592

  19181180.682   102354453.615 9       717.016    19181181.337    79609020.144 8
       557.679

  20746823.771   110864732.152 9     -2882.945    20746824.098    86228127.091 8
     -2242.290

  19234923.528   102749506.592 9       814.141


  22583034.905   120592150.416 5      4270.647    22583036.804    93793908.764 5
      3321.617

  24779495.024   130217117.165 9     -1868.405
                  24779498.770    97240068.930 9     -1395.260    24779496.708
  99776760.330 9     -1431.634    24779497.736    98508415.230 9     -1413.381
  23048282.776   121119543.560 9     -1459.657
                  23048285.348    90446421.720 9     -1089.958    23048283.161
  92805883.403 9     -1118.390    23048284.302    91626153.164 9     -1104.191
 18  4  4  7 22  0.0000000  0 15G02G05G07G09G13G28G30R01R02R11R12R13
                                R19E07E30
  24069435.815   126485722.377 7     -2838.362    24069432.721    98560297.59047
     -2211.711

  20579838.381   108147782.751 9       330.392    20579837.101    84270991.11448
       257.448

  21463627.216   112792121.536 9     -1983.514    21463625.449    87889958.54547
     -1545.596

  23505854.236   123524091.664 8     -2981.165    23505855.912    96252540.04847
     -2322.987    23505856.347    92242022.488 9     -2226.297

  22321935.729   117302564.360 9      2614.520    22321934.317    91404587.68547
      2037.289

  22640803.885   118978228.914 8      2724.063    22640802.840    92710301.34447
      2122.648

  20317435.383   106768842.473 9      -476.199    20317436.097    83196503.05449
      -371.065    20317436.294    79729982.768 9      -355.631

  21518095.333   115026558.221 8     -3196.888    21518098.286    89465104.572 6
     -2486.469

  19177200.912   102333216.777 9       697.926    19177201.537    79592502.610 8
       542.832

  20763057.129   110951478.245 9     -2900.870    20763057.447    86295596.260 8
     -2256.233

  19230423.665   102725469.445 9       787.548


  22559064.780   120464151.127 5      4261.944    22559066.627    93694353.775 5
      3314.846

  23527259.336   125854985.40712      -142.603


  24790180.532   130273269.823 9     -1875.831
                  24790184.330    97282001.081 9     -1400.797    24790182.208
  99819786.360 9     -1437.338    24790183.251    98550894.325 9     -1419.060
  23056649.650   121163511.734 9     -1472.412
                  23056652.221    90479255.092 9     -1099.493    23056650.025
  92839573.295 9     -1128.189    23056651.179    91659414.798 9     -1113.863
 18  4  4  7 22 30.0000000  0 15G02G05G07G09G13G28G30R01R02R11R12R13
                                R19E07E30
  24085648.008   126570918.131 7     -2842.160    24085645.010    98626683.87047
     -2214.671

  20578001.343   108138129.006 9       312.389    20578000.079    84263468.70248
       243.420

  21474976.641   112851763.060 9     -1993.356    21474974.866    87936432.43748
     -1553.265

  23522880.675   123613566.185 8     -2984.548    23522882.371    96322260.41747
     -2325.621    23522882.815    92308837.823 9     -2228.673

  22307021.831   117224191.343 9      2609.407    22307020.414    91343517.81247
      2033.304

  22625277.142   118896635.523 8      2714.638    22625276.058    92646722.10047
      2115.303

  20320195.450   106783346.704 9      -491.481    20320196.165    83207805.04449
      -382.973    20320196.363    79740813.839 9      -367.027

  21536065.542   115122619.050 7     -3208.020    21536068.525    89539818.474 6
     -2495.131

  19173324.262   102312530.166 9       680.365    19173324.858    79576413.020 8
       529.173

  20779386.180   111038735.671 9     -2917.143    20779386.485    86363463.132 8
     -2268.890

  19226069.276   102702208.807 9       762.381


  22535141.243   120336400.846 6      4254.370    22535143.048    93594992.489 5
      3308.955

  23528126.844   125859628.401 3      -167.884    23528127.072    97890804.31712
      -130.573

  24800904.419   130329624.152 9     -1881.832
                  24800908.257    97324083.833 9     -1405.297    24800906.087
  99862966.926 9     -1441.946    24800907.136    98593525.981 9     -1423.616
  23065085.311   121207841.376 9     -1483.728
                  23065087.875    90512358.389 9     -1107.965    23065085.671
  92873540.153 9     -1136.851    23065086.838    91692949.874 9     -1122.399
 18  4  4  7 23  0.0000000  0 14G02G05G07G09G13G28G30R01R02R11R12R13
                                E07E30
  24101885.504   126656246.765 8     -2846.602    24101882.598    98693173.67947
     -2218.134

  20576271.415   108129038.129 9       293.487    20576270.160    84256384.89348
       228.691

  21486386.491   112911722.184 9     -2004.120    21486384.716    87983153.82648
     -1561.652

  23539929.900   123703160.325 8     -2988.630    23539931.631    96392073.98046
     -2328.804    23539932.041    92375742.465 9     -2231.690

  22292140.761   117145990.846 8      2603.692    22292139.342    91282582.37247
      2028.852

  22609808.949   118815350.013 8      2704.293    22609807.884    92583382.78647
      2107.242

  20323046.340   106798328.238 9      -507.419    20323047.053    83219478.96449
      -395.392    20323047.259    79752001.344 9      -378.895

  21554102.277   115219035.549 7     -3219.831    21554105.240    89614809.029 7
     -2504.314

  19169550.679   102292393.503 9       661.933    19169551.261    79560751.156 8
       514.837

  20795809.855   111126498.667 9     -2933.920    20795810.144    86431723.213 8
     -2281.939

  19221860.002   102679723.425 9       736.490


  22511264.604   120208900.868 6      4245.790    22511266.366    93495825.851 5
      3302.282

  24811666.326   130386178.193 9     -1888.507
                  24811670.182    97366315.697 9     -1410.316    24811668.017
  99906300.517 9     -1447.073    24811669.053    98636308.711 9     -1428.691
  23073589.146   121252529.270 9     -1495.647
                  23073591.689    90545729.212 9     -1116.908    23073589.495
  92907781.517 9     -1145.975    23073590.672    91726755.969 9     -1131.443
 18  4  4  7 23 30.0000000  0 14G02G05G07G09G13G28G30R01R02R11R12R13
                                E07E30
  24118147.942   126741706.358 8     -2850.656    24118145.090    98759765.52347
     -2221.293

  20574648.990   108120512.173 9       274.724    20574647.729    84249741.28348
       214.070

  21497856.587   112971997.875 9     -2014.493    21497854.821    88030121.88047
     -1569.735

  23557001.990   123792874.521 8     -2992.396    23557003.728    96461981.10447
     -2331.739    23557004.078    92442736.779 8     -2234.616

  22277292.945   117067965.096 9      2597.908    22277291.531    91221783.09247
      2024.344

  22594400.059   118734376.034 8      2693.908    22594399.044    92520286.21747
      2099.150

  20325988.067   106813787.105 9      -523.223    20325988.793    83231524.82449
      -407.707    20325989.000    79763545.301 9      -390.726

  21572205.376   115315807.202 7     -3231.742    21572208.357    89690075.895 7
     -2513.574

  19165880.807   102272810.294 9       643.548    19165881.384    79545519.763 8
       500.538

  20812327.660   111214764.729 9     -2950.599    20812327.942    86500374.582 8
     -2294.910

  19217796.039   102658014.596 9       710.649


  22487435.540   120081655.001 5      4237.531    22487437.259    93396856.885 6
      3295.859

  24822466.401   130442932.835 9     -1895.124
                  24822470.250    97408697.369 9     -1415.190    24822468.121
  99949787.820 9     -1452.137    24822469.145    98679243.198 9     -1433.655
  23082161.092   121297575.119 9     -1507.532
                  23082163.608    90579367.340 9     -1125.709    23082161.449
  92942297.166 9     -1155.133    23082162.621    91760832.858 9     -1140.444
 18  4  4  7 24  0.0000000  0 14G02G05G07G09G13G28G30R01R02R11R12R13
                                E07E30
  24134435.971   126827300.303 7     -2854.840    24134433.111    98826462.04746
     -2224.552

  20573135.319   108112557.664 9       255.879    20573134.063    84243542.94648
       199.386

  21509387.840   113032594.973 9     -2024.942    21509386.085    88077340.38847
     -1577.877

  23574098.029   123882714.348 8     -2996.530    23574099.759    96531986.09747
     -2334.960    23574100.039    92509824.895 9     -2237.576

  22262479.692   116990121.026 9      2592.071    22262478.286    91161125.39047
      2019.796

  22579052.154   118653722.364 8      2683.311    22579051.188    92457439.22946
      2090.892

  20329021.606   106829728.485 9      -539.097    20329022.355    83243946.67449
      -420.076    20329022.559    79775449.569 9      -402.566

  21590375.908   115412939.190 8     -3243.428    21590378.973    89765622.993 6
     -2522.665

  19162316.087   102253788.202 9       625.009    19162316.678    79530724.788 8
       486.118

  20828940.085   111303536.472 9     -2967.032    20828940.370    86569419.266 8
     -2307.691

  19213878.615   102637088.579 9       684.785


  22463655.823   119954672.710 6      4228.662    22463657.531    93298092.931 5
      3288.960

  24833305.792   130499894.165 9     -1901.880
                  24833309.625    97451233.409 9     -1420.226    24833307.510
  99993433.475 9     -1457.258    24833308.547    98722334.043 9     -1438.693
  23090802.075   121342983.766 9     -1519.261
                  23090804.579    90613276.380 9     -1134.591    23090802.456
  92977090.783 9     -1164.175    23090803.611    91795184.187 9     -1149.386
 18  4  4  7 24 30.0000000  0 14G02G05G07G09G13G28G30R01R02R11R12R13
                                E07E30
  24150747.536   126913017.756 7     -2859.665    24150744.617    98893254.78746
     -2228.312

  20571729.070   108105167.692 9       236.637    20571727.815    84237784.51948
       184.393

  21520978.368   113093503.568 9     -2035.794    21520976.628    88124801.61447
     -1586.333

  23591216.335   123972671.325 8     -3000.863    23591218.051    96602082.40747
     -2338.334    23591218.278    92577000.511 9     -2240.869

  22247699.681   116912451.646 9      2585.792    22247698.290    91100603.81247
      2014.902

  22563764.271   118573384.119 8      2672.386    22563763.330    92394838.02746
      2082.380

  20332145.273   106846143.454 9      -555.372    20332146.035    83256737.55649
      -432.757    20332146.247    79787707.494 9      -414.743

  21608612.134   115510421.907 8     -3255.586    21608615.272    89841442.820 6
     -2532.124

  19158855.445   102235321.566 9       606.047    19158856.065    79516361.843 8
       471.369

  20845644.950   111392802.137 9     -2983.974    20845645.246    86638848.096 8
     -2320.869

  19210106.195   102616937.350 9       658.542


  22439924.666   119827949.774 6      4219.520    22439926.364    93199530.699 5
      3281.850

  24844182.985   130557054.181 9     -1908.895
                  24844186.832    97493917.810 9     -1425.497    24844184.690
 100037231.363 9     -1462.669    24844185.756    98765575.191 9     -1444.084
  23099510.326   121388745.965 9     -1531.552
                  23099512.843    90647449.442 9     -1143.758    23099510.733
  93012155.316 9     -1173.566    23099511.873    91829802.981 9     -1158.646
 18  4  4  7 25  0.0000000  0 14G02G05G07G09G13G28G30R01R02R11R12R13
                                E07E30
  24167083.387   126998863.039 7     -2863.583    24167080.417    98960147.16647
     -2231.366

  20570431.673   108098349.756 9       217.535    20570430.414    84232471.84048
       169.508

  21532629.156   113154728.907 9     -2046.337    21532627.424    88172509.66647
     -1594.548

  23608358.092   124062751.675 7     -3004.822    23608359.808    96672274.86047
     -2341.423    23608360.018    92644268.281 9     -2243.941

  22232954.442   116834964.908 9      2579.642    22232953.063    91040224.53547
      2010.111

  22548538.192   118493370.757 8      2661.438    22548537.261    92332489.97046
      2073.849

  20335360.169   106863037.811 9      -571.353    20335360.937    83269901.98449
      -445.210    20335361.161    79800323.401 9      -426.625

  21626914.998   115608260.822 8     -3267.281    21626918.129    89917539.688 6
     -2541.221

  19155500.554   102217419.233 9       587.104    19155501.200    79502437.797 8
       456.636

  20862442.842   111482564.970 9     -3000.590    20862443.155    86708663.618 8
     -2333.792

  19206480.108   102597567.831 9       632.349


  22416243.904   119701495.774 6      4210.378    22416245.552    93101177.615 5
      3274.738

  24855099.262   130614419.569 9     -1915.871
                  24855103.150    97536755.562 9     -1430.645    24855100.962
 100081186.628 9     -1467.904    24855102.048    98808971.697 9     -1449.268
  23108286.894   121434867.161 9     -1543.578
                  23108289.448    90681890.574 9     -1152.641    23108287.323
  93047494.918 9     -1182.681    23108288.462    91864693.352 9     -1167.676
 18  4  4  7 25 30.0000000  0 14G02G05G07G09G13G28G30R01R02R11R12R13
                                E07E30
  24183442.554   127084830.979 7     -2867.537    24183439.582    99027135.12947
     -2234.445

  20569242.932   108092102.779 9       198.567    20569241.679    84227604.05348
       154.727

  21544339.453   113216266.965 9     -2056.569    21544337.738    88220461.38248
     -1602.522

  23625522.829   124152952.915 8     -3008.794    23625524.597    96742561.49347
     -2344.516    23625524.807    92711626.281 9     -2246.803

  22218243.737   116757659.661 9      2573.729    22218242.365    90979986.68147
      2005.504

  22533374.077   118413683.175 8      2650.747    22533373.154    92270395.77446
      2065.518

  20338665.712   106880408.538 9      -587.076    20338666.484    83283437.61149
      -457.461    20338666.710    79813295.046 9      -438.418

  21645283.798   115706452.483 8     -3278.999    21645286.877    89993910.958 6
     -2550.333

  19152251.385   102200081.044 9       568.478    19152252.066    79488952.532 8
       442.149

  20879332.713   111572819.367 9     -3016.747    20879333.032    86778861.484 8
     -2346.358

  19203000.067   102578978.300 9       606.579


  22392613.693   119575311.591 6      4201.673    22392615.286    93003034.354 5
      3267.968

  24866054.235   130671988.259 9     -1922.448
                  24866058.150    97579745.125 9     -1435.640    24866055.949
 100125297.689 9     -1473.083    24866057.040    98852522.012 9     -1454.358
  23117131.140   121481344.040 9     -1555.250
                  23117133.735    90716597.319 9     -1161.372    23117131.581
  93083107.068 9     -1191.674    23117132.735    91899852.799 9     -1176.528
 18  4  4  7 26  0.0000000  0 14G02G05G07G09G13G28G30R01R02R11R12R13
                                E07E30
  24199823.241   127170911.994 8     -2871.500    24199820.294    99094211.21647
     -2237.533

  20568161.663   108086420.596 9       179.708    20568160.406    84223176.37248
       140.032

  21556107.735   113278109.780 9     -2066.750    21556106.048    88268650.58648
     -1610.454

  23642709.185   124243267.784 8     -3012.769    23642710.981    96812936.67046
     -2347.614    23642711.256    92779069.142 9     -2249.713

  22203566.453   116680530.111 9      2567.723    22203565.080    90919885.75447
      2000.824

  22518271.206   118334317.418 8      2639.864    22518270.267    92208552.36846
      2057.039

  20342060.428   106898247.857 9      -602.620    20342061.203    83297338.37549
      -469.574    20342061.428    79826616.611 9      -450.076

  21663717.107   115804988.913 8     -3290.530    21663720.159    90070550.377 6
     -2559.302

  19149106.981   102183301.933 9       549.598    19149107.692    79475902.113 8
       427.465

  20896312.649   111663554.914 9     -3032.788    20896312.979    86849433.547 8
     -2358.837

  19199664.775   102561161.702 9       580.772


  22369033.272   119449393.563 6      4192.631    22369034.812    92905098.157 5
      3260.936

  24877046.620   130729753.474 9     -1929.132
                  24877050.525    97622881.436 9     -1440.555    24877048.364
 100169559.310 9     -1478.136    24877049.445    98896220.978 9     -1459.350
  23126041.548   121528168.583 9     -1566.794
                  23126044.169    90751563.682 9     -1170.034    23126041.999
  93118985.604 9     -1200.588    23126043.169    91935275.247 9     -1185.287
 18  4  4  7 26 30.0000000  0 14G02G05G07G09G13G28G30R01R02R11R12R13
                                E07E30
  24216226.033   127257109.152 7     -2875.147    24216223.131    99161377.81547
     -2240.373

  20567189.112   108081309.654 9       160.888    20567187.845    84219193.79748
       125.366

  21567934.789   113340261.377 9     -2076.774    21567933.139    88317080.38748
     -1618.266

  23659918.141   124333701.278 8     -3016.461    23659919.923    96883404.25946
     -2350.490    23659920.337    92846600.588 9     -2252.410

  22188923.897   116603582.976 8      2561.897    22188922.513    90859926.95547
      1996.283

  22503231.213   118255281.737 8      2629.053    22503230.215    92146966.15146
      2048.613

  20345545.204   106916560.458 9      -618.206    20345545.984    83311607.92749
      -481.719    20345546.217    79840291.596 9      -461.625

  21682215.635   115903874.040 7     -3301.740    21682218.713    90147461.019 6
     -2568.021

  19146068.845   102167089.858 9       530.962    19146069.582    79463292.710 8
       412.970

  20913382.954   111754773.386 9     -3048.525    20913383.303    86920381.219 8
     -2371.076

  19196475.303   102544123.602 9       555.010


  22345504.438   119323751.120 6      4183.670    22345505.959    92807376.306 5
      3253.966

  24888077.439   130787720.720 9     -1935.501
                  24888081.333    97666168.632 9     -1445.370    24888079.213
 100213975.741 9     -1483.089    24888080.284    98940072.791 9     -1464.211
  23135018.932   121575345.092 9     -1578.360
                  23135021.563    90786792.886 9     -1178.643    23135019.401
  93155133.825 9     -1209.395    23135020.571    91970963.960 9     -1194.016
 18  4  4  7 27  0.0000000  0 15G02G05G07G09G13G28G30R01R02R11R12R13
                                E07E11E30
  24232650.933   127343422.457 8     -2878.795    24232648.094    99228634.90947
     -2243.218

  20566325.913   108076773.421 9       141.678    20566324.639    84215659.05949
       110.398

  21579820.857   113402723.026 9     -2087.158    21579819.250    88365751.77647
     -1626.357

  23677150.182   124424256.021 7     -3020.389    23677151.914    96953966.33347
     -2353.553    23677152.485    92914222.584 9     -2255.538

  22174316.823   116526822.356 9      2555.627    22174315.428    90800113.50247
      1991.399

  22488255.206   118176582.086 8      2617.803    22488254.151    92085641.76147
      2039.848

  20349120.409   106935348.293 9      -634.131    20349121.190    83326247.80249
      -494.128    20349121.425    79854321.474 9      -473.499

  21700779.672   116003109.677 8     -3313.642    21700782.828    90224644.296 6
     -2577.278

  19143137.884   102151449.694 9       511.937    19143138.638    79451128.128 8
       398.173

  20930543.586   111846474.624 9     -3064.599    20930543.948    86991704.394 8
     -2383.577

  19193432.109   102527866.946 9       528.957


  22322028.415   119198390.621 6      4174.212    22322029.939    92709873.727 6
      3246.611

  24899147.270   130845892.978 9     -1942.474
                  24899151.184    97709608.923 9     -1450.538    24899149.040
 100258549.248 9     -1488.364    24899150.128    98984079.690 9     -1469.424
  28075292.993   147536658.09416       666.638
                  28075293.030   110173480.18817       497.766    28075290.512
 113047560.75417       510.722    28075291.776   111610519.07918       504.171
  23144063.616   121622875.233 9     -1590.158
                  23144066.249    90822286.168 9     -1187.449    23144064.117
  93191553.018 9     -1218.375    23144065.264    92006920.197 9     -1202.922
 18  4  4  7 27 30.0000000  0 15G02G05G07G09G13G28G30R01R02R11R12R13
                                E07E11E30
  24249096.279   127429843.151 7     -2882.668    24249093.501    99295975.67747
     -2246.237

  20565571.125   108072806.953 9       122.632    20565569.842    84212568.30549
        95.557

  21591764.430   113465486.764 9     -2097.303    21591762.841    88414658.55047
     -1634.263

  23694404.014   124514925.203 7     -3024.171    23694405.693    97024617.58147
     -2356.499    23694406.376    92981930.033 9     -2258.342

  22159744.221   116450242.847 9      2549.489    22159742.816    90740441.17147
      1986.615

  22473342.399   118098214.723 8      2606.670    22473341.337    92024576.29247
      2031.172

  20352784.683   106954604.155 9      -649.731    20352785.457    83341252.37549
      -506.283    20352785.690    79868700.853 9      -485.166

  21719407.938   116102688.217 8     -3325.173    21719411.116    90302094.176 6
     -2586.249

  19140313.227   102136376.811 9       492.825    19140313.983    79439404.767 8
       383.309

  20947792.608   111938648.213 9     -3080.370    20947792.983    87063394.957 8
     -2395.844

  19190534.039   102512385.771 9       503.036


  22298604.538   119073308.534 5      4164.482    22298606.044    92612587.689 5
      3239.042

  24910254.925   130904263.972 9     -1949.165
                  24910258.882    97753197.617 9     -1455.468    24910256.663
 100303275.028 9     -1493.412    24910257.787    99028236.925 9     -1474.433
  28071528.049   147516872.838 6       652.762
                  28071527.916   110158705.479 7       487.258    28071525.662
 113032400.606 7       500.038    28071526.770   111595551.645 8       493.687
  23153174.170   121670751.492 9     -1601.746
                  23153176.800    90858037.917 9     -1196.049    23153174.706
  93228237.426 9     -1227.278    23153175.820    92043138.277 9     -1211.666
 18  4  4  7 28  0.0000000  0 15G02G05G07G09G13G28G30R01R02R11R12R13
                                E07E11E30
  24265562.045   127516371.184 7     -2886.673    24265559.318    99363400.08046
     -2249.356

  20564925.410   108069413.727 9       102.968    20564924.122    84209924.23749
        80.235

  21603765.784   113528554.111 9     -2107.943    21603764.176    88463801.91747
     -1642.553

  23711680.128   124605711.419 7     -3028.895    23711681.761    97095360.03547
     -2360.179    23711682.492    93049724.844 9     -2261.621

  22145206.910   116373848.778 8      2542.846    22145205.481    90680913.34447
      1981.439

  22458494.014   118020186.053 8      2594.666    22458492.955    91963774.74747
      2021.818

  20356538.406   106974330.019 9      -665.927    20356539.172    83356623.17249
      -518.904    20356539.406    79883431.197 9      -497.244

  21738100.676   116202611.155 7     -3337.077    21738103.803    90379811.932 6
     -2595.507

  19137595.863   102121876.441 9       473.199    19137596.608    79428126.695 8
       368.044

  20965129.998   112031293.940 9     -3096.557    20965130.380    87135452.724 8
     -2408.434

  19187781.509   102497682.238 9       476.602


  22275233.971   118948511.249 5      4154.446    22275235.454    92515523.178 5
      3231.238

  24921400.964   130962836.661 9     -1956.369
                  24921404.955    97796936.930 9     -1460.861    24921402.675
 100348155.362 9     -1498.977    24921403.819    99072546.749 9     -1479.926
  28067842.690   147497506.070 6       638.175
                  28067842.434   110144243.276 7       476.456    28067840.381
 113017561.136 8       488.819    28067841.421   111580900.807 8       482.662
  23162350.932   121718975.622 9     -1613.780
                  23162353.554    90894049.434 9     -1205.052    23162351.492
  93265188.377 9     -1236.477    23162352.578    92079619.509 9     -1220.765
 18  4  4  7 28 30.0000000  0 16G02G05G07G09G13G28G30R01R02R11R12R13
                                R19E07E11E30
  24282047.863   127603004.483 6     -2889.127    24282045.161    99430906.46546
     -2251.269

  20564389.007   108066594.849 9        84.769    20564387.722    84207727.69748
        66.053

  21615824.732   113591924.075 9     -2117.007    21615823.081    88513181.09747
     -1649.617

  23728978.486   124696614.643 7     -3031.698    23728980.080    97166193.69246
     -2362.361    23728980.811    93117607.055 9     -2263.872

  22130705.167   116297641.572 9      2537.565    22130703.721    90621531.11047
      1977.324

  22443710.661   117942499.117 8      2584.379    22443709.575    91903239.49946
      2013.804

  20360381.479   106994525.415 9      -680.562    20360382.228    83372359.84649
      -530.308    20360382.467    79898512.180 9      -508.278

  21756857.610   116302877.755 6     -3347.479    21756860.733    90457797.082 6
     -2603.592

  19134986.227   102107950.921 9       455.001    19134986.981    79417295.724 8
       353.889

  20982555.146   112124408.560 9     -3111.086    20982555.534    87207875.177 8
     -2419.734

  19185174.792   102483757.497 9       451.576


  22251917.487   118824002.735 6      4145.708    22251918.947    92418683.268 5
      3224.441

  23549683.643                        -471.549    23549673.186
      -366.760

  24932585.474   131021611.526 9     -1962.162
                  24932589.474    97840827.218 9     -1465.253    24932587.195
 100393190.631 9     -1503.489    24932588.324    99117009.526 9     -1484.357
  28064237.154   147478558.956 5       624.628
                  28064236.854   110130094.433 8       466.655    28064234.954
 113003043.198 8       478.764    28064235.946   111566567.425 8       472.594
  23171593.737   121767546.819 9     -1624.318
                  23171596.348    90930320.131 9     -1213.047    23171594.309
  93302405.270 9     -1244.673    23171595.379    92116363.306 9     -1228.859
 18  4  4  7 29  0.0000000  0 15G02G05G07G09G13G28G30R01R02R11R12R13
                                E07E11E30
  24298552.869   127689738.745 6     -2892.478    24298550.172    99498491.52246
     -2253.881

  20563961.731   108064349.426 9        65.123    20563960.444    84205978.00348
        50.745

  21627940.619   113655593.158 9     -2127.444    21627938.928    88562793.34047
     -1657.750

  23746298.710   124787632.697 7     -3036.025    23746300.313    97237116.79147
     -2365.738    23746301.003    93185575.045 8     -2267.133

  22116238.849   116221620.515 9      2530.730    22116237.398    90562293.92447
      1971.998

  22428992.528   117865154.840 8      2572.258    22428991.378    91842971.26746
      2004.359

  20364313.410   107015187.784 9      -696.606    20364314.143    83388460.40149
      -542.810    20364314.377    79913941.874 9      -520.237

  21775678.168   116403484.739 8     -3359.373    21775681.398    90536046.952 6
     -2612.847

  19132484.394   102094600.647 9       435.227    19132485.157    79406912.169 8
       338.509

  21000067.068   112217986.881 9     -3127.035    21000067.470    87280658.286 8
     -2432.139

  19182713.349   102470609.290 9       425.211


  22228655.319   118699784.132 6      4135.496    22228656.769    92322068.829 5
      3216.498

  24943808.113   131080586.807 9     -1969.412
                  24943812.118    97884867.160 9     -1470.603    24943809.891
 100438379.475 9     -1509.003    24943810.985    99161623.921 9     -1489.798
  28060711.238   147460030.457 5       610.449
                  28060710.900   110116258.232 7       455.918    28060709.140
 112988846.040 7       467.847    28060710.083   111552550.745 8       461.776
  23180902.019   121816462.099 9     -1636.369
                  23180904.627    90966847.765 9     -1222.008    23180902.598
  93339885.792 9     -1253.842    23180903.661    92153367.382 9     -1237.929
 18  4  4  7 29 30.0000000  0 15G02G05G07G09G13G28G30R01R02R11R12R13
                                E07E11E30
  24315076.579   127776571.416 7     -2895.803    24315073.887    99566153.27146
     -2256.472

  20563643.731   108062678.220 9        46.417    20563642.432    84204675.74848
        36.168

  21640113.171   113719560.023 9     -2136.855    21640111.438    88612637.62447
     -1665.082

  23763640.711   124878765.350 7     -3039.204    23763642.399    97308129.18147
     -2368.212    23763642.989    93253628.591 8     -2269.495

  22101808.196   116145786.963 9      2524.979    22101806.746    90503202.86147
      1967.516

  22414340.174   117788156.224 8      2560.957    22414338.973    91782972.37347
      1995.552

  20368333.981   107036315.946 9      -711.780    20368334.714    83404923.89949
      -554.634    20368334.933    79929719.387 9      -531.442

  21794562.285   116504430.897 8     -3370.158    21794565.545    90614560.546 6
     -2621.237

  19130090.662   102081827.179 9       416.433    19130091.436    79396977.237 8
       323.892

  21017665.053   112312025.219 9     -3141.845    21017665.474    87353799.205 8
     -2443.657

  19180397.285   102458237.722 9       399.857


  22205448.122   118575859.029 6      4126.359    22205449.549    92225682.665 5
      3209.391

  24955068.897   131139762.633 9     -1975.585
                  24955072.896    97929056.879 9     -1475.172    24955070.734
 100483721.969 9     -1513.761    24955071.800    99206390.030 9     -1494.464
  28057265.162   147441921.482 5       597.078
                  28057264.804   110102735.297 7       446.002    28057263.124
 112974970.334 7       457.572    28057264.054   111538851.424 8       451.665
  23190275.553   121865720.297 9     -1647.333
                  23190278.169    91003631.467 9     -1230.071    23190276.152
  93377629.069 9     -1262.181    23190277.205    92190630.873 9     -1246.141
 18  4  4  7 30  0.0000000  0 15G02G05G07G09G13G28G30R01R02R11R12R13
                                E07E11E30
  24331618.185   127863498.271 7     -2899.076    24331615.484    99633888.46046
     -2259.021

  20563434.903   108061580.754 9        27.076    20563433.606    84203820.56448
        21.097

  21652341.821   113783821.675 9     -2146.889    21652340.039    88662711.61147
     -1672.902

  23781004.134   124970010.929 7     -3043.272    23781005.939    97379229.59347
     -2371.382    23781006.436    93321766.439 9     -2272.647

  22087413.261   116070141.021 9      2518.527    22087411.810    90444257.96447
      1962.489

  22399753.926   117711505.062 8      2549.206    22399752.722    91723244.21847
      1986.394

  20372442.790   107057907.849 9      -727.406    20372443.525    83421748.75749
      -566.810    20372443.739    79945843.214 9      -543.237

  21813509.485   116605713.928 7     -3381.599    21813512.646    90693336.151 6
     -2630.134

  19127805.234   102069631.651 9       396.952    19127806.025    79387491.820 8
       308.741

  21035348.280   112406519.049 9     -3157.214    21035348.718    87427294.386 8
     -2455.611

  19178226.439   102446641.170 9       373.665


  22182296.215   118452229.280 6      4116.157    22182297.600    92129526.236 5
      3201.457

  24966367.623   131199137.848 9     -1982.435
                  24966371.593    97973395.511 9     -1480.522    24966369.458
 100529217.215 9     -1519.054    24966370.528    99251306.969 9     -1499.788
  28053898.808   147424231.491 4       583.108
                  28053898.446   110089525.250 7       435.013    28053896.798
 112961415.664 7       446.463    28053897.737   111525469.057 8       440.788
  23199713.860   121915318.969 9     -1658.860
                  23199716.481    91040669.431 9     -1238.840    23199714.487
  93415633.243 9     -1271.148    23199715.524    92228151.942 9     -1255.009
 18  4  4  7 30 30.0000000  0 15G02G05G07G09G13G28G30R01R02R11R12R13
                                E07E11E30
  24348176.938   127950515.109 7     -2902.173    24348174.224    99701693.77246
     -2261.437

  20563335.018   108061055.856 9         8.089    20563333.721    84203411.55348
         6.303

  21664626.003   113848375.203 9     -2156.513    21664624.185    88713013.03147
     -1680.400

  23798388.604   125061367.283 7     -3046.995    23798390.535    97450416.32546
     -2374.283    23798390.982    93389987.016 9     -2275.191

  22073053.825   115994681.710 9      2512.331    22073052.371    90385458.50747
      1957.660

  22385233.986   117635202.440 8      2537.700    22385232.823    91663787.65547
      1977.428

  20376639.328   107079960.817 9      -742.604    20376640.063    83438932.89149
      -578.652    20376640.272    79962311.334 9      -554.510

  21832518.903   116707330.159 6     -3392.696    21832522.016    90772370.994 6
     -2638.764

  19125628.157   102058014.313 9       377.756    19125628.954    79378456.107 8
       293.811

  21053115.729   112501462.902 9     -3172.092    21053116.160    87501139.579 8
     -2467.183

  19176200.258   102435817.633 9       348.084


  22159199.912   118328896.461 6      4106.316    22159201.270    92033600.752 6
      3193.803

  24977704.006   131258710.726 9     -1988.927
                  24977707.958    98017881.701 9     -1485.207    24977705.809
 100574863.921 9     -1523.964    24977706.902    99296373.415 9     -1504.582
  28050611.691   147406958.47814       569.105
                  28050611.305   110076627.271 7       424.830    28050609.984
 112948181.229 7       435.844    28050610.960   111512402.856 8       430.373
  23209216.398   121965255.161 9     -1670.070
                  23209219.023    91077959.427 9     -1247.086    23209217.055
  93453896.012 9     -1279.574    23209218.078    92265928.323 9     -1263.351
 18  4  4  7 31  0.0000000  0 15G02G05G07G09G13G28G30R01R02R11R12R13
                                E07E11E30
  24364752.783   128037621.722 7     -2904.821    24364750.065    99769569.05346
     -2263.495

  20563344.758   108061106.967 9       -11.299    20563343.462    84203451.36248
        -8.806

  21676965.904   113913221.665 9     -2166.310    21676964.062    88763542.73047
     -1688.034

  23815794.601   125152836.549 8     -3050.782    23815796.649    97521690.99247
     -2377.235    23815797.093    93458291.922 9     -2278.187

  22058730.576   115919412.607 9      2505.786    22058729.124    90326807.27247
      1952.560

  22370781.400   117559253.633 8      2525.725    22370780.305    91604606.75847
      1968.098

  20380923.890   107102476.368 9      -758.167    20380924.634    83456477.47049
      -590.780    20380924.830    79979124.889 9      -566.143

  21851590.953   116809281.458 8     -3403.928    21851594.188    90851666.400 7
     -2647.502

  19123560.211   102046979.293 9       358.191    19123560.998    79369873.299 8
       278.592

  21070967.199   112596855.800 9     -3187.097    21070967.624    87575334.040 8
     -2478.853

  19174319.375   102425769.907 9       322.106


  22136160.380   118205866.745 6      4096.079    22136161.716    91937910.999 6
      3185.841

  24989078.480   131318483.778 9     -1995.701
                  24989082.425    98062517.377 9     -1490.297    24989080.243
 100620664.049 9     -1529.169    24989081.370    99341591.318 9     -1509.749

                  28047404.755   110064043.823 7       414.208    28047403.328
 112935269.526 7       424.988    28047404.319   111499655.274 8       419.610
  23218783.398   122015530.110 9     -1681.422
                  23218786.031    91115502.391 9     -1255.531    23218784.092
  93492418.373 9     -1288.360    23218785.097    92303960.987 9     -1271.973
 18  4  4  7 31 30.0000000  0 15G02G05G07G09G13G28G30R01R02R11R12R13
                                E07E11E30
  24381345.057   128124814.379 7     -2907.657    24381342.350    99837511.33646
     -2265.707

  20563464.005   108061733.539 9       -30.451    20563462.712    84203939.58748
       -23.728

  21689360.985   113978358.154 9     -2175.876    21689359.132    88814298.42347
     -1695.488

  23833221.853   125244417.341 8     -3054.471    23833223.952    97593052.57046
     -2380.110    23833224.431    93526680.097 9     -2280.913

  22044443.647   115844334.325 9      2499.499    22044442.196    90268304.72147
      1947.661

  22356396.482   117483660.406 8      2513.898    22356395.413    91545702.96846
      1958.882

  20385296.087   107125452.481 9      -773.374    20385296.845    83474380.93249
      -602.629    20385297.030    79996282.374 9      -577.575

  21870725.167   116911564.861 7     -3414.817    21870728.543    90931220.111 6
     -2655.970

  19121601.583   102036527.690 9       338.782    19121602.363    79361744.272 8
       263.497

  21088901.864   112692693.241 9     -3201.741    21088902.300    87649874.245 8
     -2490.244

  19172583.357   102416496.282 9       296.254


  22113177.934   118083141.943 6      4085.926    22113179.252    91842458.414 6
      3177.944

  25000490.830   131378455.986 9     -2002.257
                  25000494.775    98107301.800 9     -1495.275    25000492.567
 100666616.792 9     -1534.275    25000493.733    99386959.903 9     -1514.774

                  28044278.321   110051774.659 7       403.845    28044276.849
 112922680.272 7       414.401    28044277.770   111487226.067 8       409.130
  23228414.437   122066141.597 9     -1692.603
                  23228417.087    91153296.675 9     -1263.959    23228415.157
  93531198.592 9     -1296.883    23228416.147    92342248.236 9     -1280.411
 18  4  4  7 32  0.0000000  0 15G02G05G07G09G13G28G30R01R02R11R12R13
                                E07E11E30
  24397953.188   128212090.100 7     -2910.511    24397950.497    99905518.30547
     -2267.936

  20563692.828   108062935.901 9       -49.565    20563691.526    84204876.48148
       -38.622

  21701810.852   114043782.607 9     -2185.590    21701809.005    88865278.50248
     -1703.058

  23850670.158   125336108.597 8     -3058.212    23850672.203    97664500.25346
     -2383.024    23850672.771    93595150.778 9     -2283.681

  22030193.150   115769447.533 9      2493.008    22030191.696    90209951.39047
      1942.603

  22342079.681   117408425.014 8      2501.895    22342078.598    91487078.01747
      1949.529

  20389755.634   107148887.588 9      -788.730    20389756.399    83492642.05149
      -614.595    20389756.569    80013782.611 9      -589.005

  21889921.228   117014178.723 6     -3426.096    21889924.686    91011030.864 6
     -2664.742

  19119752.522   102026660.740 9       319.210    19119753.299    79354069.968 8
       248.275

  21106918.938   112788971.071 9     -3216.550    21106919.381    87724756.984 8
     -2501.762

  19170992.036   102407995.854 9       270.489


  22090253.091   117960724.739 6      4075.406    22090254.418    91747245.060 6
      3169.761

  25011940.983   131438626.863 9     -2008.973
                  25011944.929    98152234.582 9     -1500.174    25011942.710
 100712721.705 9     -1539.302    25011943.898    99432478.750 9     -1519.759

                  28041231.995   110039819.803 7       393.324    28041230.449
 112910413.561 7       403.551    28041231.323   111475115.288 8       398.411
  23238109.177   122117087.787 9     -1703.768
                  23238111.863    91191340.892 9     -1272.255    23238109.913
  93570235.273 9     -1305.471    23238110.900    92380788.688 9     -1288.895
 18  4  4  7 32 30.0000000  0 15G02G05G07G09G13G28G30R01R02R11R12R13
                                E07E11E30
  24414576.857   128299447.569 6     -2913.205    24414574.177    99973589.00246
     -2270.033

  20564031.614   108064716.196 9       -69.102    20564030.296    84206263.72248
       -53.846

  21714315.628   114109495.641 9     -2195.311    21714313.813    88916483.43648
     -1710.633

  23868139.774   125427911.620 8     -3061.843    23868141.732    97736035.01347
     -2385.854    23868142.400    93663704.920 8     -2286.571

  22015979.587   115694754.801 9      2486.369    22015978.121    90151749.26747
      1937.430

  22327831.787   117333551.876 8      2489.740    22327830.701    91428735.33847
      1940.058

  20394302.652   107172782.319 9      -804.167    20394303.414    83511261.31749
      -626.624    20394303.569    80031626.070 9      -600.518

  21909179.036   117117122.827 7     -3437.114    21909182.553    91091098.469 6
     -2673.314

  19118013.692   102017381.927 9       299.446    19118014.472    79346853.094 8
       232.901

  21125018.087   112885687.462 9     -3231.263    21125018.533    87799980.824 8
     -2513.205

  19169545.640   102400270.139 9       244.575


  22067386.774   117838620.121 6      4064.903    22067388.099    91652274.861 6
      3161.594

  25023429.249   131498998.019 9     -2015.750
                  25023433.202    98197316.918 9     -1505.221    25023430.972
 100758980.071 9     -1544.564    25023432.159    99478149.098 9     -1524.861

                  28038266.240   110028181.007 6       382.512    28038264.581
 112898471.141 6       392.540    28038265.442   111463324.679 7       387.506
  23247867.680   122168369.016 9     -1715.041
                  23247870.403    91229635.302 9     -1280.658    23247868.407
  93609528.670 9     -1314.095    23247869.407    92419582.589 9     -1297.365
 18  4  4  7 33  0.0000000  0 15G02G05G07G09G13G28G30R01R02R11R12R13
                                E07E11E30
  24431215.802   128386885.477 6     -2915.841    24431213.148   100041722.38146
     -2272.083

  20564480.633   108067075.712 9       -88.053    20564479.300    84208102.29348
       -68.613

  21726875.150   114175496.436 9     -2204.493    21726873.371    88967912.60947
     -1717.787

  23885630.805   125519827.123 8     -3065.579    23885632.718    97807657.39747
     -2388.766    23885633.454    93732343.039 8     -2289.087

  22001803.317   115620257.999 8      2480.275    22001801.837    90093699.81047
      1932.682

  22313653.498   117259044.842 8      2477.634    22313652.456    91370677.93747
      1930.625

  20398937.147   107197136.675 9      -819.099    20398937.905    83530238.72249
      -638.259    20398938.046    80049812.748 9      -611.662

  21928498.678   117220397.364 8     -3447.686    21928502.258    91171423.016 6
     -2681.536

  19116385.680   102008694.441 9       280.025    19116386.461    79340096.145 8
       217.797

  21143198.838   112982839.916 9     -3245.285    21143199.288    87875543.827 8
     -2524.110

  19168244.414   102393319.619 9       219.068


  22044579.885   117716832.631 6      4054.591    22044581.198    91557551.285 5
      3153.571

  25034955.822   131559570.450 9     -2022.163
                  25034959.801    98242549.554 9     -1510.030    25034957.528
 100805392.717 9     -1549.443    25034958.720    99523971.739 9     -1529.742

                  28035381.336   110016859.464 4       372.144    28035379.530
 112886854.211 4       382.026    28035380.395   111451855.442 5       377.089
  23257689.918   122219985.121 9     -1725.781
                  23257692.667    91268179.776 9     -1288.702    23257690.618
  93649078.653 9     -1322.325    23257691.645    92458629.820 9     -1305.504
 18  4  4  7 33 30.0000000  0 15G02G05G07G09G13G28G30R01R02R11R12R13
                                E07E11E30
  24447868.804   128474397.509 7     -2918.287    24447866.172   100109913.53046
     -2273.996

  20565039.387   108070011.935 9      -107.562    20565038.041    84210390.24948
       -83.815

  21739488.454   114241779.909 9     -2214.136    21739486.708    89019562.06547
     -1725.301

  23903142.445   125611851.116 8     -3069.128    23903144.344    97879364.35647
     -2391.529    23903145.114    93801062.226 8     -2292.017

  21987663.981   115545955.367 8      2473.497    21987662.502    90035801.66847
      1927.401

  22299544.734   117184903.386 8      2465.219    22299543.773    91312905.41747
      1920.952

  20403658.262   107221946.218 9      -834.657    20403659.005    83549570.83549
      -650.381    20403659.128    80068339.359 9      -623.268

  21947879.197   117323997.066 8     -3458.672    21947882.793    91252000.483 6
     -2690.081

  19114868.086   102000596.177 9       260.085    19114868.861    79333797.489 8
       202.288

  21161459.867   113080421.348 9     -3259.783    21161460.313    87951440.485 8
     -2535.387

  19167087.694   102387140.238 9       193.131


  22021832.417   117595362.385 6      4043.479    22021833.735    91463074.438 6
      3144.929

  25046520.067   131620340.819 9     -2029.034
                  25046524.093    98287929.989 9     -1515.182    25046521.751
 100851957.036 9     -1554.705    25046522.977    99569944.117 9     -1534.920


                                  28032575.099   111440703.63413       365.575
  23267574.988   122271931.412 9     -1737.078
                  23267577.742    91306970.826 9     -1297.166    23267575.649
  93688881.638 9     -1330.963    23267576.706    92497926.833 9     -1314.049
 18  4  4  7 34  0.0000000  0 15G02G05G07G09G13G28G30R01R02R11R12R13
                                E07E11E30
  24464535.120   128561979.915 7     -2920.332    24464532.501   100178159.57646
     -2275.582

  20565707.761   108073524.175 9      -126.436    20565706.402    84213127.04748
       -98.522

  21752155.039   114308343.300 9     -2223.259    21752153.335    89071429.61747
     -1732.411

  23920674.432   125703982.041 8     -3072.623    23920676.332    97951154.64346
     -2394.252    23920677.095    93869861.212 8     -2294.452

  21973561.541   115471846.583 8      2467.215    21973560.079    89978054.56447
      1922.505

  22285505.838   117111128.964 8      2453.166    22285504.959    91255418.89347
      1911.559

  20408465.559   107247208.591 9      -849.425    20408466.281    83569255.79249
      -661.890    20408466.386    80087204.109 9      -634.290

  21967320.077   117427919.424 7     -3469.345    21967323.649    91332828.980 6
     -2698.379

  19113461.051   101993087.910 9       240.674    19113461.832    79327957.718 8
       187.191

  21179800.291   113178426.911 9     -3273.545    21179800.727    88027667.005 8
     -2546.091

  19166074.984   102381730.292 9       167.763


  21999144.463   117474210.036 6      4033.266    21999145.811    91368844.857 6
      3136.986

  25058121.709   131681307.782 9     -2035.236
                  25058125.775    98333457.229 9     -1519.808    25058123.404
 100898671.932 9     -1559.466    25058124.656    99616065.183 9     -1539.603


                                  28029850.824   111429872.735 6       355.895
  23277522.394   122324205.247 9     -1747.702
                  23277525.141    91346006.459 9     -1305.047    23277523.021
  93728935.598 9     -1339.129    23277524.108    92537471.633 9     -1322.119
 18  4  4  7 34 30.0000000  0 15G02G05G07G09G13G28G30R01R02R11R12R13
                                E07E11E30
  24481214.411   128649630.262 7     -2923.216    24481211.812   100246458.53446
     -2277.836

  20566485.838   108077612.955 9      -146.455    20566484.487    84216313.09648
      -114.121

  21764874.708   114375185.699 9     -2233.191    21764873.046    89123514.58848
     -1740.149

  23938226.778   125796219.879 7     -3076.794    23938228.716    98023028.20747
     -2397.504    23938229.437    93938740.039 8     -2297.618

  21959496.357   115397933.577 8      2460.055    21959494.905    89920460.01847
      1916.926

  22271537.425   117037724.671 8      2440.117    22271536.579    91198220.78147
      1901.391

  20413358.898   107272923.181 9      -865.187    20413359.603    83589293.13349
      -674.172    20413359.687    80106406.562 9      -646.022

  21986821.040   117532163.204 7     -3480.468    21986824.621    91413907.493 5
     -2707.031

  19112165.020   101986172.009 9       220.165    19112165.817    79322578.673 8
       171.239

  21198219.492   113276853.448 9     -3288.333    21198219.913    88104220.961 8
     -2557.593

  19165206.222   102377090.123 9       141.373


  21976516.877   117353380.204 6      4021.760    21976518.251    91274866.160 6
      3128.037

  25069760.818   131742471.767 9     -2042.559
                  25069764.852    98379131.637 9     -1525.215    25069762.539
 100945537.793 9     -1565.026    25069763.775    99662335.316 9     -1545.113


                                  28027206.903   111419361.372 6       344.794
  23287531.971   122376805.841 9     -1759.385
                  23287534.691    91385286.114 9     -1313.714    23287532.565
  93769239.935 9     -1347.997    23287533.676    92577263.630 9     -1330.865
 18  4  4  7 35  0.0000000  0 15G02G05G07G09G13G28G30R01R02R11R12R13
                                E07E11E30
  24497906.266   128737346.345 7     -2924.559    24497903.675   100314808.67845
     -2278.880

  20567373.888   108082279.665 9      -164.876    20567372.539    84219949.48748
      -128.475

  21777647.250   114442305.915 9     -2241.711    21777645.625    89175816.03747
     -1746.789

  23955799.412   125888564.585 7     -3079.573    23955801.409    98094985.08147
     -2399.668    23955802.042    94007698.688 8     -2299.778

  21945468.654   115324217.545 8      2454.143    21945467.203    89863018.95847
      1912.320

  22257640.059   116964693.369 8      2428.442    22257639.195    91141313.27746
      1892.293

  20418338.155   107299089.265 9      -879.423    20418338.854    83609682.29049
      -685.265    20418338.911    80125946.170 9      -656.717

  22006382.021   117636727.616 7     -3490.596    22006385.615    91495235.303 5
     -2714.911

  19110980.394   101979850.551 9       201.031    19110981.206    79317661.966 8
       156.357

  21216716.908   113375697.913 9     -3301.474    21216717.319    88181099.971 8
     -2567.814

  19164481.504   102373219.161 9       116.448


  21953950.359   117232876.378 6      4011.485    21953951.757    91181140.993 6
      3120.044

  25081437.502   131803833.099 9     -2048.366
                  25081441.459    98424953.403 9     -1529.587    25081439.239
 100992554.907 9     -1569.524    25081440.442    99708754.757 9     -1549.537


                                  28024643.549   111409170.437 6       334.468
  23297603.555   122429732.252 9     -1769.418
                  23297606.238    91424809.064 9     -1321.298    23297604.128
  93809793.922 9     -1355.760    23297605.251    92617302.099 9     -1338.540
 18  4  4  7 35 30.0000000  0 15G02G05G07G09G13G28G30R01R02R11R12R13
                                E07E11E30
  24514610.028   128825124.712 6     -2926.986    24514607.407   100383207.32345
     -2280.773

  20568371.802   108087523.639 9      -184.232    20568370.460    84224035.67848
      -143.559

  21790472.154   114509701.284 9     -2250.873    21790470.565    89228331.90047
     -1753.927

  23973392.117   125981014.662 8     -3083.521    23973394.187    98167024.02646
     -2402.748    23973394.704    94076735.971 8     -2302.494

  21931478.490   115250698.715 8      2447.566    21931477.036    89805731.55147
      1907.194

  22243814.047   116892036.956 8      2415.753    22243813.147    91084697.87346
      1882.405

  20423402.920   107325704.711 9      -894.459    20423403.622    83630421.59349
      -696.981    20423403.662    80145821.329 9      -668.010

  22026002.528   117741609.991 7     -3501.387    22026006.059    91576810.408 6
     -2723.302

  19109907.209   101974123.823 9       181.149    19109908.029    79313207.846 8
       140.893

  21235291.670   113474955.663 9     -3315.287    21235292.076    88258300.422 8
     -2578.557

  19163900.588   102370115.649 9        90.821


  21931445.273   117112700.558 6      4000.571    21931446.696    91087670.932 6
      3111.557

  25093151.569   131865390.760 8     -2054.935
                  25093155.500    98470921.730 9     -1534.620    25093153.308
 101039722.466 9     -1574.671    25093154.519    99755322.699 9     -1554.609


                                  28022160.582   111399299.406 6       323.693
  23307736.685   122482982.128 9     -1780.211
                  23307739.326    91464573.574 9     -1329.421    23307737.240
  93850595.760 9     -1364.113    23307738.365    92657585.267 9     -1346.750
 18  4  4  7 36  0.0000000  0 15G02G05G07G09G13G28G30R01R02R11R12R13
                                E07E11E30
  24531325.315   128912963.609 6     -2929.240    24531322.666   100451653.14345
     -2282.525

  20569479.913   108093346.730 9      -203.865    20569478.579    84228573.14048
      -158.857

  21803349.526   114577372.248 9     -2260.364    21803347.969    89281062.49547
     -1761.323

  23991005.132   126073571.404 8     -3087.121    23991007.256    98239146.08646
     -2405.551    23991007.666    94145852.953 8     -2305.307

  21917526.427   115177380.132 8      2440.597    21917524.966    89748600.18647
      1901.763

  22230060.167   116819759.940 8      2402.799    22230059.225    91028378.14547
      1872.312

  20428553.308   107352770.162 9      -909.705    20428554.026    83651511.55149
      -708.861    20428554.052    80166032.539 9      -679.373

  22045682.510   117846810.233 7     -3511.885    22045685.940    91658632.772 6
     -2731.468

  19108946.231   101968995.775 9       160.850    19108947.054    79309219.348 8
       125.106

  21253943.405   113574624.717 9     -3329.210    21253943.805    88335820.772 8
     -2589.386

  19163463.657   102367781.016 9        64.941


  21909002.587   116992858.006 7      3989.023    21909004.042    90994460.092 6
      3102.575

  25104903.283   131927146.353 9     -2061.760
                  25104907.245    98517037.869 9     -1539.711    25104905.004
 101087041.658 9     -1579.876    25104906.277    99802040.368 9     -1559.774


                                  28019758.498   111389750.080 6       312.944
  23317931.448   122536555.864 9     -1791.228
                  23317934.060    91504579.916 9     -1337.627    23317931.991
  93891645.744 9     -1372.537    23317933.119    92698113.434 9     -1355.089
 18  4  4  7 36 30.0000000  0 15G02G05G07G09G13G28G30R01R02R11R12R13
                                E07E11E30
  24548051.738   129000861.415 7     -2930.972    24548049.068   100520144.93945
     -2283.870

  20570698.454   108099750.113 9      -223.365    20570697.114    84233562.77648
      -174.051

  21816279.072   114645317.367 9     -2269.580    21816277.521    89334006.72647
     -1768.504

  24008638.479   126166234.859 7     -3090.697    24008640.611    98311351.30746
     -2408.337    24008640.954    94215049.615 8     -2308.014

  21903612.701   115104263.099 8      2433.631    21903611.229    89691625.89247
      1896.336

  22216379.059   116747865.495 8      2389.929    22216378.068    90972356.53647
      1862.283

  20433789.201   107380284.904 9      -924.808    20433789.940    83672951.60549
      -720.629    20433789.936    80186579.255 9      -690.629

  22065421.829   117952327.827 7     -3522.718    22065425.201    91740701.982 6
     -2739.892

  19108097.789   101964468.267 9       140.653    19108098.609    79305697.941 8
       109.397

  21272671.575   113674702.212 9     -3342.930    21272671.946    88413658.802 8
     -2600.058

  19163170.553   102366215.004 9        39.098


  21886622.900   116873351.762 7      3977.746    21886624.381    90901510.802 6
      3093.804

  25116692.725   131989100.290 9     -2068.541
                  25116696.699    98563302.171 9     -1544.730    25116694.413
 101134512.812 9     -1585.045    25116695.731    99848908.094 9     -1564.885


                                  28017437.526   111380523.167 5       302.160
  23328187.662   122590452.563 9     -1802.118
                  23328190.254    91544827.437 9     -1345.745    23328188.186
  93932943.198 9     -1380.865    23328189.321    92738885.921 9     -1363.298
 18  4  4  7 37  0.0000000  0 15G02G05G07G09G13G28G30R01R02R11R12R13
                                E07E11E30
  24564788.710   129088814.768 7     -2933.212    24564786.087   100588679.99446
     -2285.621

  20572027.310   108106733.213 9      -242.496    20572025.964    84239004.13848
      -188.959

  21829260.407   114713534.589 9     -2278.455    21829258.844    89387162.97947
     -1775.420

  24026291.900   126259003.815 7     -3094.329    24026293.998    98383638.75646
     -2411.169    24026294.323    94284325.042 8     -2310.421

  21889737.431   115031348.109 8      2427.084    21889735.946    89634809.02348
      1891.234

  22202771.150   116676355.656 8      2377.252    22202770.130    90916634.62047
      1852.405

  20439110.237   107408247.072 9      -939.558    20439111.001    83694740.29549
      -732.124    20439110.965    80207460.079 9      -701.513

  22085220.011   118058160.176 7     -3533.015    22085223.392    91823015.990 6
     -2747.902

  19107362.030   101960542.103 9       120.793    19107362.858    79302644.254 8
        93.950

  21291475.366   113775183.790 9     -3355.990    21291475.703    88491811.122 8
     -2610.215

  19163020.948   102365415.921 9        13.835


  21864306.618   116754184.078 6      3966.444    21864308.092    90808824.852 6
      3085.013

  25128519.786   132051251.785 9     -2074.975
                  25128523.717    98609714.008 9     -1549.443    25128521.455
 101182135.333 9     -1589.810    25128522.746    99895925.275 9     -1569.639


                                  28015197.612   111371618.474 5       291.623
  23338504.945   122644670.207 9     -1812.607
                  23338507.532    91585314.622 9     -1353.480    23338505.448
  93974486.571 9     -1388.819    23338506.598    92779901.198 9     -1371.138
 18  4  4  7 37 30.0000000  0 15G02G05G07G09G13G28G30R01R02R11R12R13
                                E07E11E30
  24581535.121   129176817.847 7     -2934.008    24581532.570   100657253.81146
     -2286.244

  20573465.986   108114293.464 9      -261.227    20573464.627    84244895.23948
      -203.553

  21842292.598   114782019.068 9     -2286.912    21842291.014    89440527.48547
     -1782.010

  24043964.765   126351874.767 7     -3097.045    24043966.840    98456005.62046
     -2413.286    24043967.195    94353676.590 8     -2312.697

  21875900.265   114958633.408 8      2420.888    21875898.778    89578148.22347
      1886.406

  22189236.330   116605229.773 9      2364.827    22189235.322    90861211.87947
      1842.724

  20444515.588   107436652.377 9      -953.791    20444516.372    83716874.29549
      -743.214    20444516.313    80228671.833 9      -712.295

  22105076.231   118164302.769 7     -3542.821    22105079.645    91905571.286 6
     -2755.530

  19106738.702   101957215.912 9       101.184    19106739.548    79300057.219 8
        78.699

  21310353.487   113876062.466 9     -3368.855    21310353.803    88570272.276 8
     -2620.221

  19163014.125   102365379.708 9       -11.138


  21842053.918   116635355.845 6      3955.526    21842055.361    90716402.904 5
      3076.521

  25140383.873   132113597.634 8     -2081.061
                  25140387.770    98656270.910 9     -1554.040    25140385.582
 101229906.799 9     -1594.539    25140386.794    99943089.454 9     -1574.262


                                  28013038.190   111363033.940 5       281.122
  23348882.419   122699204.224 9     -1822.550
                  23348885.015    91626038.071 9     -1361.100    23348882.893
  94016272.371 9     -1396.573    23348884.072    92821155.825 9     -1378.821
 18  4  4  7 38  0.0000000  0 15G02G05G07G09G13G28G30R01R02R11R12R13
                                E07E11E30
  24598290.950   129264870.148 8     -2936.101    24598288.477   100725865.93346
     -2287.873

  20575014.915   108122433.104 9      -281.201    20575013.535    84251237.80548
      -219.119

  21855375.737   114850771.327 9     -2296.487    21855374.138    89494100.66047
     -1789.470

  24061657.311   126444849.242 7     -3101.131    24061659.365    98528453.16547
     -2416.471    24061659.773    94423105.509 8     -2315.793

  21862101.828   114886122.229 8      2413.299    21862100.348    89521646.00647
      1880.494

  22175775.456   116534492.390 9      2351.179    22175774.490    90806091.85247
      1832.088

  20450005.449   107465501.791 9      -969.287    20450006.260    83739354.34849
      -755.289    20450006.183    80250215.206 9      -723.823

  22124990.550   118270755.892 7     -3553.746    22124993.958    91988368.099 6
     -2764.026

  19106228.556   101954493.592 9        80.355    19106229.413    79297939.847 8
        62.498

  21329305.634   113977336.865 9     -3382.703    21329305.927    88649041.245 8
     -2630.991

  19163150.540   102366108.154 9       -37.274


  21819865.661   116516871.843 6      3943.325    21819867.042    90624248.714 6
      3067.032

  25152285.279   132176139.789 9     -2088.218
                  25152289.178    98702974.413 9     -1559.415    25152287.034
 101277828.742 9     -1600.088    25152288.222    99990402.178 9     -1579.743


                                  28010959.795   111354771.632 5       269.799
  23359320.274   122754055.435 9     -1833.915
                  23359322.895    91666998.356 9     -1369.494    23359320.722
  94058301.201 9     -1405.247    23359321.936    92862650.383 9     -1387.365
 18  4  4  7 38 30.0000000  0 15G02G05G07G09G13G28G30R01R02R11R12R13
                                E07E11E30
  24615055.006   129352965.510 8     -2937.198    24615052.570   100794511.59546
     -2288.732

  20576673.534   108131149.149 9      -300.150    20576672.130    84258029.51548
      -233.883

  21868508.940   114919786.657 9     -2305.045    21868507.339    89547878.81947
     -1796.140

  24079368.827   126537923.491 7     -3104.101    24079370.851    98600978.47447
     -2418.783    24079371.321    94492608.919 8     -2318.038

  21848341.667   114813812.200 8      2406.874    21848340.180    89465300.53747
      1875.486

  22162388.417   116464142.922 8      2338.355    22162387.485    90751274.09347
      1822.096

  20455578.937   107494790.736 9      -983.646    20455579.784    83762176.89849
      -766.477    20455579.689    80272086.824 9      -734.546

  22144962.038   118377514.796 7     -3563.752    22144965.394    92071402.770 6
     -2771.809

  19105831.230   101952373.257 9        60.462    19105832.093    79296290.676 8
        47.026

  21348330.551   114079000.116 9     -3395.341    21348330.834    88728112.635 8
     -2640.821

  19163429.165   102367596.470 9       -62.496


  21797741.706   116398731.304 6      3932.117    21797743.026    90532361.672 6
      3058.315

  25164223.347   132238874.824 9     -2094.488
                  25164227.276    98749821.991 9     -1564.042    25164225.111
 101325898.439 9     -1604.809    25164226.341   100037860.819 9     -1584.400


                                  28008961.919   111346829.251 5       259.240
  23369817.584   122809219.098 9     -1844.013
                  23369820.235    91708191.973 9     -1377.059    23369818.001
  94100569.441 9     -1412.930    23369819.256    92904381.312 9     -1394.999
 18  4  4  7 39  0.0000000  0 15G02G05G07G09G13G28G30R01R02R11R12R13
                                E07E11E30
  24631827.892   129441107.360 6     -2938.580    24631825.456   100863193.51646
     -2289.806

  20578443.093   108140448.181 9      -319.683    20578441.659    84265275.50248
      -249.104

  21881693.092   114989069.694 9     -2314.101    21881691.497    89601865.58047
     -1803.196

  24097100.437   126631103.320 7     -3107.960    24097102.442    98673586.04546
     -2421.791    24097102.981    94562191.157 8     -2320.770

  21834621.187   114741710.685 9      2399.778    21834619.676    89409117.55347
      1869.958

  22149076.870   116394190.259 8      2324.980    22149075.941    90696765.54246
      1811.672

  20461237.016   107524524.248 9      -998.580    20461237.897    83785345.86949
      -778.114    20461237.781    80294290.420 9      -745.745

  22164991.572   118484584.164 7     -3574.227    22164994.928    92154678.915 6
     -2779.955

  19105548.096   101950862.371 9        40.080    19105548.953    79295115.543 8
        31.173

  21367428.733   114181054.934 9     -3408.332    21367429.010    88807488.588 8
     -2650.925

  19163851.065   102369850.198 9       -87.959


  21775684.004   116280944.530 6      3920.155    21775685.294    90440749.766 6
      3049.010

  25176199.302   132301808.930 9     -2101.115
                  25176203.252    98796818.252 9     -1569.097    25176201.038
 101374120.613 9     -1610.003    25176202.306   100085470.034 9     -1589.544


                                  28007045.747   111339211.782 4       248.251
  23380375.266   122864700.022 9     -1854.760
                  23380377.941    91749622.508 9     -1385.081    23380375.661
  94143080.784 9     -1421.197    23380376.953    92946352.249 9     -1403.127
 18  4  4  7 39 30.0000000  0 15G02G05G07G09G13G28G30R01R02R11R12R13
                                E07E11E30
  24648608.165   129529288.083 7     -2939.905    24648605.751   100931905.72546
     -2290.842

  20580322.680   108150325.392 9      -338.766    20580321.204    84272972.02548
      -263.974

  21894926.957   115058613.961 9     -2322.522    21894925.378    89656055.89647
     -1809.758

  24114851.078   126724383.208 7     -3110.820    24114853.096    98746271.58446
     -2424.017    24114853.666    94631848.124 8     -2322.933

  21820939.684   114669813.919 9      2393.292    21820938.158    89353094.10047
      1864.904

  22135840.284   116324631.759 8      2312.149    22135839.384    90642564.11346
      1801.674

  20466978.528   107554696.189 9     -1012.869    20466979.439    83808856.46349
      -789.249    20466979.315    80316821.407 9      -756.381

  22185077.975   118591957.446 7     -3584.033    22185081.378    92238191.434 6
     -2787.582

  19105378.623   101949957.911 9        20.082    19105379.464    79294412.062 8
        15.620

  21386598.592   114283492.747 9     -3420.914    21386598.886    88887162.409 8
     -2660.712

  19164415.174   102372863.840 9      -112.989


  21753692.027   116163508.727 6      3908.933    21753693.298    90349410.848 6
      3040.282

  25188212.235   132364937.121 9     -2107.414
                  25188216.208    98843959.393 9     -1573.643    25188213.957
 101422491.467 9     -1614.691    25188215.213   100133226.035 9     -1594.176


                                  28005210.418   111331915.982 5       238.107
  23390992.127   122920491.939 9     -1864.820
                  23390994.808    91791285.283 9     -1392.527    23390992.511
  94185830.419 9     -1428.833    23390993.829    92988558.458 9     -1410.721
 18  4  4  7 40  0.0000000  0 16G02G05G07G09G13G28G30R01R02R11R12R13
                                E07E11E19E30
  24665395.574   129617506.460 6     -2941.253    24665393.177   101000647.30845
     -2291.887

  20582312.573   108160782.244 9      -358.416    20582311.081    84281120.21048
      -279.285

  21908210.470   115128419.126 9     -2331.410    21908208.906    89710449.50947
     -1816.683

  24132620.868   126817763.887 7     -3114.429    24132622.925    98819035.68446
     -2426.830    24132623.467    94701580.357 8     -2325.700

  21807297.577   114598124.212 9      2386.037    21807296.043    89297232.00547
      1859.249

  22122679.440   116255471.349 9      2298.478    22122678.560    90588672.89047
      1791.022

  20472803.453   107585306.474 9     -1027.836    20472804.395    83832708.62849
      -800.912    20472804.258    80339679.728 9      -767.494

  22205221.132   118699634.013 7     -3594.483    22205224.604    92321939.834 6
     -2795.712

  19105323.235   101949662.290 9        -0.517    19105324.070    79294182.130 8
        -0.402

  21405839.673   114386311.125 9     -3433.738    21405839.989    88967132.216 8
     -2670.686

  19165121.510   102376637.124 9      -138.633


  21731766.694   116046428.732 6      3896.685    21731767.963    90258348.654 6
      3030.755

  25200262.250   132428260.186 9     -2114.183
                  25200266.238    98891246.064 9     -1578.771    25200263.973
 101471011.754 9     -1619.922    25200265.188   100181129.511 9     -1599.367


                                  28003456.346   111324942.941 5       226.664
  25411459.894   133538122.77216      2215.182
                  25411460.950    99720030.15917      1654.211    25411458.847
 102321414.03316      1697.443    25411459.623   101020720.70218      1675.789
  23401668.120   122976594.557 9     -1875.479
                  23401670.788    91833180.070 9     -1400.451    23401668.506
  94228818.112 9     -1437.022    23401669.829    93030999.695 9     -1418.754
 18  4  4  7 40 30.0000000  0 16G02G05G07G09G13G28G30R01R02R11R12R13
                                E07E11E19E30
  24682190.097   129705762.120 6     -2942.649    24682187.696   101069417.91345
     -2292.979

  20584413.281   108171821.452 9      -377.680    20584411.778    84289722.18349
      -294.297

  21921543.695   115198485.550 9     -2339.942    21921542.134    89765046.70647
     -1823.331

  24150410.164   126911247.281 7     -3117.660    24150412.298    98891879.82046
     -2429.349    24150412.822    94771389.335 8     -2328.249

  21793695.622   114526645.454 9      2378.980    21793694.077    89241534.27747
      1853.751

  22109595.405   116186714.308 9      2285.134    22109594.500    90535095.97647
      1780.624

  20478712.037   107616356.343 9     -1042.354    20478713.002    83856903.32749
      -812.224    20478712.850    80362866.317 9      -778.344

  22225421.199   118807614.734 7     -3604.429    22225424.722    92405924.778 5
     -2803.448

  19105382.787   101949979.982 9       -20.972    19105383.625    79294429.207 8
       -16.311

  21425151.736   114489508.819 9     -3446.220    21425152.068    89047397.056 8
     -2680.394

  19165970.444   102381171.859 9      -163.859


  21709908.985   115929709.816 7      3884.529    21709910.267    90167567.295 6
      3021.300

  25212349.819   132491780.590 9     -2120.648
                  25212353.815    98938680.098 9     -1583.585    25212351.546
 101519683.286 9     -1624.901    25212352.753   100229182.299 9     -1604.260


                                  28001784.025   111318294.744 5       216.077
  25398823.890   133471719.423 6      2211.416
                  25398824.670    99670443.238 7      1651.531    25398822.694
 102270533.551 6      1694.538    25398823.532   100970487.005 8      1672.954
  23412403.441   123033008.940 9     -1885.620
                  23412406.087    91875307.675 9     -1408.082    23412403.836
  94272044.696 9     -1444.818    23412405.148    93073676.791 9     -1426.445
 18  4  4  7 41  0.0000000  0 16G02G05G07G09G13G28G30R01R02R11R12R13
                                E07E11E19E30
  24698990.132   129794047.119 6     -2943.089    24698987.710   101138211.45544
     -2293.312

  20586623.938   108183438.401 9      -396.723    20586622.430    84298774.33048
      -309.135

  21934925.503   115268807.266 9     -2348.194    21934923.929    89819842.82747
     -1829.763

  24168218.002   127004828.183 7     -3120.852    24168220.237    98964799.92046
     -2431.836    24168220.742    94841271.072 8     -2330.423

  21780133.066   114455373.750 9      2372.342    21780131.505    89185997.89347
      1848.578

  22096587.619   116118357.789 9      2272.024    22096586.652    90481831.19047
      1770.410

  20484703.127   107647839.726 9     -1056.584    20484704.104    83881435.82749
      -823.313    20484703.930    80386376.628 9      -788.972

  22245677.021   118915893.214 7     -3614.114    22245680.505    92490141.263 5
     -2810.981

  19105556.538   101950907.064 9       -40.919    19105557.375    79295150.262 8
       -31.826

  21444533.223   114593077.511 9     -3458.275    21444533.570    89127950.457 8
     -2689.770

  19166960.788   102386461.848 9      -188.834


  21688118.586   115813350.294 7      3872.752    21688119.884    90077065.458 6
      3012.141

  25224474.017   132555493.407 9     -2126.953
                  25224478.037    98986257.787 9     -1588.142    25224475.742
 101568502.148 9     -1629.603    25224476.983   100277380.575 9     -1608.848


                                  28000192.515   111311968.014 5       205.590
  25386209.329   133405429.224 6      2207.801
                  25386210.079    99620940.811 7      1648.768    25386207.818
 102219739.757 7      1691.771    25386208.975   100920338.886 8      1670.250
  23423196.907   123089728.875 9     -1895.635
                  23423199.531    91917663.457 9     -1415.531    23423197.319
  94315505.416 9     -1452.471    23423198.606    93116585.040 9     -1434.008
 18  4  4  7 41 30.0000000  0 16G02G05G07G09G13G28G30R01R02R11R12R13
                                E07E11E19E30
  24715795.506   129882359.854 6     -2943.924    24715793.067   101207026.52845
     -2293.964

  20588944.567   108195633.323 9      -415.751    20588943.069    84308276.85148
      -323.961

  21948355.709   115339383.365 9     -2356.370    21948354.114    89874837.17547
     -1836.133

  24186044.412   127098506.641 7     -3123.765    24186046.729    99037796.04646
     -2434.103    24186047.232    94911225.678 8     -2332.841

  21766610.245   114384310.857 9      2365.630    21766608.680    89130624.21948
      1843.348

  22083656.715   116050405.165 8      2258.635    22083655.684    90428881.12147
      1759.977

  20490776.582   107679755.901 9     -1070.674    20490777.570    83906305.56349
      -834.291    20490777.367    80410210.127 9      -799.583

  22265988.352   119024468.382 7     -3623.697    22265991.702    92574588.548 5
     -2818.433

  19105844.901   101952445.757 9       -61.090    19105845.748    79296347.020 8
       -47.514

  21463983.566   114697014.177 9     -3470.236    21463983.921    89208790.068 8
     -2699.073

  19168092.403   102392506.749 9      -213.647


  21666396.157   115697353.747 7      3860.855    21666397.456    89986845.942 6
      3002.888

  25236634.871   132619399.035 9     -2132.895
                  25236638.907    99033979.506 8     -1592.889    25236636.570
 101617468.707 9     -1634.445    25236637.847   100325724.708 9     -1613.658


                                  27998682.043   111305963.454 5       195.252
  25373616.515   133339253.901 7      2204.230
                  25373617.428    99571524.189 7      1646.081    25373614.857
 102169034.005 7      1689.007    25373616.231   100870277.701 8      1667.551
  23434048.349   123146753.471 9     -1905.412
                  23434050.965    91960246.744 9     -1422.983    23434048.775
  94359199.573 9     -1460.075    23434050.041    93159723.764 9     -1441.534
 18  4  4  7 42  0.0000000  0 16G02G05G07G09G13G28G30R01R02R11R12R13
                                E07E11E19E30
  24732605.832   129970698.491 6     -2944.477    24732603.392   101275861.75345
     -2294.401

  20591375.463   108208407.748 9      -435.202    20591373.968    84318230.94448
      -339.119

  21961834.186   115410213.116 9     -2364.846    21961832.577    89930029.16647
     -1842.737

  24203889.490   127192283.050 7     -3126.832    24203891.870    99110868.48446
     -2436.495    24203892.391    94981253.404 8     -2335.248

  21753127.528   114313458.703 9      2358.527    21753125.969    89075414.75347
      1837.813

  22070803.241   115982859.840 8      2245.014    22070802.191    90376248.44947
      1749.361

  20496932.330   107712104.576 9     -1085.188    20496933.331    83931512.31549
      -845.601    20496933.092    80434366.598 9      -810.355

  22286354.983   119133339.302 7     -3633.496    22286358.246    92659265.892 5
     -2826.055

  19106248.274   101954598.180 9       -81.632    19106249.131    79298021.120 8
       -63.492

  21483502.293   114801316.198 9     -3482.459    21483502.646    89289913.837 8
     -2708.580

  19169365.279   102399306.255 9      -238.975


  21644742.410   115581723.958 7      3848.447    21644743.710    89896911.677 6
      2993.236

  25248832.538   132683498.237 9     -2139.558
                  25248836.562    99081845.819 9     -1597.700    25248834.207
 101666583.626 9     -1639.381    25248835.469   100374215.324 9     -1618.540


                                  27997252.885   111300282.055 4       184.399
  25361045.998   133273195.687 7      2200.259
                  25361047.017    99522194.993 7      1643.114    25361044.323
 102118417.970 7      1685.933    25361045.786   100820305.086 8      1664.588
  23444957.688   123204082.324 9     -1915.707
                  23444960.308    92003057.233 9     -1430.562    23444958.115
  94403126.864 9     -1467.920    23444959.377    93203092.654 9     -1449.248
 18  4  4  7 42 30.0000000  0 16G02G05G07G09G13G28G30R01R02R11R12R13
                                E07E11E19E30
  24749420.265   130059058.874 6     -2946.066    24749417.820   101344713.95646
     -2295.639

  20593916.285   108221759.837 9      -454.910    20593914.800    84328635.15248
      -354.476

  21975360.266   115481293.003 9     -2373.733    21975358.659    89985416.06047
     -1849.663

  24221752.786   127286155.084 8     -3130.584    24221755.194    99184015.44946
     -2439.418    24221755.729    95051352.540 8     -2337.947

  21739684.790   114242816.555 9      2351.050    21739683.232    89020368.91347
      1831.986

  22058027.368   115915722.506 8      2230.913    22058026.352    90323933.66447
      1738.374

  20503169.788   107744882.641 9     -1099.947    20503170.800    83957053.65849
      -857.102    20503170.524    80458843.713 9      -821.353

  22306776.232   119242502.554 7     -3643.799    22306779.506    92744170.643 6
     -2834.068

  19106766.651   101957364.272 9      -102.652    19106767.510    79300172.508 8
       -79.841

  21503088.353   114905977.964 9     -3494.876    21503088.702    89371317.395 8
     -2718.237

  19170778.930   102406857.556 9      -264.412


  21623157.578   115466462.234 7      3835.681    21623158.869    89807263.692 6
      2983.308

  25261066.673   132747788.975 9     -2146.358
                  25261070.690    99129855.138 9     -1602.808    25261068.362
 101715845.408 8     -1644.643    25261069.551   100422850.873 9     -1623.722


                                  27995904.721   111294922.544 4       173.003
  25348497.652   133207253.911 7      2195.972
                  25348498.710    99472952.780 7      1639.838    25348495.958
 102067891.160 7      1682.570    25348497.492   100770420.573 8      1661.210
  23455924.285   123261712.101 9     -1926.267
                  23455926.919    92046092.440 9     -1438.375    23455924.701
  94447284.725 9     -1475.857    23455925.974    93246689.184 9     -1457.095
 18  4  4  7 43  0.0000000  0 16G02G05G07G09G13G28G30R01R02R11R12R13
                                E07E11E19E30
  24766238.592   130147439.610 6     -2946.790    24766236.161   101413581.99246
     -2296.202

  20596567.460   108235691.808 9      -474.525    20596565.985    84339491.21748
      -369.761

  21988934.051   115552623.618 9     -2382.251    21988932.454    90040998.33847
     -1856.300

  24239634.678   127380124.445 8     -3134.343    24239637.071    99257238.22747
     -2442.348    24239637.621    95121524.355 8     -2340.607

  21726282.709   114172388.093 9      2343.603    21726281.136    88965489.59747
      1826.184

  22045330.043   115848997.824 9      2216.852    22045329.047    90271940.41247
      1727.417

  20509489.103   107778090.908 9     -1114.474    20509490.133    83982930.22649
      -868.422    20509489.822    80483642.094 9      -832.294

  22327252.348   119351958.861 8     -3653.834    22327255.701    92829303.268 6
     -2841.873

  19107400.580   101960747.027 9      -123.449    19107401.434    79302803.534 8
       -96.016

  21522741.452   115010998.044 9     -3507.059    21522741.801    89452999.655 8
     -2727.713

  19172333.494   102415161.424 9      -289.774


  21601642.689   115351573.935 7      3822.854    21601643.951    89717906.141 6
      2973.332

  25273337.686   132812273.318 9     -2153.194
                  25273341.728    99178008.956 9     -1607.925    25273339.423
 101765255.508 9     -1649.867    25273340.573   100471632.834 9     -1628.898


                                  27994637.966   111289886.775 4       162.033
  25335972.107   133141431.901 7      2191.713
                  25335973.173    99423799.998 7      1636.565    25335970.377
 102017456.118 7      1679.283    25335971.969   100720626.664 8      1657.901
  23466948.270   123319643.493 9     -1936.526
                  23466950.923    92089352.883 9     -1446.098    23466948.676
  94491673.698 9     -1483.831    23466949.963    93290513.895 9     -1464.967
 18  4  4  7 43 30.0000000  0 16G02G05G07G09G13G28G30R01R02R11R12R13
                                E07E11E19E30
  24783060.125   130235836.979 6     -2946.674    24783057.742   101482462.93146
     -2296.116

  20599328.679   108250202.126 9      -493.314    20599327.210    84350797.94548
      -384.401

  22002554.978   115624201.954 9     -2390.057    22002553.392    90096773.64947
     -1862.383

  24257534.737   127474189.130 8     -3137.037    24257537.088    99330535.29547
     -2444.447    24257537.654    95191767.369 8     -2342.501

  21712921.208   114102172.867 9      2336.916    21712919.610    88910776.43547
      1820.974

  22032711.432   115782686.528 9      2203.484    22032710.418    90220269.26547
      1717.000

  20515889.751   107811726.660 9     -1128.244    20515890.805    84009139.90349
      -879.151    20515890.462    80508759.704 9      -842.476

  22347782.674   119461704.767 7     -3662.935    22347786.095    92914661.147 6
     -2848.952

  19108150.170   101964746.965 9      -143.707    19108151.012    79305914.591 8
      -111.772

  21542460.703   115116371.667 9     -3518.286    21542461.076    89534956.891 8
     -2736.445

  19174028.378   102424215.167 9      -314.276


  21580197.973   115237060.315 7      3810.898    21580199.215    89628839.995 6
      2964.032

  25285645.234   132876949.643 9     -2159.132
                  25285649.313    99226306.116 9     -1612.231    25285647.024
 101814812.624 9     -1654.313    25285648.179   100520559.977 9     -1633.276


                                  27993452.350   111285173.775 3       152.215
  25323469.353   133075729.521 7      2188.067
                  25323470.403    99374736.531 7      1634.094    25323467.578
 101967112.732 7      1676.693    25323469.203   100670923.234 8      1655.413
  23478029.106   123377873.643 9     -1945.967
                  23478031.787    92132836.415 9     -1453.056    23478029.523
  94536291.586 9     -1490.947    23478030.812    93334564.603 9     -1471.993
 18  4  4  7 44  0.0000000  0 16G02G05G07G09G13G28G30R01R02R11R12R13
                                E07E11E19E30
  24799884.847   130324251.443 6     -2947.059    24799882.470   101551357.28946
     -2296.412

  20602200.559   108265293.931 9      -512.591    20602199.101    84362557.77648
      -399.422

  22016223.321   115696029.440 9     -2398.161    22016221.746    90152743.10147
     -1868.697

  24275453.387   127568351.638 8     -3140.018    24275455.706    99403908.61347
     -2446.768    24275456.266    95262083.440 8     -2344.911

  21699601.068   114032174.991 8      2329.845    21699599.442    88856232.63347
      1815.463

  22020172.545   115716794.125 9      2189.588    22020171.483    90168924.53147
      1706.172

  20522372.089   107845791.657 9     -1142.516    20522373.167    84035684.04849
      -890.272    20522372.789    80534197.837 9      -853.065

  22368367.478   119571741.753 6     -3672.540    22368370.956    93000245.404 6
     -2856.422

  19109016.141   101969367.865 9      -164.126    19109016.972    79309508.604 8
      -127.654

  21562245.967   115222098.124 9     -3529.838    21562246.384    89617188.569 8
     -2745.430

  19175863.889   102434020.801 9      -339.164


  21558824.563   115122927.458 7      3798.147    21558825.783    89540069.999 6
      2954.114

  25297989.791   132941820.729 9     -2165.403
                  25297993.872    99274748.806 9     -1616.963    25297991.602
 101864518.985 9     -1659.143    25297992.758   100569634.499 9     -1638.051


                                  27992348.719   111280788.29913       140.748
  25310990.171   133010151.021 7      2183.920
                  25310991.182    99325765.573 7      1631.090    25310988.366
 101916864.275 7      1673.527    25310990.003   100621313.529 8      1652.316
  23489167.091   123436404.167 9     -1955.806
                  23489169.810    92176544.256 9     -1460.410    23489167.534
  94581139.642 9     -1498.567    23489168.817    93378842.554 9     -1479.489
 18  4  4  7 44 30.0000000  0 16G02G05G07G09G13G28G30R01R02R11R12R13
                                E07E11E19E30
  24816711.792   130412677.397 6     -2947.691    24816709.419   101620260.55346
     -2296.902

  20605182.518   108280964.212 9      -531.849    20605181.081    84374768.36549
      -414.428

  22029938.245   115768101.651 9     -2406.377    22029936.676    90208903.23347
     -1875.101

  24293390.026   127662608.517 7     -3143.445    24293392.334    99477355.42347
     -2449.441    24293392.848    95332469.932 8     -2347.222

  21686321.937   113962392.635 8      2322.622    21686320.305    88801856.76347
      1809.834

  22007713.313   115651320.386 9      2175.545    22007712.186    90117906.04947
      1695.230

  20528935.273   107880281.482 9     -1156.605    20528936.373    84062559.22949
      -901.252    20528935.962    80559953.228 9      -863.686

  22389005.704   119682064.840 6     -3682.147    22389009.248    93086052.236 6
     -2863.894

  19109998.220   101974608.411 9      -184.843    19109999.047    79313584.579 8
      -143.767

  21582096.023   115328170.776 9     -3541.279    21582096.488    89699689.494 8
     -2754.329

  19177839.295   102444573.850 9      -364.006


  21537522.409   115009175.180 7      3785.397    21537523.596    89451596.026 6
      2944.199

  25310370.773   133006883.360 9     -2171.797
                  25310374.829    99323334.583 9     -1621.817    25310372.583
 101914372.146 9     -1664.075    25310373.714   100618853.967 9     -1642.924


                                  27991326.235   111276723.10513       130.227
  25298534.191   132944694.525 7      2180.052
                  25298535.160    99276885.734 8      1627.950    25298532.376
 101866709.314 7      1670.365    25298534.022   100571796.126 8      1649.198
  23500361.368   123495230.533 9     -1965.674
                  23500364.131    92220473.020 9     -1467.852    23500361.836
  94626214.373 9     -1506.114    23500363.118    93423344.302 9     -1487.004
 18  4  4  7 45  0.0000000  0 15G02G05G07G09G13G28G30R01R02R11R12R13
                                E07E19E30
  24833540.428   130501112.228 6     -2947.797    24833538.085   101689170.73046
     -2296.981

  20608274.554   108297212.995 9      -550.947    20608273.144    84387429.74749
      -429.310

  22043699.467   115840417.156 9     -2414.315    22043697.888    90265252.95047
     -1881.285

  24311344.504   127756959.319 7     -3146.222    24311346.816    99550875.43946
     -2451.604    24311347.256    95402926.603 8     -2349.508

  21673084.032   113892826.990 9      2315.475    21673082.398    88747649.77247
      1804.267

  21995334.254   115586267.934 8      2161.660    21995333.045    90067215.87347
      1684.412

  20535579.080   107915194.982 9     -1170.462    20535580.200    84089764.54949
      -912.049    20535579.762    80586024.995 9      -874.148

  22409697.147   119792672.686 7     -3691.425    22409700.812    93172080.509 6
     -2871.110

  19111096.626   101980469.731 9      -205.476    19111097.468    79318143.373 8
      -159.815

  21602010.205   115434586.146 8     -3552.634    21602010.707    89782456.983 8
     -2763.160

  19179954.430   102455872.823 9      -388.781


  21516292.157   114895806.944 6      3772.645    21516293.315    89363420.762 6
      2934.281

  25322788.243   133072137.559 9     -2178.139
                  25322792.304    99372063.348 9     -1626.532    25322790.084
 101964372.121 8     -1668.961    25322791.166   100668218.334 9     -1647.723
  25286101.693   132879361.419 7      2176.087
                  25286102.654    99228098.026 8      1624.846    25286099.886
 101816648.883 7      1667.281    25286101.549   100522372.063 8      1646.045
  23511611.694   123554351.430 9     -1975.264
                  23511614.507    92264621.725 9     -1475.070    23511612.182
  94671514.789 9     -1513.580    23511613.468    93468068.862 9     -1494.339
 18  4  4  7 45 30.0000000  0 15G02G05G07G09G13G28G30R01R02R11R12R13
                                E07E19E30
  24850370.305   130589553.691 6     -2948.191    24850368.015   101758086.09945
     -2297.289

  20611476.784   108314040.834 9      -570.719    20611475.413    84400542.33848
      -444.718

  22057506.785   115912974.871 9     -2422.747    22057505.173    90321791.40847
     -1887.855

  24329316.776   127851403.980 7     -3150.001    24329319.137    99624468.60147
     -2454.549    24329319.501    95473453.364 8     -2352.096

  21659887.729   113823479.941 9      2307.671    21659886.098    88693613.10747
      1798.185

  21983035.805   115521639.057 8      2147.091    21983034.551    90016855.75047
      1673.059

  20542303.347   107950531.250 9     -1185.097    20542304.477    84117299.29349
      -923.453    20542304.025    80612412.456 9      -884.873

  22430441.632   119903563.906 8     -3701.058    22430445.370    93258329.160 6
     -2878.603

  19112311.690   101986953.553 9      -226.650    19112312.553    79323186.331 8
      -176.284

  21621987.906   115541341.040 8     -3564.126    21621988.444    89865488.556 8
     -2772.098

  19182209.175   102467916.974 9      -413.946


  21495134.396   114782825.852 7      3759.614    21495135.525    89275546.615 6
      2924.145

  25335242.237   133137583.537 9     -2184.938
                  25335246.343    99420935.263 9     -1631.490    25335244.134
 102014519.025 9     -1674.022    25335245.187   100717727.744 9     -1652.773
  25273692.986   132814153.369 7      2171.414
                  25273693.981    99179403.685 8      1621.602    25273691.203
 101766684.267 8      1663.873    25273692.882   100473042.581 8      1642.717
  23522917.877   123613765.800 9     -1985.559
                  23522920.738    92308989.578 9     -1482.602    23522918.377
  94717040.070 9     -1521.285    23522919.672    93513015.429 9     -1501.936
 18  4  4  7 46  0.0000000  0 16G02G05G07G09G13G28G30R01R02R11R12R13
                                E07E11E19E30
  24867200.914   130677998.848 5     -2948.043    24867198.638   101827004.31245
     -2297.178

  20614789.154   108331447.502 9      -589.698    20614787.820    84414105.96348
      -459.505

  22071359.804   115985772.747 9     -2430.399    22071358.157    90378517.00747
     -1893.818

  24347306.734   127945941.830 7     -3152.493    24347309.190    99698134.36947
     -2456.492    24347309.508    95544049.734 8     -2354.126

  21646733.123   113754352.019 9      2300.850    21646731.493    88639747.20047
      1792.871

  21970818.326   115457435.830 8      2133.139    21970817.128    89966827.26947
      1662.186

  20549107.780   107986288.804 9     -1198.773    20549108.905    84145162.32149
      -934.110    20549108.458    80639114.527 9      -895.137

  22451238.806   120014736.534 8     -3710.159    22451242.547    93344796.700 6
     -2885.680

  19113643.623   101994060.981 9      -247.133    19113644.513    79328714.317 8
      -192.214

  21642028.498   115648431.943 9     -3575.073    21642029.080    89948781.456 8
     -2780.613

  19184603.166   102480704.881 9      -438.421


  21474049.698   114670234.901 6      3746.670    21474050.791    89187975.914 6
      2914.078

  25347732.647   133203220.919 9     -2190.992
                  25347736.791    99469950.127 9     -1636.053    25347734.600
 102064812.567 9     -1678.698    25347735.641   100767381.952 9     -1657.376


                                  27988747.712   111266472.07113        97.555
  25261308.280   132749071.477 7      2167.335
                  25261309.316    99130803.569 8      1618.622    25261306.532
 101716816.328 8      1660.749    25261308.210   100423808.549 8      1639.738
  23534279.605   123673472.083 9     -1994.845
                  23534282.498    92353575.434 9     -1489.644    23534280.114
  94762789.034 9     -1528.474    23534281.410    93558182.838 9     -1509.060
 18  4  4  7 46 30.0000000  0 16G02G05G07G09G13G28G30R01R02R11R12R13
                                E07E11E19E30
  24884031.380   130766443.321 6     -2948.215    24884029.078   101895922.02744
     -2297.306

  20618211.308   108349430.991 9      -609.266    20618209.994    84428119.05148
      -474.754

  22085257.834   116058807.194 9     -2438.580    22085256.166    90435426.94747
     -1900.193

  24365313.888   128040570.292 7     -3156.154    24365316.434    99771870.77546
     -2459.342    24365316.750    95614713.775 8     -2356.719

  21633620.118   113685442.696 9      2293.156    21633618.495    88586051.62347
      1786.875

  21958681.968   115393659.107 9      2118.545    21958680.857    89917131.13247
      1650.814

  20555991.745   108022464.247 9     -1212.964    20555992.859    84173350.97349
      -945.167    20555992.426    80666128.651 9      -905.766

  22472087.921   120126186.641 7     -3719.647    22472091.597    93431480.091 6
     -2893.059

  19115092.263   102001791.158 9      -268.284    19115093.163    79334726.668 8
      -208.666

  21662130.911   115755853.107 8     -3586.449    21662131.536    90032331.216 8
     -2789.461

  19187135.602   102494232.723 9      -463.424


  21453038.104   114558034.266 7      3733.279    21453039.182    89100708.774 6
      2903.662

  25360259.018   133269047.390 9     -2197.638
                  25360263.171    99519106.245 9     -1641.030    25360260.998
 102115251.001 9     -1683.854    25360262.036   100817179.228 9     -1662.438


                                  27988050.636   111263701.07213        86.159
  25248947.434   132684114.878 7      2162.897
                  25248948.506    99082297.022 8      1615.228    25248945.729
 101667044.381 8      1657.343    25248947.393   100374669.302 9      1636.316
  23545696.224   123733466.752 9     -2004.803
                  23545699.139    92398376.634 9     -1497.073    23545696.747
  94808758.966 9     -1536.171    23545698.034    93603568.406 9     -1516.608
 18  4  4  7 47  0.0000000  0 16G02G05G07G09G13G28G30R01R02R11R12R13
                                E07E11E19E30
  24900861.858   130854887.236 6     -2948.030    24900859.542   101964839.15544
     -2297.174

  20621743.697   108367993.740 9      -628.236    20621742.400    84442583.51448
      -489.534

  22099201.203   116132079.933 9     -2446.143    22099199.529    90492522.56747
     -1906.086

  24383338.780   128135291.942 7     -3158.710    24383341.389    99845679.78846
     -2461.336    24383341.778    95685447.418 8     -2358.733

  21620549.504   113616756.149 9      2285.976    21620547.885    88532529.63847
      1781.280

  21946627.791   115330314.099 9      2104.470    21946626.699    89867771.39647
      1639.847

  20562955.557   108059059.285 9     -1226.496    20562956.658    84201866.57849
      -955.711    20562956.248    80693456.109 9      -915.932

  22492989.247   120237915.725 7     -3728.670    22492992.842    93518380.454 5
     -2900.078

  19116658.417   102010148.362 9      -288.745    19116659.316    79341226.701 8
      -224.579

  21682295.068   115863604.207 8     -3597.048    21682295.735    90116137.600 8
     -2797.705

  19189806.865   102508502.543 9      -487.670


  21432100.942   114446231.090 7      3720.570    21432102.000    89013750.782 6
      2893.778

  25372821.924   133335065.916 9     -2203.589
                  25372826.080    99568405.804 9     -1645.559    25372823.897
 102165836.579 9     -1688.474    25372824.937   100867121.798 9     -1667.052


                                  27987435.815   111261257.12413        75.742
  25236611.252   132619287.896 8      2159.006
                  25236612.343    99033887.268 8      1612.231    25236609.587
 101617371.763 8      1654.251    25236611.228   100325628.120 9      1633.299
  23557168.023   123793751.392 9     -2014.007
                  23557170.950    92443394.375 9     -1504.020    23557168.556
  94854951.079 9     -1543.307    23557169.831    93649173.331 9     -1523.672
 18  4  4  7 47 30.0000000  0 16G02G05G07G09G13G28G30R01R02R11R12R13
                                E07E11E19E30
  24917690.599   130943323.538 6     -2947.837    24917688.217   102033750.72745
     -2297.034

  20625385.536   108387131.643 9      -647.623    20625384.230    84457496.16148
      -504.641

  22113188.880   116205585.492 9     -2454.186    22113187.211    90549799.58947
     -1912.356

  24401380.536   128230102.207 7     -3161.694    24401383.195    99919557.87046
     -2463.657    24401383.686    95756247.244 8     -2361.187

  21607520.735   113548289.564 9      2278.429    21607519.102    88479179.07247
      1775.401

  21934655.452   115267398.981 8      2089.875    21934654.312    89818746.63847
      1628.474

  20569998.170   108096068.495 9     -1240.650    20569999.254    84230704.92649
      -966.740    20569998.876    80721092.854 9      -926.480

  22513941.722   120349918.130 7     -3738.098    22513945.239    93605493.374 5
     -2907.412

  19118341.530   102019129.651 9      -309.918    19118342.415    79348212.133 8
      -241.048

  21702519.542   115971677.566 8     -3607.784    21702520.243    90200194.625 8
     -2806.055

  19192616.012   102523508.273 9      -512.512


  21411237.850   114334823.437 7      3706.833    21411238.883    88927100.424 6
      2883.094

  25385420.574   133401272.217 9     -2210.083
                  25385424.755    99617845.557 9     -1650.453    25385422.544
 102216566.048 9     -1693.473    25385423.573   100917206.410 9     -1671.983


                                  27986901.859   111259134.33713        64.374
  25224299.233   132554587.790 8      2154.413
                  25224300.333    98985572.247 8      1608.790    25224297.604
 101567796.347 8      1650.755    25224299.217   100276682.905 9      1629.759
  23568693.950   123854320.454 9     -2023.754
                  23568696.882    92488624.506 9     -1511.316    23568694.486
  94901361.127 9     -1550.718    23568695.752    93694993.422 9     -1531.045
 18  4  4  7 48  0.0000000  0 16G02G05G07G09G13G28G30R01R02R11R12R13
                                E07E11E19E30
  24934518.388   131031751.954 7     -2947.262    24934518.026   102102693.13253
     -2296.562

  20629137.215   108406846.715 9      -666.694    20629135.910    84472858.53348
      -519.502

  22127220.839   116279323.806 9     -2461.668    22127219.174    90607257.99247
     -1918.184

  24419439.450   128325002.257 7     -3164.505    24419442.160    99993505.86246
     -2465.852    24419442.764    95827114.061 8     -2363.168

  21594534.351   113480045.640 9      2271.301    21594532.710    88426001.99947
      1769.845

  21922765.722   115204918.031 8      2075.485    21922764.524    89770060.20947
      1617.262

  20577119.661   108133492.193 9     -1254.166    20577120.732    84259866.24349
      -977.273    20577120.399    80749039.114 9      -936.536

  22534945.189   120462193.310 6     -3746.907    22534948.622    93692818.476 5
     -2914.262

  19120142.156   102028738.062 9      -330.554    19120143.034    79355685.333 8
      -257.097

  21722803.957   116080071.239 8     -3618.281    21722804.662    90284500.796 8
     -2814.220

  19195563.156   102539250.749 9      -536.756


  21390449.700   114223815.979 7      3693.748    21390450.725    88840761.320 6
      2872.916

  25398055.243   133467667.704 9     -2216.161
                  25398059.467    99667426.555 9     -1654.903    25398057.230
 102267440.516 9     -1698.085    25398058.241   100967434.133 9     -1676.461


                                  27986449.151   111257334.88213        55.435
  25212011.891   132490017.381 8      2150.340
                  25212012.997    98937354.081 8      1605.808    25212010.301
 101518320.317 8      1647.767    25212011.877   100227835.805 9      1626.755
  23580274.052   123915174.189 9     -2033.068
                  23580276.983    92534067.214 9     -1518.119    23580274.574
  94947989.292 9     -1557.727    23580275.849    93741028.862 9     -1537.948
 18  4  4  7 48 30.0000000  0 16G02G05G07G09G13G28G30R01R02R11R12R13
                                E07E11E19E30
  24951343.974   131120170.131 8     -2947.015    24951340.532   102171590.14444
     -2296.376

  20632998.694   108427138.871 9      -686.025    20632997.398    84488670.59448
      -534.565

  22141296.863   116353293.767 9     -2469.547    22141295.208    90664896.91647
     -1924.324

  24437515.446   128419992.006 7     -3167.869    24437518.160   100067523.77645
     -2468.474    24437518.875    95898047.856 8     -2365.643

  21581590.651   113412025.950 9      2263.449    21581588.998    88372999.64447
      1763.726

  21910959.061   115142873.688 8      2060.809    21910957.843    89721713.99647
      1605.826

  20584319.860   108171329.516 9     -1268.131    20584320.920    84289349.85749
      -988.155    20584320.643    80777294.248 9      -946.955

  22555999.446   120574740.179 6     -3756.111    22556002.833    93780354.876 5
     -2921.422

  19122060.426   102038974.268 9      -351.747    19122061.305    79363646.813 8
      -273.581

  21743147.794   116188782.379 8     -3629.066    21743148.489    90369053.876 8
     -2822.608

  19198647.849   102555728.192 9      -561.504


  21369737.022   114113211.546 7      3679.887    21369738.067    88754735.671 6
      2862.136

  25410725.972   133534252.646 9     -2222.761
                  25410730.229    99717149.022 9     -1659.798    25410727.984
 102318460.131 9     -1703.071    25410728.989   101017805.178 9     -1681.400


                                  27986078.320   111255860.59213        43.827
  25199749.548   132425578.411 8      2145.843
                  25199750.650    98889234.077 8      1602.381    25199747.988
 101468945.017 8      1644.106    25199749.533   100179088.152 9      1623.260
  23591908.116   123976311.542 9     -2042.633
                  23591911.036    92579721.720 9     -1525.316    23591908.614
  94994834.797 9     -1565.155    23591909.911    93787278.863 9     -1545.234
 18  4  4  7 49  0.0000000  0 16G02G05G07G09G13G28G30R01R02R11R12R13
                                E07E11E19E30
  24968166.682   131208573.924 8     -2946.640    24968162.301   102240476.23844
     -2296.083

  20636969.667   108448006.387 9      -705.365    20636968.368    84504930.97448
      -549.636

  22155416.414   116427492.414 9     -2477.288    22155414.787    90722714.01747
     -1930.355

  24455608.164   128515069.470 7     -3170.835    24455610.839   100141610.03846
     -2470.782    24455611.672    95969047.164 8     -2367.828

  21568689.626   113344230.546 9      2255.893    21568687.960    88320172.05947
      1757.838

  21899235.639   115081266.863 8      2046.060    21899234.462    89673708.70047
      1594.333

  20591598.216   108209577.551 9     -1281.997    20591599.253    84319153.51449
      -998.959    20591599.026    80805856.085 9      -957.302

  22577103.885   120687555.441 6     -3765.215    22577107.279    93868100.025 5
     -2928.502

  19124096.481   102049839.017 9      -372.778    19124097.356    79372097.166 8
      -289.939

  21763550.054   116297805.676 8     -3639.534    21763550.735    90453849.739 8
     -2830.750

  19201869.503   102572937.769 9      -585.991


  21349100.175   114003012.056 7      3666.256    21349101.250    88669024.977 6
      2851.532

  25423432.428   133601025.337 9     -2229.068
                  25423436.687    99767011.698 9     -1664.580    25423434.476
 102369623.585 9     -1707.957    25423435.474   101068318.248 9     -1686.279


                                  27985788.608   111254708.21213        32.383
  25187512.199   132361270.704 8      2141.282
                  25187513.309    98841212.083 8      1598.958    25187510.668
 101419670.269 8      1640.727    25187512.197   100130439.782 9      1619.811
  23603595.591   124037729.591 9     -2052.190
                  23603598.496    92625585.842 9     -1532.431    23603596.055
  95041895.373 9     -1572.391    23603597.383    93833741.212 9     -1552.399
 18  4  4  7 49 30.0000000  0 16G02G05G07G09G13G28G30R01R02R11R12R13
                                E07E11E19E30
  24984986.437   131296961.693 7     -2945.775    24984982.277   102309349.72245
     -2295.417

  20641050.282   108469450.104 9      -724.256    20641048.984    84521640.34648
      -564.356

  22169579.342   116501919.103 9     -2484.535    22169577.740    90780708.82547
     -1936.002

  24473717.690   128610235.092 7     -3173.419    24473720.306   100215764.98646
     -2472.797    24473721.242    96040112.304 8     -2369.843

  21555831.659   113276661.392 9      2248.613    21555829.961    88267520.77247
      1752.166

  21887596.095   115020100.818 8      2031.635    21887594.963    89626046.86747
      1583.093

  20598954.644   108248235.841 9     -1295.331    20598955.649    84349276.85649
     -1009.349    20598955.459    80834724.283 9      -967.268

  22598258.342   120800638.084 6     -3773.785    22598261.793    93956053.139 6
     -2935.167

  19126250.580   102061333.601 9      -393.509    19126251.427    79381037.385 8
      -306.062

  21784010.284   116407138.708 8     -3649.451    21784010.949    90538886.504 8
     -2838.463

  19205228.016   102590878.668 9      -610.094


  21328539.861   113893221.237 7      3653.271    21328540.941    88583632.141 6
      2841.433

  25436174.742   133667986.482 8     -2235.044
                  25436178.970    99817015.104 9     -1668.975    25436176.818
 102420931.406 9     -1712.555    25436177.813   101118973.859 9     -1690.746


                                  27985580.131   111253880.45913        21.822
  25175300.228   132297096.411 8      2136.976
                  25175301.341    98793289.718 8      1595.807    25175298.721
 101370497.756 8      1637.460    25175300.241   100081892.348 9      1616.573
  23615336.376   124099427.779 9     -2061.206
                  23615339.267    92671659.158 9     -1539.121    23615336.816
  95089170.598 9     -1579.316    23615338.166    93880415.483 9     -1559.221
 18  4  4  7 50  0.0000000  0 16G02G05G07G09G13G28G30R01R02R11R12R13
                                E07E11E19E30
  25001802.531   131385330.788 7     -2945.412    25001798.702   102378208.78845
     -2295.125

  20645240.444   108491469.616 9      -743.517    20645239.152    84538798.40448
      -579.364

  22183785.354   116576572.221 9     -2492.240    22183783.770    90838880.06547
     -1942.006

  24491843.918   128705488.285 7     -3176.540    24491846.462   100289988.16146
     -2475.229    24491847.473    96111242.822 8     -2372.123

  21543016.925   113209319.422 9      2240.935    21543015.195    88215046.51447
      1746.183

  21876040.860   114959377.823 8      2016.607    21876039.756    89578730.27147
      1571.382

  20606388.880   108287302.989 9     -1308.970    20606389.856    84379718.77949
     -1019.977    20606389.704    80863897.794 9      -977.500

  22619462.523   120913986.515 6     -3782.593    22619466.079    94044212.967 5
     -2942.018

  19128522.944   102073459.325 9      -414.628    19128523.768    79390468.495 8
      -322.488

  21804527.804   116516777.900 8     -3659.617    21804528.461    90624161.391 8
     -2846.370

  19208723.155   102609549.426 9      -634.485


  21308056.664   113783842.251 7      3638.904    21308057.737    88498559.620 6
      2830.260

  25448952.838   133735135.817 8     -2241.426
                  25448957.019    99867159.073 9     -1673.769    25448954.912
 102472383.444 9     -1717.469    25448955.917   101169771.862 9     -1695.614


                                  27985453.219   111253375.34013        11.930
  25163113.875   132233056.738 8      2132.375
                  25163114.985    98745467.889 8      1592.329    25163112.389
 101321428.397 8      1633.948    25163113.897   100033446.749 9      1613.098
  23627130.180   124161404.576 9     -2070.529
                  23627133.066    92717940.522 9     -1546.093    23627130.617
  95136659.301 9     -1586.492    23627131.963    93927300.513 9     -1566.278
 18  4  4  7 50 30.0000000  0 16G02G05G07G09G13G28G30R01R02R11R12R13
                                E07E11E19E30
  25018614.723   131473679.200 7     -2944.872    25018611.104   102447051.65346
     -2294.705

  20649540.302   108514065.608 9      -763.194    20649539.018    84556405.66848
      -594.697

  22198034.315   116651451.084 9     -2500.117    22198032.759    90897227.21447
     -1948.143

  24509986.879   128800829.246 7     -3179.719    24509989.328   100364279.72345
     -2477.708    24509990.376    96182438.892 8     -2374.474

  21530245.835   113142206.832 9      2232.878    21530244.082    88162751.00147
      1739.905

  21864570.498   114899100.789 8      2001.382    21864569.404    89531761.16447
      1559.518

  20613900.799   108326778.360 9     -1322.914    20613901.740    84410478.80349
     -1030.842    20613901.624    80893376.149 9      -987.869

  22640716.099   121027599.265 6     -3791.895    22640719.779    94132578.429 5
     -2949.252

  19130913.878   102086217.770 9      -436.177    19130914.691    79400391.722 8
      -339.248

  21825102.081   116626720.466 8     -3670.147    21825102.740    90709672.240 8
     -2854.560

  19212354.712   102628948.697 9      -659.133


  21287651.143   113674877.963 7      3624.792    21287652.197    88413809.648 6
      2819.284

  25461766.830   133802473.833 9     -2248.117
                  25461770.992    99917443.945 9     -1678.742    25461768.897
 102523980.104 9     -1722.561    25461769.911   101220712.628 9     -1700.645


                                  27985407.968   111253195.65613         1.410
  25150953.538   132169153.767 8      2127.440
                  25150954.648    98697748.139 8      1588.703    25150952.073
 101272463.781 8      1630.172    25150953.567    99985104.566 9      1609.397
  23638976.867   124223659.268 9     -2080.232
                  23638979.759    92764429.402 9     -1553.292    23638977.314
  95184360.931 9     -1593.822    23638978.644    93974395.768 9     -1573.518
 18  4  4  7 51  0.0000000  0 16G02G05G07G09G13G28G30R01R02R11R12R13
                                E07E11E19E30
  25035422.187   131562002.731 7     -2944.078    25035418.735   102515875.10245
     -2294.089

  20653949.502   108537236.057 9      -782.117    20653948.225    84574460.54148
      -609.443

  22212325.603   116726552.449 9     -2507.366    22212324.080    90955747.75447
     -1953.792

  24528146.153   128896255.826 6     -3182.428    24528148.490   100438637.99846
     -2479.814    24528149.524    96253698.905 8     -2376.628

  21517518.251   113075322.841 9      2225.170    21517516.474    88110633.60947
      1733.899

  21853185.100   114839270.221 8      1986.553    21853183.982    89485139.95447
      1547.965

  20621489.827   108366658.872 9     -1336.362    20621490.732    84441554.51549
     -1041.321    20621490.643    80923157.044 9      -997.958

  22662018.590   121141473.410 7     -3800.353    22662022.436    94221147.162 6
     -2955.833

  19133423.323   102099608.555 9      -457.255    19133424.140    79410806.760 8
      -355.643

  21845732.157   116736961.291 8     -3679.893    21845732.815    90795415.087 8
     -2862.139

  19216122.081   102649073.787 9      -683.229


  21267323.581   113566329.826 7      3611.024    21267324.602    88329383.332 6
      2808.574

  25474616.385   133869998.650 9     -2254.217
                  25474620.574    99967868.292 9     -1683.329    25474618.467
 102575719.898 9     -1727.274    25474619.476   101271794.698 9     -1705.308


                                  27985443.796   111253338.20013       -10.460
  25138819.125   132105387.065 8      2123.022
                  25138820.238    98650130.154 8      1585.334    25138817.680
 101223603.586 8      1626.675    25138819.158    99936865.475 9      1605.979
  23650875.825   124286188.665 9     -2089.129
                  23650878.730    92811123.424 9     -1560.134    23650876.285
  95232273.068 9     -1600.850    23650877.597    94021698.849 9     -1580.498
 18  4  4  7 51 30.0000000  0 17G02G05G07G09G13G28G30R01R02R03R11R12
                                R13E07E11E19E30
  25052225.607   131650305.208 7     -2943.119    25052222.229   102584682.20845
     -2293.341

  20658469.200   108560987.191 9      -801.425    20658467.917    84592967.90748
      -624.487

  22226660.199   116801881.300 9     -2514.742    22226658.702    91014445.52147
     -1959.539

  24546322.769   128991773.907 6     -3185.523    24546325.055   100513067.59646
     -2482.226    24546326.042    96325027.255 8     -2378.728

  21504835.706   113008675.581 9      2217.659    21504833.920    88058700.68947
      1728.046

  21841886.331   114779894.885 9      1971.627    21841885.176    89438873.47947
      1536.335

  20629156.907   108406949.577 9     -1349.889    20629157.776    84472949.86649
     -1051.862    20629157.707    80953244.245 9     -1008.034

  22683370.856   121255613.315 7     -3809.182    22683374.830    94309922.572 5
     -2962.700

  19136052.632   102113638.965 9      -478.432    19136053.462    79421719.287 8
      -372.114

  20891817.372   111835532.07915      3161.079    20891816.842
      2458.617

  21866418.564   116847503.227 8     -3689.711    21866419.218    90881392.146 8
     -2869.776

  19220026.378   102669929.278 9      -707.399


  21247075.694   113458207.120 7      3596.879    21247076.702    88245287.889 6
      2797.573

  25487502.683   133937716.467 8     -2260.467
                  25487506.914   100018436.745 9     -1688.028    25487504.807
 102627607.550 9     -1732.052    25487505.796   101323022.750 9     -1710.042


                                  27985562.298   111253808.68413       -21.351
  25126712.115   132041764.347 8      2118.349
                  25126713.230    98602619.692 8      1581.819    25126710.686
 101174853.717 8      1623.097    25126712.147    99888735.309 9      1602.472
  23662828.011   124348997.745 9     -2098.295
                  23662830.931    92858026.291 9     -1566.941    23662828.477
  95280399.489 9     -1607.796    23662829.783    94069213.494 9     -1587.353
 18  4  4  7 52  0.0000000  0 17G02G05G07G09G13G28G30R01R02R03R11R12
                                R13E07E11E19E30
  25069022.279   131738572.092 7     -2941.653    25069018.930   102653461.54646
     -2292.199

  20663096.904   108585305.816 9      -820.035    20663095.599    84611917.46348
      -638.989

  22241035.375   116877423.441 9     -2521.602    22241033.886    91073309.50047
     -1964.885

  24564514.213   129087370.399 6     -3187.981    24564516.572   100587558.30646
     -2484.146    24564517.467    96396414.157 8     -2380.612

  21492196.039   112942253.611 9      2210.401    21492194.266    88006943.30348
      1722.390

  21830672.222   114720964.426 8      1956.989    21830671.041    89392953.66147
      1524.926

  20636899.368   108447636.439 9     -1362.746    20636900.207    84504653.91449
     -1061.880    20636900.157    80983627.289 9     -1017.676

  22704770.149   121370004.247 7     -3817.186    22704774.137    94398893.213 5
     -2968.926

  19138799.583   102128297.139 9      -499.065    19138800.429    79433120.071 8
      -388.162

  20874127.750   111740844.623 5      3151.082    20874126.969    86909558.92415
      2450.845

  21887158.341   116958330.314 8     -3698.937    21887159.004    90967590.965 7
     -2876.953

  19224064.566   102691500.444 9      -730.958


  21226905.595   113350500.062 7      3583.161    21226906.585    88161515.783 6
      2786.904

  25500423.266   134005614.435 8     -2266.194
                  25500427.524   100069139.723 9     -1692.313    25500425.452
 102679633.225 9     -1736.463    25500426.409   101374387.079 9     -1714.433


                                  27985760.949   111254598.73313       -31.566
  25114630.353   131978274.306 8      2114.191
                  25114631.455    98555208.297 8      1578.804    25114628.937
 101126205.512 8      1619.919    25114630.380    99840705.506 9      1599.414
  23674830.754   124412072.448 9     -2106.896
                  23674833.670    92905127.507 9     -1573.356    23674831.220
  95328729.441 9     -1614.378    23674832.526    94116929.079 9     -1593.852
 18  4  4  7 52 30.0000000  0 16G02G05G07G09G13G28G30R01R02R03R11R12
                                R13E07E19E30
  25085812.827   131826806.863 6     -2940.181    25085809.547   102722215.86545
     -2291.051

  20667833.861   108610198.601 9      -839.137    20667832.554    84631314.42749
      -653.874

  22255452.175   116953184.289 9     -2528.808    22255450.689    91132343.90547
     -1970.502

  24582721.727   129183051.529 6     -3190.694    24582724.217   100662114.96646
     -2486.260    24582724.994    96467864.264 8     -2382.540

  21479600.698   112876064.562 9      2202.575    21479598.931    87955367.41348
      1716.292

  21819544.453   114662487.715 9      1941.753    21819543.274    89347387.40047
      1513.055

  20644718.241   108488724.850 9     -1376.165    20644719.064    84536670.85549
     -1072.337    20644719.022    81014310.191 9     -1027.574

  22726217.425   121484651.480 7     -3825.641    22726221.280    94488063.191 5
     -2975.502

  19141665.680   102143591.113 9      -520.260    19141666.542    79445015.369 8
      -404.647

  20856496.343   111646469.504 5      3140.892    20856497.318    86836156.113 5
      2442.917

  21907952.109   117069445.880 8     -3708.557    21907952.796    91054014.139 8
     -2884.434

  19228237.676   102713792.247 9      -754.814


  21206815.160   113243218.309 7      3569.081    21206816.146    88078074.425 6
      2775.952

  25513379.357   134073699.071 8     -2272.289
                  25513383.635   100119982.098 9     -1696.848    25513381.602
 102731801.914 9     -1741.178    25513382.539   101425892.609 9     -1718.990
  25102575.371   131914924.990 8      2109.508
                  25102576.453    98507901.999 8      1575.259    25102573.963
 101077665.135 8      1616.336    25102575.396    99792782.171 9      1595.752
  23686885.044   124475418.013 9     -2115.930
                  23686887.936    92952430.993 9     -1579.996    23686885.497
  95377266.932 9     -1621.180    23686886.808    94164849.567 9     -1600.595
 18  4  4  7 53  0.0000000  0 16G02G05G07G09G13G28G30R01R02R03R11R12
                                R13E07E19E30
  25102596.704   131915006.895 6     -2939.655    25102593.490   102790943.17545
     -2290.637

  20672679.983   108635665.041 9      -858.601    20672678.686    84651158.39148
      -669.041

  22269910.253   117029162.056 9     -2536.343    22269908.770    91191547.34747
     -1976.372

  24600945.231   129278816.750 6     -3193.538    24600947.868   100736737.13446
     -2488.472    24600948.537    96539377.153 8     -2384.910

  21467049.944   112810109.851 9      2194.380    21467048.185    87903974.13147
      1709.907

  21808503.382   114604466.606 9      1926.362    21808502.180    89302176.17647
      1501.062

  20652613.237   108530213.288 9     -1389.845    20652614.056    84568999.50249
     -1082.996    20652614.014    81045291.809 9     -1037.817

  22747712.145   121599552.754 7     -3834.357    22747715.841    94577430.800 5
     -2982.279

  19144650.974   102159521.255 9      -541.805    19144651.852    79457405.482 8
      -421.404

  20838927.287                        3129.910    20838924.940
      2434.375

  21928799.191   117180846.327 9     -3718.200    21928799.893    91140658.893 8
     -2891.934

  19232545.373   102736803.036 9      -779.144


  21186804.883   113136364.635 7      3554.477    21186805.885    87994966.007 6
      2764.593

  25526370.874   134141970.046 8     -2278.841
                  25526375.171   100170963.652 9     -1701.748    25526373.150
 102784113.403 9     -1746.199    25526374.091   101477539.133 9     -1723.955
  25090547.401   131851717.618 8      2104.371
                  25090548.461    98460701.690 8      1571.512    25090546.000
 101029233.520 8      1612.370    25090547.424    99744966.210 9      1591.950
  23698990.576   124539032.860 9     -2124.982
                  23698993.435    92999935.578 9     -1586.911    23698991.008
  95426010.770 9     -1628.316    23698992.323    94212973.779 9     -1607.599
 18  4  4  7 53 30.0000000  0 15G02G05G07G09G13G28G30R01R02R11R12R13
                                E07E19E30
  25119372.567   132003164.451 5     -2937.770    25119369.375   102859637.31845
     -2289.172

  20677634.127   108661699.139 9      -877.086    20677632.839    84671444.68648
      -683.444

  22284408.285   117105349.805 9     -2542.973    22284406.796    91250914.42847
     -1981.538

  24619183.571   129374659.929 6     -3196.180    24619186.338   100811420.04446
     -2490.533    24619186.929    96610948.243 8     -2386.599

  21454542.885   112744384.750 9      2187.129    21454541.141    87852759.76048
      1704.256

  21797548.464   114546898.049 9      1911.576    21797547.209    89257317.57847
      1489.540

  20660583.028   108572094.742 9     -1402.398    20660583.839    84601634.39849
     -1092.777    20660583.800    81076566.918 9     -1047.301

  22769252.964   121714700.699 7     -3842.253    22769256.555    94666990.262 5
     -2988.421

  19147754.662   102176083.118 9      -562.510    19147755.563    79470286.911 8
      -437.508

  21949697.874   117292522.444 9     -3726.879    21949698.569    91227518.059 7
     -2898.684

  19236986.224   102760524.892 9      -802.378


  21166874.135   113029935.736 7      3540.617    21166875.157    87912188.002 6
      2753.816

  25539396.733   134210421.495 9     -2284.562
                  25539401.054   100222079.985 9     -1706.053    25539399.005
 102836563.189 9     -1750.494    25539399.967   101529322.190 9     -1728.233
  25078545.623   131788647.862 8      2100.036
                  25078546.671    98413604.156 8      1568.266    25078544.230
 100980907.347 8      1609.139    25078545.643    99697254.355 9      1588.700
  23711146.016   124602909.961 9     -2133.414
                  23711148.835    93047636.003 9     -1593.186    23711146.425
  95474955.553 9     -1634.741    23711147.741    94261296.381 9     -1613.937
 18  4  4  7 54  0.0000000  0 15G02G05G07G09G13G28G30R01R02R11R12R13
                                E07E19E30
  25136141.353   132091284.524 6     -2936.788    25136138.182   102928302.17446
     -2288.411

  20682697.555   108688307.569 9      -896.345    20682696.287    84692178.51548
      -698.451

  22298947.489   117181753.724 9     -2550.181    22298945.997    91310449.92547
     -1987.156

  24637438.031   129470588.006 7     -3198.913    24637440.898   100886169.16346
     -2492.664    24637441.431    96682582.791 8     -2388.632

  21442081.225   112678898.239 9      2179.089    21442079.491    87801731.31147
      1697.991

  21786681.478   114489791.541 9      1896.059    21786680.173    89212819.01747
      1477.449

  20668628.803   108614375.432 9     -1415.823    20668629.590    84634580.38649
     -1103.239    20668629.562    81108140.154 9     -1057.306

  22790841.052   121830101.221 7     -3850.858    22790844.593    94756746.139 5
     -2995.115

  19150978.310   102193285.089 9      -583.925    19150979.219    79483666.205 8
      -454.165

  21970648.979   117404478.749 9     -3736.202    21970649.637    91314595.181 7
     -2905.935

  19241561.187   102784963.901 9      -826.461


  21147024.943   112923942.353 7      3526.026    21147025.988    87829748.733 6
      2742.466

  25552458.359   134279060.739 9     -2290.827
                  25552462.711   100273336.534 9     -1710.763    25552460.611
 102889156.878 9     -1755.415    25552461.597   101581247.309 9     -1733.080
  25066571.717   131725724.591 8      2095.248
                  25066572.757    98366616.021 8      1564.506    25066570.333
 100932693.426 8      1605.469    25066571.732    99649653.330 9      1584.977
  23723352.524   124667055.409 9     -2142.466
                  23723355.314    93095536.808 9     -1599.885    23723352.915
  95524105.944 9     -1641.665    23723354.231    94309821.984 9     -1620.768
 18  4  4  7 54 30.0000000  0 16G02G05G07G09G13G28G30R01R02R03R11R12
                                R13E07E19E30
  25152901.248   132179358.225 5     -2935.668    25152898.076   102996930.99245
     -2287.531

  20687869.121   108715484.304 9      -915.609    20687867.873    84713355.17848
      -713.462

  22313526.282   117258365.638 9     -2557.471    22313524.795    91370147.49647
     -1992.836

  24655707.391   129566594.214 7     -3201.800    24655710.354   100960979.15147
     -2494.910    24655710.831    96754275.677 9     -2390.975

  21429664.048   112613645.528 9      2170.843    21429662.310    87750885.05048
      1691.566

  21775901.650   114433143.083 9      1880.373    21775900.313    89168677.37547
      1465.226

  20676749.057   108657047.482 9     -1429.205    20676749.830    84667831.32149
     -1113.667    20676749.801    81140005.630 9     -1067.288

  22812474.754   121945745.866 6     -3859.310    22812478.316    94846691.954 6
     -3001.685

  19154320.894   102211121.722 9      -605.425    19154321.802    79497539.130 8
      -470.885

  20786568.433   111272130.34514      3097.810    20786573.897    86544997.96714
      2409.408

  21991650.644   117516705.129 8     -3745.694    21991651.265    91401882.342 8
     -2913.319

  19246268.796   102810111.600 9      -850.326


  21127256.613   112818380.730 7      3511.260    21127257.663    87747645.273 6
      2730.981

  25565554.505   134347881.165 8     -2297.282
                  25565558.883   100324728.346 9     -1715.494    25565556.748
 102941889.363 9     -1760.287    25565557.738   101633309.458 9     -1737.877
  25054624.738   131662942.789 8      2090.059
                  25054625.770    98319733.505 8      1560.652    25054623.356
 100884587.894 8      1601.425    25054624.748    99602159.303 9      1581.050
  23735608.600   124731461.320 9     -2151.468
                  23735611.363    93143632.106 9     -1606.630    23735608.974
  95573455.897 9     -1648.466    23735610.293    94358544.609 9     -1627.602
 18  4  4  7 55  0.0000000  0 16G02G05G07G09G13G28G30R01R02R03R11R12
                                R13E07E19E30
  25169652.957   132267418.38214     -2933.630    25169650.812   103065509.49854
     -2285.939

  20693150.229   108743236.614 9      -934.637    20693148.984    84734980.33548
      -728.289

  22328145.928   117335192.174 9     -2564.414    22328144.448    91430012.29647
     -1998.245

  24673993.123   129662686.163 6     -3204.140    24673996.188   101035855.90546
     -2496.734    24673996.615    96826032.561 9     -2392.902

  21417293.091   112548635.703 9      2162.994    21417291.349    87700228.04548
      1685.450

  21765210.895   114376962.740 9      1864.905    21765209.516    89124900.50547
      1453.174

  20684945.058   108700117.622 9     -1442.297    20684945.836    84701392.46249
     -1123.867    20684945.788    81172168.387 9     -1077.014

  22834155.291   122061641.050 6     -3867.181    22834158.980    94936832.636 5
     -3007.807

  19157784.054   102229601.806 9      -626.656    19157784.976    79511912.521 8
      -487.400

  20769236.794   111179362.182 5      3086.872    20769241.855    86472845.022 4
      2400.905

  22012703.762   117629206.436 8     -3754.536    22012704.372    91489383.326 7
     -2920.195

  19251110.370   102835974.680 9      -873.962


  21107571.206   112713261.892 7      3496.593    21107572.252    87665886.204 6
      2719.573

  25578686.626   134416890.648 8     -2303.416
                  25578691.006   100376261.340 9     -1720.076    25578688.882
 102994766.701 9     -1764.928    25578689.858   101685514.625 9     -1742.516
  25042706.475   131600311.878 8      2085.202
                  25042707.495    98272963.667 8      1557.153    25042705.088
 100836597.978 8      1597.773    25042706.481    99554779.428 9      1577.438
  23747915.479   124796134.315 9     -2160.102
                  23747918.206    93191926.873 9     -1613.126    23747915.838
  95623010.535 9     -1655.173    23747917.158    94407469.310 9     -1634.144
 18  4  4  7 55 30.0000000  0 15G05G07G09G13G28G30R01R02R03R11R12R13
                                E07E19E30
  20698539.645   108771558.138 9      -953.482    20698538.413    84757049.03948
      -742.973

  22342805.001   117412225.888 9     -2571.233    22342803.506    91490038.54447
     -2003.558

  24692293.932   129758857.241 7     -3206.807    24692297.097   101110794.30947
     -2498.814    24692297.472    96897848.504 8     -2394.783

  21404967.432   112483863.951 9      2155.156    21404965.703    87649756.55148
      1679.342

  21754608.446   114321246.438 9      1849.563    21754607.007    89081485.23747
      1441.220

  20693215.369   108743578.292 9     -1455.119    20693216.154    84735257.91549
     -1133.859    20693216.086    81204622.773 9     -1086.610

  22855881.227   122177778.882 7     -3875.141    22855885.082    95027162.027 5
     -3014.000

  19161366.862   102248720.326 9      -647.916    19161367.796    79526782.464 8
      -503.934

  20751967.864   111086923.904 5      3076.132    20751971.795    86400948.620 4
      2392.547

  22033806.571   117741973.281 8     -3763.283    22033807.216    91577090.818 8
     -2926.999

  19256084.293   102862544.476 9      -897.362


  21087968.062   112608582.192 7      3482.013    21087969.078    87584468.668 6
      2708.232

  25591853.456   134486082.736 8     -2309.266
                  25591857.805   100427930.733 9     -1724.555    25591855.740
 103047783.996 9     -1769.525    25591856.695   101737857.968 9     -1747.031
  25030816.008   131537827.047 8      2080.443
                  25030817.018    98226302.919 9      1553.529    25030814.617
 100788719.995 8      1594.113    25030816.011    99507510.064 9      1573.804
  23760271.746   124861066.823 9     -2168.629
                  23760274.458    93240415.408 9     -1619.492    23760272.111
  95672763.997 9     -1661.663    23760273.431    94456590.305 9     -1640.565
 18  4  4  7 56  0.0000000  0 15G05G07G09G13G28G30R01R02R03R11R12R13
                                E07E19E30
  20704037.058   108800447.279 9      -972.460    20704035.830    84779560.06348
      -757.761

  22357503.016   117489464.260 9     -2578.084    22357501.498    91550224.26747
     -2008.897

  24710609.462   129855105.789 8     -3209.686    24710612.693   101185793.12346
     -2501.058    24710613.029    96969722.350 9     -2396.895

  21392687.037   112419330.114 9      2147.111    21392685.336    87599470.44248
      1673.074

  21744094.491   114265995.165 9      1833.903    21744093.037    89038432.30847
      1429.015

  20701559.518   108787427.015 9     -1468.243    20701560.308    84769425.75049
     -1144.086    20701560.228    81237366.941 9     -1096.464

  22877652.058   122294156.192 7     -3883.449    22877656.022    95117677.613 5
     -3020.464

  19165069.162   102268476.495 9      -669.213    19165070.091    79542148.363 8
      -520.499

  20734761.889   110994818.443 5      3064.675    20734764.926    86329311.035 4
      2383.638

  22054958.162   117855000.884 8     -3771.880    22054958.864    91665001.130 8
     -2933.686

  19261190.032   102889818.134 9      -920.920


  21068447.493   112504343.464 7      3467.244    21068448.472    87503394.123 6
      2696.747

  25605054.778   134555456.141 8     -2315.468
                  25605059.095   100479735.529 9     -1729.213    25605057.079
 103100940.224 9     -1774.335    25605058.034   101790338.484 9     -1751.784
  25018953.378   131475488.538 8      2075.453
                  25018954.390    98179751.437 9      1549.797    25018951.998
 100740954.134 8      1590.154    25018953.381    99460351.390 9      1569.959
  23772676.894   124926256.306 8     -2177.375
                  23772679.598    93289095.852 9     -1626.001    23772677.294
  95722714.374 9     -1668.427    23772678.600    94505905.719 9     -1647.182
 18  4  4  7 56 30.0000000  0 15G05G07G09G13G28G30R01R02R03R11R12R13
                                E07E19E30
  20709642.273   108829902.814 9      -991.286    20709641.049    84802512.40848
      -772.432

  22372239.609   117566905.354 9     -2584.780    22372238.077    91610567.94547
     -2014.115

  24728939.588   129951430.850 7     -3212.135    24728942.836   101260851.53847
     -2502.962    24728943.173    97041653.311 9     -2398.667

  21380452.105   112355035.263 9      2139.197    21380450.432    87549370.56148
      1666.907

  21733669.302   114211210.468 9      1818.367    21733667.873    88995742.94047
      1416.909

  20709977.139   108831661.852 9     -1480.814    20709977.957    84803894.44249
     -1153.881    20709977.855    81270399.435 9     -1105.848

  22899467.269   122410770.398 6     -3891.048    22899471.221    95208377.469 5
     -3026.372

  19168891.065   102288870.872 9      -690.471    19168891.996    79558010.641 8
      -537.033

  20717618.756   110903047.902 5      3053.653    20717621.080    86257933.972 4
      2375.064

  22076157.825   117968285.431 8     -3780.369    22076158.563    91753111.305 8
     -2940.288

  19266426.975   102917792.890 9      -944.127


  21049009.886   112400547.729 7      3452.614    21049010.850    87422664.116 6
      2685.366

  25618290.494   134625010.166 8     -2321.499
                  25618294.808   100531675.176 9     -1733.503    25618292.784
 103154234.818 9     -1778.713    25618293.763   101842955.605 9     -1756.126
  25007118.763   131413297.218 8      2070.599
                  25007119.798    98133309.869 8      1546.163    25007117.409
 100693301.037 8      1586.524    25007118.778    99413304.055 9      1566.382
  23785130.555   124991700.788 8     -2185.762
                  23785133.273    93337966.706 9     -1632.136    23785131.029
  95772860.125 9     -1674.763    23785132.300    94555414.021 9     -1653.448
 18  4  4  7 57  0.0000000  0 15G05G07G09G13G28G30R01R02R03R11R12R13
                                E07E19E30
  20715355.776   108859927.363 9     -1010.380    20715354.559    84825908.13748
      -787.310

  22387015.065   117644550.702 9     -2591.684    22387013.518    91671070.78847
     -2019.495

  24747284.779   130047834.959 7     -3214.762    24747288.005   101335971.55247
     -2505.012    24747288.392    97113643.312 9     -2400.704

  21368263.475   112290983.715 9      2130.814    21368261.820    87499460.26948
      1660.375

  21723333.895   114156897.712 8      1802.417    21723332.478    88953421.36148
      1404.483

  20718468.538   108876284.448 9     -1494.006    20718469.390    84838665.29049
     -1164.160    20718469.254    81303721.497 9     -1115.673

  22921327.099   122527623.061 6     -3899.431    22921330.985    95299262.833 5
     -3032.891

  19172833.257   102309907.157 9      -712.109    19172834.177    79574372.187 8
      -553.863

  20700539.394   110811619.517 5      3041.976    20700541.290    86186823.025 3
      2365.981

  22097405.553   118081826.752 8     -3789.060    22097406.304    91841421.183 8
     -2947.049

  19271795.443   102946470.195 9      -967.653


  21029656.273   112297200.561 7      3437.191    21029657.229    87342283.002 6
      2673.371

  25631561.104   134694747.566 8     -2327.607
                  25631565.449   100583751.771 9     -1738.322    25631563.377
 103207669.931 9     -1783.641    25631564.371   101895711.454 9     -1760.960
  24995312.983   131351257.446 8      2065.321
                  24995314.044    98086981.472 9      1542.253    24995311.660
 100645764.063 8      1582.541    24995313.008    99366371.371 9      1562.388
  23797633.031   125057401.841 8     -2194.366
                  23797635.777    93387029.163 9     -1638.763    23797633.587
  95823202.464 9     -1681.434    23797634.815    94605116.418 9     -1660.103
 18  4  4  7 57 30.0000000  0 15G05G07G09G13G28G30R01R02R03R11R12R13
                                E07E19E30
  20721177.762   108890522.026 9     -1029.418    20721176.525    84849748.12448
      -802.144

  22401829.468   117722400.732 9     -2598.537    22401827.905    91731733.13547
     -2024.835

  24765645.246   130144319.254 8     -3217.672    24765648.458   101411154.03547
     -2507.285    24765648.906    97185693.182 9     -2402.808

  21356121.685   112227178.298 9      2122.578    21356120.048    87449741.76948
      1653.957

  21713088.973   114103060.385 9      1786.532    21713087.546    88911470.22947
      1392.103

  20727033.784   108921295.023 9     -1506.961    20727034.666    84873738.44449
     -1174.256    20727034.503    81337333.268 9     -1125.346

  22943231.422   122644713.747 5     -3907.164    22943235.278    95390333.332 4
     -3038.908

  19176896.193   102331587.709 9      -733.599    19176897.092    79591234.822 8
      -570.577

  20683524.699   110720538.173 4      3030.217    20683526.443    86115982.031 3
      2356.836

  22118701.030   118195623.214 8     -3797.583    22118701.795    91929929.507 8
     -2953.676

  19277295.298   102975849.479 9      -991.172


  21010387.562   112194306.611 7      3422.025    21010388.509    87262254.362 6
      2661.575

  25644866.873   134764669.698 8     -2333.979
                  25644871.280   100635966.302 9     -1742.966    25644869.172
 103261246.586 9     -1788.390    25644870.143   101948607.044 9     -1765.644
  24983536.605   131289372.214 9      2060.066
                  24983537.689    98040768.478 9      1538.319    24983535.314
 100598345.512 9      1578.483    24983536.636    99319555.597 9      1558.403
  23810184.352   125123359.602 9     -2202.943
                  23810187.125    93436283.324 9     -1645.129    23810184.995
  95873741.514 9     -1688.064    23810186.170    94655013.023 9     -1666.599
 18  4  4  7 58  0.0000000  0 15G05G07G09G13G28G30R01R02R03R11R12R13
                                E07E19E30
  20727107.088   108921680.705 9     -1048.444    20727105.821    84874027.59548
      -816.970

  22416681.478   117800448.338 9     -2605.308    22416679.898    91792549.42747
     -2030.110

  24784019.816   130240877.761 8     -3220.274    24784023.013   101486394.36847
     -2509.305    24784023.495    97257798.483 8     -2404.678

  21344025.969   112163615.004 9      2114.386    21344024.361    87400211.93348
      1647.574

  21702933.878   114049695.162 9      1770.507    21702932.418    88869886.94547
      1379.616

  20735671.540   108966686.683 9     -1519.917    20735672.438    84909108.56449
     -1184.351    20735672.254    81371229.623 9     -1134.907

  22965178.838   122762035.104 5     -3915.014    22965182.650    95481583.225 4
     -3045.013

  19181078.968   102353907.741 9      -755.069    19181079.846    79608594.832 8
      -587.275

  20666574.329   110629801.775 3      3018.376    20666576.225    86045409.277 3
      2347.627

  22140042.574   118309665.812 8     -3805.954    22140043.348    92018629.277 7
     -2960.188

  19282925.091   103005923.398 9     -1014.486


  20991203.147   112091862.966 7      3406.884    20991204.076    87182576.005 6
      2649.801

  25658206.683   134834770.849 8     -2340.033
                  25658211.134   100688314.541 9     -1747.464    25658209.049
 103314960.448 9     -1793.046    25658209.968   102001638.093 9     -1770.216
  24971788.866   131227637.469 8      2054.874
                  24971789.971    97994667.854 9      1534.558    24971787.606
 100551042.265 9      1574.598    24971788.902    99272853.662 9      1554.573
  23822783.240   125189567.198 9     -2211.500
                  23822786.034    93485724.037 9     -1651.408    23822783.942
  95924471.983 9     -1694.479    23822785.075    94705098.612 9     -1672.948
 18  4  4  7 58 30.0000000  0 15G05G07G09G13G28G30R01R02R03R11R12R13
                                E07E19E30
  20733144.579   108953407.804 9     -1067.082    20733143.284    84898750.00148
      -831.493

  22431571.687   117878696.739 9     -2611.646    22431570.097    91853522.17447
     -2035.050

  24802409.382   130337514.826 7     -3222.669    24802412.561   101561695.86647
     -2511.172    24802413.072    97329962.419 8     -2406.388

  21331977.402   112100299.499 9      2106.357    21331975.824    87350875.18048
      1641.318

  21692869.886   113996808.820 9      1754.876    21692868.396    88828676.82447
      1367.436

  20744382.456   109012462.739 9     -1532.291    20744383.354    84944778.20649
     -1193.993    20744383.172    81405413.030 9     -1144.218

  22987169.868   122879589.978 5     -3922.360    22987173.591    95573014.719 4
     -3050.730

  19185382.632   102376872.814 9      -776.337    19185383.506    79626456.527 8
      -603.820

  20649687.791                        3006.954    20649692.730
      2338.742

  22161430.490   118423956.114 8     -3813.778    22161431.249    92107521.705 7
     -2966.272

  19288685.446   103036694.362 9     -1037.301


  20972104.532   111989877.476 8      3391.868    20972105.449    87103253.984 6
      2638.120

  25671581.411   134905055.493 9     -2345.893
                  25671585.855   100740799.798 9     -1751.765    25671583.844
 103368814.906 9     -1797.521    25671584.724   102054807.953 9     -1774.614
  24960070.912   131166059.254 8      2050.096
                  24960072.032    97948684.127 9      1530.890    24960069.673
 100503858.960 8      1570.834    24960070.950    99226270.149 9      1550.849
  23835430.282   125256027.883 9     -2219.565
                  23835433.087    93535353.768 9     -1657.444    23835431.006
  95975396.398 9     -1700.685    23835432.121    94755375.687 9     -1679.070
 18  4  4  7 59  0.0000000  0 15G05G07G09G13G28G30R01R02R03R11R12R13
                                E07E19E30
  20739289.361   108985698.748 9     -1085.776    20739288.054    84923911.75748
      -846.060

  22446499.116   117957140.728 9     -2618.063    22446497.538    91914647.30747
     -2040.054

  24820813.009   130434225.775 8     -3224.909    24820816.147   101637054.95246
     -2512.922    24820816.701    97402181.571 8     -2408.129

  21319975.616   112037229.839 9      2098.158    21319974.055    87301730.00048
      1634.928

  21682896.638   113944399.329 9      1738.999    21682895.149    88787838.29647
      1355.065

  20753165.491   109058617.776 9     -1544.849    20753166.391    84980743.16049
     -1203.778    20753166.209    81439879.436 9     -1153.565

  23009203.415   122997372.615 5     -3929.713    23009207.066    95664623.414 4
     -3056.443

  19189806.467   102400479.225 9      -797.538    19189807.352    79644817.057 8
      -620.307

  20632869.243   110449382.21114      2994.911    20632876.128    85905080.72013
      2329.375

  22182863.396   118538486.738 8     -3821.671    22182864.122    92196601.046 8
     -2972.412

  19294575.149   103068156.216 9     -1060.230


  20953091.416   111888348.353 7      3376.625    20953092.307    87024286.875 6
      2626.264

  25684990.279   134975519.375 9     -2351.854
                  25684994.660   100793418.883 9     -1756.133    25684992.700
 103422806.656 9     -1801.933    25684993.605   102108113.375 9     -1779.025
  24948382.247   131104634.943 8      2044.854
                  24948383.378    97902815.314 9      1527.111    24948381.025
 100456793.577 9      1566.877    24948382.289    99179803.050 9      1547.006
  23848124.457   125322736.178 9     -2227.676
                  23848127.271    93585168.383 9     -1663.439    23848125.195
  96026510.530 9     -1706.847    23848126.303    94805840.063 9     -1685.182
 18  4  4  7 59 30.0000000  0 15G05G07G09G13G28G30R01R02R03R11R12R13
                                E07E19E30
  20745540.454   109018548.392 9     -1104.587    20745539.135    84949508.87048
      -860.718

  22461462.631   118035774.543 9     -2624.524    22461461.067    91975920.39947
     -2045.084

  24839229.744   130531005.897 7     -3227.518    24839232.803   101712468.01344
     -2514.951    24839233.408    97474452.409 7     -2410.133

  21308019.929   111974402.399 9      2089.892    21308018.382    87252773.56148
      1628.487

  21673013.750   113892464.471 9      1722.913    21673012.277    88747369.60347
      1342.531

  20762019.558   109105146.087 9     -1557.448    20762020.464    85016998.97649
     -1213.597    20762020.289    81474624.596 9     -1162.996

  23031278.404   123115376.635 6     -3937.442    23031282.101    95756404.260 5
     -3062.457

  19194349.883   102424723.717 9      -818.971    19194350.781    79663673.867 8
      -636.978

  20616116.523   110359703.361 3      2983.614    20616122.490    85835330.553 4
      2320.596

  22204339.859   118653250.128 8     -3829.581    22204340.554    92285861.431 8
     -2978.563

  19300592.977   103100302.562 9     -1083.203


  20934163.446   111787274.152 7      3361.231    20934164.324    86945673.644 6
      2614.293

  25698432.436   135046158.036 9     -2357.820
                  25698436.735   100846168.485 9     -1760.729    25698434.758
 103476932.337 9     -1806.661    25698435.743   102161551.018 9     -1783.687
  24936722.334   131043361.699 9      2039.625
                  24936723.479    97857059.321 9      1523.071    24936721.124
 100409843.942 9      1562.881    24936722.384    99133450.236 9      1542.974
  23860864.659   125389686.417 8     -2236.011
                  23860867.495    93635163.670 9     -1669.693    23860865.415
  96077810.050 9     -1713.218    23860866.525    94856487.466 9     -1691.506
 18  4  4  8  0  0.0000000  0 15G05G07G09G13G28G30R01R02R03R11R12R13
                                E07E19E30
  20751899.425   109051964.997 9     -1123.066    20751898.135    84975547.75848
      -875.117

  22476463.682   118114605.564 9     -2630.682    22476462.153    92037347.14247
     -2049.884

  24857661.276   130627863.592 5     -3229.391    24857664.244   101787941.44044
     -2516.408    24857664.955    97546781.170 6     -2411.773

  21296112.291   111911827.381 9      2081.849    21296110.756    87204013.80648
      1622.220

  21663223.196   113841014.723 9      1707.191    21663221.722    88707278.90548
      1330.279

  20770946.057   109152054.991 9     -1569.777    20770946.970    85053551.35249
     -1223.203    20770946.803    81509653.957 9     -1172.182

  23053396.153   123233608.917 6     -3944.603    23053399.954    95848362.647 5
     -3068.027

  19199014.520   102449615.073 9      -840.175    19199015.431    79683033.789 8
      -653.469

  20599432.205   110270388.800 5      2971.122    20599436.933    85765863.682 4
      2310.874

  22225860.899   118768251.782 8     -3837.166    22225861.565    92375307.147 8
     -2984.463

  19306740.254   103133140.042 9     -1105.919


  20915322.809   111686666.268 8      3346.141    20915323.711    86867423.077 6
      2602.555

  25711909.451   135116979.875 8     -2363.541
                  25711913.716   100899054.878 9     -1764.959    25711911.660
 103531198.369 9     -1810.949    25711912.726   102215127.230 9     -1787.929
  24925093.081   130982249.582 9      2034.629
                  24925094.233    97811423.637 9      1519.412    24925091.879
 100363017.771 9      1559.064    24925093.137    99087219.310 9      1539.217
  23873652.269   125456885.833 8     -2243.851
                  23873655.128    93685345.038 9     -1675.595    23873653.043
  96129300.497 9     -1719.253    23873654.162    94907323.373 9     -1697.451
 18  4  4  8  0 30.0000000  0 15G05G07G09G13G28G30R01R02R03R11R12R13
                                E07E19E30
  20758364.747   109085940.593 9     -1141.731    20758363.481    85002022.24848
      -889.661

  22491500.569   118193625.001 9     -2637.057    22491499.091    92098920.71147
     -2054.851

  24876106.075   130724790.970 6     -3232.149    24876108.956   101863469.12044
     -2518.569    24876109.766    97619161.798 7     -2413.392

  21284251.574   111849498.968 9      2073.600    21284250.036    87155446.22248
      1615.792

  21653523.946   113790044.921 9      1691.083    21653522.451    88667562.20447
      1317.728

  20779943.297   109199335.693 9     -1582.049    20779944.208    85090393.44149
     -1232.766    20779944.069    81544960.956 9     -1181.403

  23075554.983   123352060.225 6     -3952.024    23075558.885    95940491.379 5
     -3073.800

  19203799.167   102475146.846 9      -861.634    19203800.091    79702891.813 8
      -670.160

  20582815.305   110181434.188 4      2959.183    20582818.694    85696676.805 4
      2301.587

  22247424.565   118883481.083 8     -3844.566    22247425.218    92464929.889 8
     -2990.219

  19313015.135   103166658.932 9     -1128.508


  20896568.517   111586519.470 7      3330.621    20896569.401    86789531.149 6
      2590.484

  25725419.810   135187977.184 8     -2369.452
                  25725424.111   100952072.335 9     -1769.349    25725421.978
 103585598.890 9     -1815.467    25725423.071   102268836.216 9     -1792.404
  24913493.349   130921292.607 9      2029.438
                  24913494.507    97765903.812 9      1515.535    24913492.150
 100316310.478 9      1554.994    24913493.411    99041105.750 9      1535.236
  23886485.622   125524325.595 8     -2251.886
                  23886488.506    93735705.875 9     -1681.557    23886486.418
  96180975.103 9     -1725.411    23886487.544    94958341.092 9     -1703.465
 18  4  4  8  1  0.0000000  0 16G05G07G09G13G28G30R01R02R03R11R12R13
                                R20E07E19E30
  20764937.368   109120479.962 9     -1160.805    20764936.128    85028936.01748
      -904.524

  22506574.140   118272837.165 9     -2643.645    22506572.712    92160644.44847
     -2059.984

  24894564.619   130821820.77314     -3234.246    24894566.528   101939085.96153
     -2520.191    24894569.246    97691598.220 5     -2415.391

  21272439.014   111787423.623 9      2064.878    21272437.471    87107075.83548
      1608.997

  21643917.463   113739562.519 9      1674.531    21643915.932    88628225.28547
      1304.830

  20789012.043   109246992.277 9     -1594.932    20789012.947    85127528.43949
     -1242.804    20789012.846    81580548.656 9     -1191.006

  23097755.583   123470734.187 6     -3959.622    23097759.553    96032793.278 4
     -3079.707

  19208704.986   102501325.247 9      -883.504    19208705.925    79723252.777 8
      -687.170

  20566267.432   110092849.148 4      2946.625    20566270.070    85627777.353 4
      2291.820

  22269031.247   118998940.306 8     -3852.595    22269031.901    92554731.465 8
     -2996.464

  19319418.284   103200863.080 9     -1151.679


  20877902.222   111486842.480 7      3314.682    20877903.094    86712004.603 6
      2578.086

  24100320.011   128875241.00215      1177.913    24100320.661   100236299.28416
       916.155

  25738964.570   135259155.326 9     -2375.764
                  25738968.933   101005224.828 9     -1774.103    25738966.768
 103640137.980 9     -1820.373    25738967.828   102322682.002 9     -1797.220
  24901924.463   130860497.724 9      2023.678
                  24901925.629    97720505.036 9      1511.193    24901923.270
 100269727.383 9      1550.631    24901924.533    98995114.814 9      1530.925
  23899365.496   125592009.829 8     -2260.349
                  23899368.410    93786249.279 9     -1687.862    23899366.303
  96232837.040 9     -1731.956    23899367.445    95009543.765 9     -1709.903
 18  4  4  8  1 30.0000000  0 16G05G07G09G13G28G30R01R02R03R11R12R13
                                R20E07E19E30
  20771615.046   109155571.373 9     -1179.196    20771613.827    85056279.95848
      -918.855

  22521682.056   118352229.772 9     -2649.649    22521680.664    92222508.79347
     -2064.662


                  24913041.005    97764082.111 4     -2416.894

  21260672.865   111725592.122 9      2056.737    21260671.321    87058895.45048
      1602.653

  21634402.039   113689558.527 9      1658.515    21634400.478    88589261.16948
      1292.351

  20798149.991   109295012.495 9     -1606.973    20798150.896    85164946.77549
     -1252.187    20798150.839    81616407.894 9     -1200.001

  23119995.519   123589617.907 5     -3966.144    23119999.486    96125258.337 4
     -3084.781

  19213730.028   102528139.770 9      -904.648    19213730.978    79744108.491 8
      -703.616

  20549787.093   110004625.771 4      2934.474    20549789.239    85559159.183 4
      2282.367

  22290678.282   119114615.135 8     -3859.611    22290678.951    92644700.718 8
     -3001.921

  19325947.109   103235738.983 9     -1173.988


  20859322.224   111387626.409 8      3299.286    20859323.102    86634836.565 6
      2566.113

  24093777.012   128840253.217 5      1154.022    24093778.377   100209086.606 6
       897.574

  25752541.665   135330503.206 9     -2381.425
                  25752546.053   101058504.043 9     -1778.272    25752543.926
 103694807.105 9     -1824.638    25752544.923   102376656.177 9     -1801.478
  24890384.635   130799855.505 9      2018.522
                  24890385.806    97675220.248 9      1507.406    24890383.454
 100223261.257 9      1546.722    24890384.713    98949239.356 9      1527.075
  23912289.538   125659926.204 8     -2267.965
                  23912292.490    93836966.044 9     -1693.585    23912290.347
  96284876.848 9     -1737.787    23912291.515    95060922.052 9     -1715.683
 18  4  4  8  2  0.0000000  0 16G05G07G09G13G28G30R01R02R03R11R12R13
                                R20E07E19E30
  20778401.195   109191232.702 9     -1197.750    20778399.969    85084067.99348
      -933.312

  22536827.440   118431819.296 9     -2655.744    22536826.055    92284526.60147
     -2069.411


                  24931527.105    97836667.27213     -2418.823

  21248956.810   111664023.833 9      2048.352    21248955.271    87010920.16148
      1596.118

  21624981.488   113640053.103 8      1642.338    21624979.951    88550685.52648
      1279.744

  20807360.310   109343413.028 9     -1619.158    20807361.222    85202661.45449
     -1261.682    20807361.199    81652551.129 9     -1209.100

  23142277.739   123708727.877 4     -3973.595    23142281.686    96217899.416 4
     -3090.575

  19218877.770   102555609.087 9      -926.073    19218878.724    79765473.503 8
      -720.279

  20533378.517   109916786.254 3      2921.982    20533380.294    85490839.513 3
      2272.650

  22312368.508   119230520.837 8     -3866.809    22312369.190    92734849.549 7
     -3007.519

  19332604.781   103271302.684 9     -1196.396


  20840832.571   111288892.863 7      3283.460    20840833.447    86558043.857 6
      2553.804

  24087369.700   128805990.077 5      1130.430    24087371.258   100182437.510 6
       879.224

  25766154.457   135402038.612 8     -2387.198
                  25766158.808   101111923.291 9     -1782.642    25766156.764
 103749619.908 9     -1829.087    25766157.710   102430772.204 9     -1805.857
  24878877.553   130739385.416 9      2013.360
                  24878878.726    97630064.021 9      1503.400    24878876.386
 100176927.036 9      1542.659    24878877.638    98903494.134 9      1523.022
  23925260.931   125728091.408 8     -2275.778
                  23925263.928    93887868.618 9     -1699.481    23925261.739
  96337107.325 9     -1743.810    23925262.943    95112488.578 9     -1721.627
 18  4  4  8  2 30.0000000  0 16G05G07G09G13G28G30R01R02R03R11R12R13
                                R20E07E19E30
  20785294.159   109227455.271 9     -1216.522    20785292.915    85112293.34948
      -947.940

  22552008.617   118511596.745 9     -2662.172    22552007.246    92346690.80247
     -2074.421


                  24950026.952    97909264.73614     -2420.191

  21237289.603   111602712.253 9      2039.654    21237288.057    86963144.91548
      1589.341

  21615654.648   113591040.427 8      1625.784    21615653.160    88512493.83847
      1266.845

  20816641.242   109392184.672 9     -1631.652    20816642.163    85240665.32049
     -1271.418    20816642.160    81688971.500 9     -1218.436

  23164600.312   123828054.222 4     -3981.577    23164604.334    96310708.759 4
     -3096.788

  19224146.938   102583726.303 9      -947.831    19224147.903    79787342.427 8
      -737.203

  20517044.529   109829332.20413      2908.888


  22334099.838   119346646.249 8     -3874.184    22334100.517    92825169.279 7
     -3013.255

  19339389.323   103307544.204 9     -1219.134


  20822432.250   111190636.219 7      3267.378    20822433.150    86481622.026 6
      2541.295

  24081096.714   128772445.615 4      1106.341    24081098.488   100156347.416 6
       860.489

  25779801.371   135473753.519 8     -2393.359
                  25779805.675   101165476.605 9     -1787.239    25779803.685
 103804570.269 9     -1833.864    25779804.637   102485024.046 9     -1810.581
  24867402.036   130679081.170 9      2007.601
                  24867403.211    97585031.621 9      1499.201    24867400.886
 100130719.880 9      1538.278    24867402.127    98857874.350 9      1518.777
  23938277.935   125796496.267 8     -2283.889
                  23938280.987    93938950.143 9     -1705.494    23938278.738
  96389521.418 9     -1749.989    23938279.988    95164236.384 9     -1727.730
 18  4  4  8  3  0.0000000  0 15G05G07G13G28G30R01R02R03R11R12R13R20
                                E07E19E30
  20792293.324   109264235.907 9     -1234.898    20792292.050    85140953.57348
      -962.259

  22567224.906   118591558.777 9     -2668.067    22567223.540    92408998.84947
     -2079.014

  21225671.027   111541656.170 9      2031.262    21225669.458    86915568.74948
      1582.802

  21606421.373   113542519.652 9      1609.595    21606419.904    88474685.48248
      1254.231

  20825992.086   109441323.683 9     -1643.676    20825993.022    85278955.44649
     -1280.787    20825993.029    81725666.201 9     -1227.455

  23186961.429   123947596.77013     -3987.750    23186967.787    96403683.12113
     -3101.584

  19229537.001   102612488.587 9      -969.045    19229537.966    79809713.069 8
      -753.702

  20500776.351   109742252.842 3      2896.528


  22355871.252   119462985.886 8     -3881.041    22355871.916    92915655.637 7
     -3018.587

  19346299.769   103344458.976 9     -1241.304


  20804121.198   111092856.341 7      3251.910    20804122.123    86405571.029 6
      2529.265

  24074958.027   128739619.438 5      1082.475    24074960.101   100130815.958 6
       841.926

  25793481.894   135545645.288 8     -2398.873
                  25793486.191   101219162.017 9     -1791.486    25793484.184
 103859656.168 9     -1838.181    25793485.193   102539409.700 9     -1814.850
  24855957.879   130618941.776 9      2002.340
                  24855959.051    97540122.339 9      1495.196    24855956.738
 100084639.056 9      1534.133    24855957.974    98812379.302 9      1514.657
  23951339.822   125865136.956 8     -2291.600
                  23951342.918    93990207.778 9     -1711.255    23951340.616
  96442116.209 9     -1755.879    23951341.908    95216162.600 9     -1733.575
 18  4  4  8  3 30.0000000  0 15G05G07G13G28G30R01R02R03R11R12R13R20
                                E07E19E30
  20799398.299   109301572.626 9     -1254.311    20799397.003    85170047.10148
      -977.385

  22582475.722   118671702.208 9     -2674.993    22582474.351    92471448.25047
     -2084.411

  21214101.147   111480855.985 9      2021.890    21214099.554    86868191.97948
      1575.498

  21597281.920   113494491.700 8      1592.184    21597280.479    88437261.11648
      1240.663

  20835412.298   109490827.243 9     -1656.703    20835413.251    85317529.63849
     -1290.938    20835413.274    81762633.127 9     -1237.175

  23209358.493   124067289.01313     -3995.056    23209369.829    96496769.96013
     -3107.261

  19235047.888   102641895.706 9      -991.541    19235048.853    79832585.268 8
      -771.198

  20484578.143   109655555.942 3      2882.738    20484587.433
      2242.133

  22377681.895   119579535.212 8     -3888.992    22377682.533    93006305.097 7
     -3024.772

  19353335.526   103382042.876 9     -1264.482


  20785899.686   110995554.635 7      3234.795    20785900.621    86329891.955 6
      2515.952

  24068953.733   128707512.088 5      1057.550    24068956.011   100105843.590 6
       822.539

  25807195.795   135617712.341 9     -2405.690
                  25807200.139   101272978.289 9     -1796.413    25807198.066
 103914876.340 9     -1843.294    25807199.129   102593927.920 9     -1819.870
  24844545.132   130558967.334 9      1995.771
                  24844546.310    97495336.221 9      1490.423    24844543.997
 100038684.598 9      1529.315    24844545.233    98767009.012 9      1509.888
  23964446.065   125934010.671 8     -2300.168
                  23964449.202    94041639.415 9     -1717.649    23964446.857
  96494889.549 9     -1762.466    23964448.179    95268265.087 9     -1740.051
 18  4  4  8  4  0.0000000  0 15G05G07G13G28G30R01R02R03R11R12R13R20
                                E07E19E30
  20806608.073   109339460.183 9     -1271.886    20806606.758    85199569.86648
      -991.081

  22597759.955   118752021.234 9     -2680.049    22597758.568    92534034.48847
     -2088.350

  21202579.350   111420308.553 9      2014.266    21202577.747    86821012.17248
      1569.559

  21588235.750   113446954.012 9      1576.633    21588234.381    88400218.77148
      1228.545

  20844900.773   109540689.561 9     -1667.732    20844901.756    85356383.37949
     -1299.532    20844901.783    81799867.962 9     -1245.435

  23231800.400                       -4000.633    23231807.271    96590064.26513
     -3111.606

  19240678.898   102671943.757 9     -1012.084    19240679.870    79855955.955 8
      -787.177

  20468447.339   109569196.11113      2870.460    20468468.043    85220557.60612
      2232.579

  22399530.348   119696286.481 8     -3894.896    22399530.962    93097111.591 7
     -3029.365

  19360495.349   103420289.493 9     -1285.577


  20767767.410   110898729.304 7      3219.752    20767768.345    86254583.370 6
      2504.253

  24063083.374   128676120.921 5      1034.667    24063085.746   100081428.244 5
       804.742

  25820942.197   135689950.031 9     -2410.543
                  25820946.612   101326921.982 9     -1800.116    25820944.465
 103970227.263 9     -1847.063    25820945.534   102648575.224 9     -1823.591
  24833163.192   130499154.853 9      1991.259
                  24833164.369    97450671.060 9      1486.968    24833162.059
  99992854.260 9      1525.748    24833163.295    98721761.263 9      1506.359
  23977595.543   126003111.629 8     -2306.907
                  23977598.725    94093240.762 9     -1722.648    23977596.342
  96547837.013 9     -1767.619    23977597.675    95320539.492 9     -1745.141
 18  4  4  8  4 30.0000000  0 15G05G07G13G28G30R01R02R03R11R12R13R20
                                E07E19E30
  20813923.585   109377903.383 9     -1290.289    20813922.281    85229525.57448
     -1005.421

  22613078.450   118832520.295 9     -2685.709    22613077.048    92596761.00547
     -2092.762

  21191106.940   111360020.643 9      2005.608    21191105.346    86774034.58248
      1562.812

  21579284.211   113399913.559 9      1560.104    21579282.894    88363563.88348
      1215.666

  20854458.278   109590914.609 9     -1679.817    20854459.296    85395519.76249
     -1308.949    20854459.306    81837373.663 9     -1254.421

  23254278.504   124307440.84014     -4007.586    23254279.926
     -3117.014

  19246431.019   102702638.072 9     -1033.561    19246431.980    79879829.290 8
      -803.881

  20452397.026   109483279.34913      2857.757    20452416.841    85153728.08412
      2222.701

  22421417.049   119813242.122 8     -3901.538    22421417.644    93188077.023 7
     -3034.531

  19367779.884   103459201.668 9     -1307.701


  20749725.802   110802388.333 7      3203.828    20749726.741    86179651.538 7
      2491.868

  24057348.313   128645453.256 5      1010.478    24057350.711   100057575.639 5
       785.927

  25834722.063   135762363.421 8     -2416.299
                  25834726.553   101380996.871 9     -1804.376    25834724.351
 104025712.811 9     -1851.519    25834725.385   102703355.445 9     -1827.964
  24821813.378   130439511.184 9      1985.707
                  24821814.554    97406131.952 9      1482.813    24821812.250
  99947153.267 9      1521.484    24821813.482    98676641.214 9      1502.165
  23990789.013   126072443.781 8     -2314.484
                  23990792.247    94145014.756 9     -1728.385    23990789.834
  96600961.617 9     -1773.498    23990791.157    95372988.793 9     -1750.985
 18  4  4  8  5  0.0000000  0 15G05G07G13G28G30R01R02R03R11R12R13R20
                                E07E19E30
  20821343.672   109416896.298 9     -1308.892    20821342.369    85259909.66848
     -1019.916

  22628430.101   118913193.595 9     -2691.945    22628428.707    92659623.27547
     -2097.621

  21179683.271   111299988.857 9      1996.866    21179681.686    86727256.56848
      1556.000

  21570426.806   113353367.729 9      1543.349    21570425.478    88327294.44948
      1202.611

  20864083.664   109641496.320 9     -1691.919    20864084.702    85434934.06749
     -1318.379    20864084.683    81875145.710 9     -1263.516

  23276794.235   124427796.088 4     -4015.315    23276792.408
     -3123.023

  19252303.492   102733974.658 9     -1055.241    19252304.455    79904202.170 8
      -820.743

  20436418.965   109397745.602 4      2844.544    20436425.764    85087173.78613
      2212.423

  22443340.498   119930394.198 8     -3908.258    22443341.079    93279195.243 7
     -3039.757

  19375187.748   103498772.689 9     -1329.979


  20731774.479   110706529.401 7      3187.371    20731775.434    86105094.609 7
      2479.067

  24051748.025   128615506.306 5       986.439    24051750.418   100034283.615 5
       767.232

  25848534.420   135834947.610 8     -2422.433
                  25848538.962   101435199.321 9     -1808.902    25848536.739
 104081329.245 9     -1856.129    25848537.725   102758264.883 9     -1832.487
  24810495.083   130380033.163 9      1979.835
                  24810496.259    97361716.547 9      1478.389    24810493.967
  99901579.202 9      1516.950    24810495.191    98631646.476 9      1497.686
  24004025.322   126142001.073 8     -2322.229
                  24004028.615    94196956.871 9     -1734.271    24004026.164
  96654258.737 9     -1779.514    24004027.474    95425608.407 9     -1756.878
 18  4  4  8  5 30.0000000  0 15G05G07G13G28G30R01R02R03R11R12R13R20
                                E07E19E30
  20828869.167   109456442.970 9     -1327.240    20828867.859    85290725.23748
     -1034.214

  22643815.366   118994043.670 9     -2697.755    22643813.994    92722623.31547
     -2102.145

  21168309.438   111240218.915 9      1988.072    21168307.853    86680682.57948
      1549.147

  21561664.752   113307322.776 9      1526.760    21561663.379    88291415.30348
      1189.683

  20873777.479   109692437.629 9     -1703.861    20873778.525    85474628.58649
     -1327.684    20873778.482    81913186.278 9     -1272.318

  23299347.839   124548353.004 4     -4021.318    23299347.791
     -3127.692

  19258297.174   102765958.043 9     -1076.693    19258298.134    79929078.117 8
      -837.429

  20420514.872   109312609.049 4      2831.653    20420518.537    85020943.46313
      2202.399

  22465300.928   120047743.996 8     -3914.725    22465301.506    93370467.268 7
     -3044.787

  19382719.274   103539004.456 9     -1351.856


  20713914.765   110611159.574 7      3171.017    20713915.733    86030918.092 6
      2466.347

  24046283.721   128586286.354 5       962.124    24046286.106   100011556.995 5
       748.319

  25862379.991   135907706.633 8     -2428.051
                  25862384.570   101489532.349 9     -1813.132    25862382.361
 104137079.669 9     -1860.434    25862383.326   102813306.615 9     -1836.810
  24799209.416   130320726.552 9      1974.187
                  24799210.592    97317429.135 9      1474.266    24799208.319
  99856136.463 9      1512.770    24799209.532    98586781.402 9      1493.525
  24017305.029   126211786.408 8     -2329.822
                  24017308.381    94249069.276 9     -1739.816    24017305.873
  96707730.580 9     -1785.130    24017307.182    95478400.534 9     -1762.493
 18  4  4  8  6  0.0000000  0 15G05G07G13G28G30R01R02R03R11R12R13R20
                                E07E19E30
  20836499.139   109496538.688 9     -1345.806    20836497.839    85321968.63748
     -1048.679

  22659233.397   119075065.906 9     -2703.795    22659232.035    92785757.51847
     -2106.854

  21156985.058   111180708.889 9      1979.082    21156983.463    86634311.13448
      1542.142

  21552997.728   113261777.004 9      1509.613    21552996.324    88255925.08948
      1176.322

  20883538.824   109743733.761 9     -1715.945    20883539.881    85514599.57549
     -1337.101    20883539.836    81951491.813 9     -1281.412

  23321941.471   124669106.536 4     -4028.730


  19264411.539   102798585.350 9     -1098.533    19264412.493    79954454.889 8
      -854.415

  20404685.194   109227870.887 5      2817.860    20404688.433    84955036.006 4
      2191.668

  22487297.151   120165285.097 8     -3921.307    22487297.741    93461888.095 7
     -3049.907

  19390373.307   103579891.288 9     -1373.890


  20696146.389   110516277.557 8      3154.266    20696147.383    85957120.986 6
      2453.320

  24040955.044   128557791.522 5       937.374    24040957.428    99989394.351 6
       729.068

  25876258.152   135980636.944 8     -2434.041
                  25876262.748   101543993.260 9     -1817.650    25876260.553
 104192961.294 9     -1865.052    25876261.543   102868477.883 9     -1841.382
  24787955.999   130261589.446 8      1968.114
                  24787957.168    97273268.310 9      1469.720    24787954.915
  99810823.616 9      1508.072    24787956.118    98542044.566 9      1488.896
  24030627.238   126281795.037 8     -2337.561
                  24030630.640    94301348.420 9     -1745.559    24030628.078
  96761373.538 9     -1791.122    24030629.385    95531361.583 9     -1768.330
 18  4  4  8  6 30.0000000  0 15G05G07G13G28G30R01R02R03R11R12R13R20
                                E07E19E30
  20844234.794   109537189.749 9     -1364.779    20844233.474    85353644.78748
     -1063.465

  22674685.315   119156266.108 9     -2710.235    22674683.954    92849030.38146
     -2111.873

  21145711.704   111121467.011 9      1969.710    21145710.102    86588148.63148
      1534.839

  21544427.242   113216738.721 9      1492.265    21544425.864    88220830.32448
      1162.804

  20893368.686   109795389.972 9     -1728.431    20893369.746    85554851.15449
     -1346.830    20893369.694    81990066.240 9     -1290.711

  23344569.280   124790061.371 3     -4034.991


  19270647.863   102831863.487 9     -1120.673    19270648.797    79980337.879 8
      -871.634

  20388932.065   109143540.920 6      2803.743    20388935.273    84889446.030 5
      2180.690

  22509329.857   120283021.057 8     -3928.305    22509330.472    93553460.462 7
     -3055.349

  19398150.803   103621437.506 9     -1396.365


  20678471.165   110421893.005 8      3137.172    20678472.152    85883710.825 6
      2440.024

  24035763.625   128530030.622 5       912.659    24035765.997    99967802.541 6
       709.845

  25890170.151   136053744.936 9     -2440.468
                  25890174.735   101598586.834 9     -1822.368    25890172.524
 104248979.042 9     -1869.928    25890173.585   102923783.539 9     -1846.104
  24776736.386   130202629.989 8      1961.736
                  24776737.547    97229240.151 9      1464.958    24776735.308
  99765646.894 9      1503.141    24776736.503    98497442.124 9      1484.066
  24043992.927   126352032.214 8     -2345.540
                  24043996.365    94353798.256 9     -1751.586    24043993.755
  96815191.635 9     -1797.277    24043995.061    95584495.549 9     -1774.425
 18  4  4  8  7  0.0000000  0 15G05G07G13G28G30R01R02R03R11R12R13R20
                                E07E19E30
  20852076.468   109578397.935 9     -1382.478    20852075.151    85385755.03948
     -1077.256

  22690171.321   119237645.433 9     -2715.358    22690169.958    92912442.80547
     -2115.865

  21134490.153   111062497.333 9      1961.436    21134488.543    86542198.22648
      1528.392

  21535954.195   113172212.595 9      1475.980    21535952.850    88186134.66247
      1150.115

  20903267.331   109847407.584 9     -1739.549    20903268.393    85595384.33749
     -1355.493    20903268.326    82028910.544 9     -1299.045

  23367233.984   124911218.412 3     -4041.343


  19277006.739   102865795.544 9     -1141.606    19277007.655    80006729.461 8
      -887.916

  20373256.450   109059625.533 6      2790.490    20373259.701    84824178.508 5
      2170.382

  22531399.028   120400951.811 8     -3933.800    22531399.678    93645184.335 7
     -3059.623

  19406051.735   103663643.206 9     -1417.476


  20660890.154   110328011.208 8      3121.360    20660891.151    85810691.620 6
      2427.723

  24030710.327   128503008.264 5       888.620    24030712.694    99946785.138 6
       691.149

  25904116.447   136127033.039 8     -2445.533
                  25904121.001   101653314.914 9     -1826.199    25904118.757
 104305134.805 9     -1873.835    25904119.887   102979225.464 9     -1850.013
  24765551.378   130143852.394 8      1956.541
                  24765552.532    97185347.795 9      1461.103    24765550.303
  99720609.521 9      1499.172    24765551.494    98452977.263 9      1480.129
  24057402.383   126422499.304 8     -2352.293
                  24057405.867    94406419.759 9     -1756.601    24057403.217
  96869185.883 9     -1802.441    24057404.509    95637803.420 9     -1779.448
 18  4  4  8  7 30.0000000  0 15G05G07G13G28G30R01R02R03R11R12R13R20
                                E07E19E30
  20860021.422   109620148.950 9     -1400.802    20860020.136    85418288.28448
     -1091.534

  22705688.647   119319189.353 9     -2720.852    22705687.295    92975983.47547
     -2120.146

  21123318.141   111003787.992 9      1952.542    21123316.518    86496450.68348
      1521.461

  21527576.473   113128187.322 9      1459.091    21527575.100    88151829.28647
      1136.956

  20913231.952   109899771.910 9     -1751.277    20913233.004    85636187.70649
     -1364.631    20913232.920    82068013.763 9     -1307.800

  23389933.262   125032562.171 4     -4048.065    23389931.058
     -3148.495

  19283485.716   102900368.391 9     -1163.183    19283486.601    80033619.425 8
      -904.699

  20357656.514   108976115.219 5      2776.883    20357659.550    84759225.968 5
      2159.796

  22553501.516   120519060.640 8     -3939.905    22553502.205    93737046.730 7
     -3064.371

  19414073.211   103706492.613 9     -1439.069


  20643401.212   110234621.244 7      3104.695    20643402.202    85738055.004 6
      2414.765

  24025792.858   128476712.273 4       864.239    24025795.238    99926332.691 6
       672.187

  25918094.456   136200487.728 8     -2451.128
                  25918099.007   101708167.381 9     -1830.541    25918096.740
 104361418.211 9     -1878.302    25918097.891   103034793.399 9     -1854.403
  24754398.734   130085244.861 8      1950.571
                  24754399.877    97141582.434 9      1456.619    24754397.661
  99675702.453 9      1494.638    24754398.848    98408641.046 9      1475.632
  24070852.790   126493181.600 8     -2359.612
                  24070856.319    94459201.976 9     -1762.180    24070853.636
  96923345.023 9     -1808.133    24070854.908    95691274.105 9     -1785.192
 18  4  4  8  8  0.0000000  0 15G05G07G13G28G30R01R02R03R11R12R13R20
                                E07E19E30
  20868070.283   109662446.004 9     -1418.753    20868069.027    85451247.01248
     -1105.523

  22721237.824   119400900.730 9     -2726.239    22721236.493    93039654.64647
     -2124.343

  21112196.722   110945344.536 9      1943.896    21112195.079    86450910.33548
      1514.725

  21519295.155   113084668.611 9      1442.320    21519293.721    88117918.62848
      1123.886

  20923263.098   109952485.746 9     -1762.693    20923264.134    85677263.40549
     -1373.527    20923264.053    82107377.979 9     -1316.322

  23412668.405   125154094.940 4     -4053.773    23412666.317    97342092.08511
     -3152.935

  19290085.655   102935586.747 9     -1184.450    19290086.506    80061011.464 8
      -921.239

  20342133.716   108893017.757 6      2763.293    20342136.189    84694594.594 5
      2149.228

  22575637.530   120637348.718 8     -3945.623    22575638.267    93829048.565 7
     -3068.818

  19422215.700   103749987.872 9     -1460.346


  20626005.560   110141729.437 8      3088.418    20626006.533    85665805.847 6
      2402.103

  24021012.354   128451148.664 5       839.967    24021014.768    99906449.852 6
       653.305

  25932104.840   136274112.822 7     -2456.670
                  25932109.439   101763147.138 9     -1834.605    25932107.180
 104417832.224 9     -1882.421    25932108.288   103090490.283 9     -1858.476
  24743279.515   130026813.008 8      1945.041
                  24743280.639    97097948.272 9      1452.410    24743278.439
  99630930.008 9      1490.354    24743279.624    98364437.746 9      1471.368
  24084344.697   126564081.897 8     -2366.700
                  24084348.269    94512146.966 9     -1767.386    24084345.565
  96977671.188 9     -1813.474    24084346.807    95744909.683 9     -1790.455
 18  4  4  8  8 30.0000000  0 15G05G07G13G28G30R01R02R03R11R12R13R20
                                E07E19E30
  20876223.072   109705289.216 9     -1437.297    20876221.848    85484631.31248
     -1119.972

  22736818.873   119482779.634 9     -2732.195    22736817.566    93103456.36547
     -2128.985

  21101126.348   110887169.272 9      1934.598    21101124.693    86405578.96048
      1507.479

  21511110.725   113041659.128 9      1425.028    21511109.280    88084404.74648
      1110.412

  20933360.637   110005548.492 9     -1774.624    20933361.658    85718610.98649
     -1382.824    20933361.580    82147002.745 9     -1325.283

  23435438.734   125275815.780 2     -4060.163


  19296806.668   102971451.188 9     -1206.280    19296807.506    80088906.012 8
      -938.218

  20326688.847   108810337.521 6      2749.035    20326690.635    84630287.774 5
      2138.139

  22597806.751   120755814.146 8     -3951.737    22597807.570    93921188.311 7
     -3073.574

  19430478.695   103794126.810 9     -1482.112


  20608703.864   110049339.189 7      3071.204    20608704.824    85593946.747 6
      2388.714

  24016369.290   128426319.923 5       815.174    24016371.743    99887138.565 7
       634.024

  25946147.744   136347908.966 8     -2462.698
                  25946152.438   101818254.614 9     -1839.151    25946150.225
 104474377.301 9     -1887.145    25946151.253   103146316.563 9     -1863.168
  24732194.186   129968559.225 8      1938.741
                  24732195.296    97054447.072 9      1447.666    24732193.106
  99586293.999 9      1485.413    24732194.293    98320369.136 9      1466.565
  24097877.981   126635199.624 8     -2374.330
                  24097881.581    94565254.328 9     -1773.114    24097878.868
  97032163.973 9     -1819.329    24097880.081    95798709.754 9     -1796.250
 18  4  4  8  9  0.0000000  0 15G05G07G13G28G30R01R02R03R11R12R13R20
                                E07E19E30
  20884479.696   109748678.013 9     -1455.359    20884478.482    85518440.74548
     -1134.048

  22752431.565   119564824.801 9     -2737.499    22752430.281    93167387.63547
     -2133.117

  21090107.337   110829263.910 9      1925.648    21090105.683    86360457.89248
      1500.505

  21503023.495   112999160.603 9      1408.068    21503022.075    88051289.02948
      1097.196

  20943524.380   110058959.123 9     -1786.073    20943525.368    85760229.64749
     -1391.745    20943525.295    82186887.293 9     -1333.720

  23458242.244   125397748.89213     -4065.818


  19303648.914   103007962.586 9     -1227.778    19303649.750    80117303.747 8
      -954.939

  20311322.502   108728078.292 4      2734.821    20311323.859    84566308.387 5
      2127.085

  22620008.658   120874454.129 8     -3957.601    22620009.567    94013463.795 7
     -3078.135

  19438861.877   103838907.689 9     -1503.349


  20591496.576   109957453.462 8      3054.469    20591497.548    85522480.116 7
      2375.699

  24011863.981   128402227.948 5       790.689    24011866.445    99868400.355 6
       614.981

  25960223.225   136421876.235 8     -2468.312
                  25960227.982   101873489.863 8     -1843.207    25960225.843
 104531053.483 9     -1891.348    25960226.799   103202272.276 9     -1867.294
  24721143.087   129910485.328 8      1932.830
                  24721144.191    97011080.207 9      1443.340    24721141.999
  99541795.824 9      1480.979    24721143.195    98276436.615 9      1462.224
  24111452.443   126706533.765 8     -2381.428
                  24111456.052    94618523.304 9     -1778.227    24111453.349
  97086822.582 9     -1824.658    24111454.532    95852673.548 9     -1801.459
 18  4  4  8  9 30.0000000  0 15G05G07G13G28G30R01R02R03R11R12R13R20
                                E07E19E30
  20892841.534   109792619.714 9     -1472.756    20892840.322    85552681.00848
     -1147.602

  22768077.256   119647043.408 9     -2742.360    22768075.994    93231454.05447
     -2136.905

  21079141.571   110771638.422 9      1917.329    21079139.920    86315554.92048
      1494.023

  21495035.520   112957183.627 9      1391.699    21495034.095    88018579.72647
      1084.442

  20953755.689   110112724.755 9     -1796.943    20953756.638    85802124.92749
     -1400.215    20953756.562    82227036.937 9     -1341.882

  23481081.092   125519818.23014     -4071.938


  19310614.046   103045129.729 9     -1248.693    19310614.889    80146211.504 8
      -971.206

  20296037.005   108646252.690 5      2721.510    20296038.227    84502666.192 5
      2116.728

  22642244.240   120993274.106 8     -3962.406    22642245.210    94105879.286 8
     -3081.873

  19447366.430   103884336.340 9     -1523.842


  20574385.822   109866083.142 7      3038.342    20574386.825    85451414.335 6
      2363.156

  24007498.338   128378882.820 5       767.165    24007500.799    99850243.019 6
       596.682

  25974332.874   136496022.877 9     -2473.348
                  25974337.615   101928859.061 9     -1846.985    25974335.547
 104587867.102 9     -1895.176    25974336.482   103258363.687 9     -1871.082
  24710128.127   129852601.328 8      1927.593
                  24710129.223    96967855.148 9      1439.293    24710127.033
  99497443.151 8      1476.841    24710128.239    98232647.755 9      1458.067
  24125069.443   126778091.442 8     -2387.848
                  24125073.046    94671959.210 9     -1783.153    24125070.376
  97141652.468 9     -1829.589    24125071.521    95906806.442 9     -1806.370
 18  4  4  8 10  0.0000000  0 14G05G07G13G28G30R02R03R11R12R13R20E07
                                E19E30
  20901304.044   109837090.455 9     -1492.042    20901302.811    85587333.52348
     -1162.631

  22783751.344   119729411.271 9     -2748.968    22783750.099    93295636.78347
     -2142.054

  21068224.969   110714271.296 9      1907.078    21068223.315    86270853.27148
      1486.035

  21487142.713   112915706.628 9      1373.399    21487141.220    87986260.00847
      1070.182

  20964049.897   110166820.969 9     -1809.499    20964050.796    85844277.81649
     -1409.999    20964050.715    82267433.449 9     -1351.246

  19317697.638   103082929.083 9     -1271.457    19317698.497    80175610.994 8
      -988.911

  20280828.653   108564840.299 6      2705.955    20280829.702    84439345.468 5
      2104.633

  22664508.637   121112247.982 8     -3969.281    22664509.651    94198414.455 8
     -3087.221

  19455987.332   103930387.310 9     -1546.273


  20557367.680   109775207.332 8      3019.996    20557368.693    85380733.164 6
      2348.886

  24003268.286   128356262.840 5       740.962    24003270.751    99832649.713 7
       576.304

  25988472.254   136570325.586 8     -2480.122
                  25988476.923   101984344.804 9     -1852.059    25988474.900
 104644800.306 9     -1900.397    25988475.864   103314573.159 9     -1876.240
  24699145.230   129794885.754 8      1920.143
                  24699146.314    96924755.844 8      1433.916    24699144.135
  99453219.515 8      1471.403    24699145.347    98188986.282 9      1452.713
  24138724.353   126849848.318 8     -2396.009
                  24138727.943    94725543.866 9     -1789.192    24138725.321
  97196634.992 9     -1835.917    24138726.421    95961090.032 9     -1812.551
 18  4  4  8 10 30.0000000  0 16G05G07G08G13G28G30R01R02R03R11R12R13
                                R20E07E19E30
  20909869.778   109882103.592 9     -1509.647    20909868.548    85622408.66948
     -1176.349

  22799456.234   119811940.939 9     -2753.808    22799455.013    93359945.57647
     -2145.827

  25015211.952                         838.409
                  25015214.011    98165068.13015       626.262

  21057360.421   110657177.680 9      1898.402    21057358.763    86226364.74048
      1479.275

  21479348.035   112874745.407 9      1356.540    21479346.481    87954342.19348
      1057.045

  20974409.372   110221260.210 9     -1820.581    20974410.234    85886698.00149
     -1418.635    20974410.133    82308086.125 9     -1359.562

  23526858.974   125764542.24513     -4084.745    23526870.247    97816902.90912
     -3177.018

  19324902.413   103121375.058 9     -1292.581    19324903.304    80205513.394 8
     -1005.341

  20265700.949   108483859.558 5      2691.834    20265701.677    84376360.466 5
      2093.649

  22686803.892   121231386.850 8     -3974.087    22686804.923    94291077.981 8
     -3090.958

  19464726.616   103977071.708 9     -1566.774


  20540445.172   109684842.126 8      3003.406    20540446.188    85310449.120 7
      2335.983

  23999176.758   128334383.541 6       716.671    23999179.231    99815632.478 6
       557.410

  26002643.887   136644797.859 8     -2485.304
                  26002648.483   102039957.191 9     -1856.041    26002646.477
 104701863.453 9     -1904.420    26002647.492   103370910.927 9     -1880.236
  24688197.286   129737353.930 8      1914.513
                  24688198.341    96881793.770 8      1429.607    24688196.186
  99409136.695 8      1466.911    24688197.401    98145463.833 9      1448.289
  24152419.528   126921816.786 8     -2402.645
                  24152423.105    94779286.529 9     -1794.223    24152420.527
  97251779.636 9     -1841.039    24152421.584    96015533.687 9     -1817.648
 18  4  4  8 11  0.0000000  0 16G05G07G08G13G28G30R01R02R03R11R12R13
                                R20E07E19E30
  20918538.452   109927657.717 9     -1528.478    20918537.224    85657905.37648
     -1191.023

  22815191.718   119894631.451 9     -2760.027    22815190.522    93424379.70546
     -2150.670

  25010469.057   131430933.47014       821.583
                  25010468.517    98146464.251 4       612.989

  21046548.269   110600359.454 9      1888.343    21046546.604    86182090.80348
      1471.436

  21471651.763   112834301.354 9      1338.494    21471650.201    87922827.36448
      1042.983

  20984833.870   110276041.153 9     -1832.716    20984834.707    85929384.43749
     -1428.091    20984834.594    82348993.955 9     -1368.581

  23549800.238                       -4091.428    23549814.448
     -3182.222

  19332228.420   103160467.978 9     -1314.849    19332229.340    80235918.985 8
     -1022.661

  20250654.556   108403314.024 5      2676.666    20250654.944    84313713.934 5
      2081.850

  22709129.510   121350687.915 8     -3980.347    22709130.535    94383867.650 7
     -3095.827

  19473583.940   104024387.207 9     -1588.710


  20523618.773   109594990.313 8      2985.431    20523619.778    85240564.440 6
      2322.003

  23995224.016   128313246.433 6       691.161    23995226.495    99799192.514 7
       537.570

  26016847.745   136719439.565 8     -2491.867
                  26016852.324   102095696.096 9     -1860.779    26016850.313
 104759056.425 9     -1909.305    26016851.369   103427376.862 9     -1884.996
  24677284.614   129680007.444 8      1907.481
                  24677285.642    96838970.097 8      1424.453    24677283.513
  99365195.881 8      1461.598    24677284.731    98102081.590 9      1443.064
  24166154.727   126993995.599 8     -2410.441
                  24166158.292    94833186.270 9     -1799.969    24166155.740
  97307085.448 9     -1846.953    24166156.767    96070136.464 9     -1823.498
 18  4  4  8 11 30.0000000  0 15G05G07G08G13G28G30R02R03R11R12R13R20
                                E07E19E30
  20927310.465   109973754.898 9     -1545.188    20927309.238    85693825.24548
     -1204.043

  22830958.185   119977484.776 9     -2764.056    22830956.998    93488940.70146
     -2153.812

  25005823.107   131406527.552 4       805.295    25005820.513   102394660.49753
       627.502    25005822.765    98128239.000 6       601.604

  21035789.366   110543821.017 9      1880.297    21035787.687    86138034.87748
      1465.166

  21464054.905   112794379.612 9      1322.396    21464053.359    87891719.52348
      1030.438

  20995323.748   110331165.717 9     -1842.843    20995324.567    85972338.62749
     -1435.982    20995324.462    82390158.387 9     -1376.071

  19339676.335   103200211.315 9     -1335.221    19339677.266    80266830.446 8
     -1038.506

  20235690.708   108323210.475 5      2663.432    20235690.828    84251411.177 4
      2071.558

  22731485.486   121470151.199 7     -3984.383    22731486.486    94476783.488 7
     -3098.966

  19482559.718   104072334.687 9     -1608.358


  20506889.632   109505657.307 8      2969.610    20506890.633    85171083.145 7
      2309.696

  23991410.924   128292856.165 6       667.684    23991413.422    99783333.445 6
       519.310

  26031084.428   136794253.746 8     -2496.212
                  26031089.026   102151563.787 9     -1864.070    26031086.999
 104816381.537 9     -1912.727    26031088.078   103483973.273 9     -1888.416
  24666408.124   129622851.129 8      1902.483
                  24666409.126    96796288.441 8      1420.700    24666407.019
  99321400.790 8      1457.720    24666408.242    98058843.223 9      1439.172
  24179930.314   127066386.667 8     -2416.165
                  24179933.863    94887244.515 9     -1804.303    24179931.329
  97362553.904 9     -1851.329    24179932.335    96124899.811 9     -1827.795
 18  4  4  8 12  0.0000000  0 15G05G07G08G13G28G30R02R03R11R12R13R20
                                E07E19E30
  20936182.962   110020380.195 9     -1563.123    20936181.758    85730156.63348
     -1218.019

  22846752.752   120060485.787 9     -2769.228    22846751.558    93553616.78346
     -2157.841


                  25001276.007    98110383.367 5       588.864

  21025081.304   110487549.696 9      1871.157    21025079.607    86094187.08748
      1458.044

  21456555.019   112754967.481 9      1305.115    21456553.489    87861008.78347
      1016.973

  21005876.043   110386618.387 9     -1853.990    21005876.848    86015548.48348
     -1444.667    21005876.773    82431567.830 9     -1384.478

  19347243.370   103240590.294 9     -1356.689    19347244.296    80298236.297 8
     -1055.203

  20220807.417   108243538.262 5      2648.399    20220807.351    84189443.890 4
      2059.867

  22753868.707   121589760.018 7     -3989.567    22753869.703    94569812.490 6
     -3102.999

  19491650.756   104120897.300 9     -1629.034


  20490255.333   109416831.490 7      2952.252    20490256.304    85101996.506 7
      2296.201

  23987735.078   128273199.771 5       642.807    23987737.593    99768045.154 6
       499.962

  26045351.215   136869226.002 8     -2501.861
                  26045355.844   102207549.513 9     -1868.253    26045353.797
 104873827.762 9     -1916.984    26045354.868   103540689.243 9     -1892.605
  24655565.435   129565872.429 8      1896.112
                  24655566.425    96753739.428 8      1415.942    24655564.329
  99277741.786 8      1452.965    24655565.556    98015739.209 9      1434.463
  24193743.357   127138974.555 8     -2423.006
                  24193746.878    94941449.733 9     -1809.378    24193744.367
  97418173.176 9     -1856.603    24193745.357    96179812.056 9     -1832.977
 18  4  4  8 12 30.0000000  0 15G05G07G08G13G28G30R02R03R11R12R13R20
                                E07E19E30
  20945156.874   110067538.363 9     -1578.999    20945155.688    85766903.24148
     -1230.389

  22862576.225   120143638.660 9     -2772.479    22862575.009    93618411.19847
     -2160.375

  24996820.646                         773.550
                  24996821.020    98092902.805 5       577.766

  21014425.432   110431552.698 9      1863.775    21014423.726    86050553.07348
      1452.293

  21449153.455   112716072.208 9      1289.613    21449151.919    87830700.80547
      1004.894

  21016491.551   110442403.362 9     -1863.243    21016492.350    86059017.28848
     -1451.878    21016492.297    82473225.428 9     -1391.342

  19354930.662   103281610.979 9     -1376.255    19354931.566    80330141.256 8
     -1070.420

  20206006.414   108164306.868 5      2635.212    20206006.166    84127819.491 4
      2049.612

  22776279.583   121709516.770 7     -3992.416    22776280.582    94662956.582 6
     -3105.214

  19500857.416   104170077.995 9     -1647.869


  20473717.623   109328520.914 8      2936.805    20473718.616    85033310.470 6
      2284.178

  23984197.759   128254284.236 5       619.709    23984200.298    99753333.098 6
       481.998

  26059649.105   136944361.621 8     -2505.538
                  26059653.767   102263657.235 9     -1870.876    26059651.699
 104931399.163 9     -1919.700    26059652.740   103597528.802 9     -1895.300
  24644757.883   129509078.404 8      1891.834
                  24644758.861    96711328.309 8      1412.784    24644756.771
  99234224.296 8      1449.619    24644758.002    97972774.906 9      1431.200
  24207594.658   127211763.454 8     -2427.934
                  24207598.154    94995805.040 9     -1812.987    24207595.670
  97473946.452 9     -1860.309    24207596.647    96234876.349 9     -1836.636
 18  4  4  8 13  0.0000000  0 16G05G07G08G13G28G30R01R02R03R11R12R13
                                R20E07E19E30
  20954231.092   110115223.642 9     -1601.916    20954229.918    85804060.59348
     -1248.246

  22878427.548   120226937.879 9     -2782.648    22878426.325    93683319.65147
     -2168.298

  24992461.953   131336252.37214       751.711    24992465.445   102339966.51853
       585.749    24992461.460    98075795.199 5       561.541

  21003821.168   110375826.877 9      1849.363    21003819.476    86007130.35148
      1441.062

  21441849.661   112677690.634 9      1267.132    21441848.093    87800793.10948
       987.377

  21027169.154   110498514.685 9     -1879.368    21027169.970    86102740.38749
     -1464.443    21027169.914    82515126.727 9     -1403.414

  23641883.716                       -4115.164


  19362737.304   103323268.645 9     -1402.841    19362738.197    80362541.654 8
     -1091.099

  20191287.540   108085515.291 5      2615.182    20191287.063    84066537.171 4
      2034.031

  22798716.727   121829413.972 8     -4002.472    22798717.714    94756209.941 7
     -3113.035

  19510178.558   104219869.545 9     -1673.557


  20457275.821   109240722.679 6      2914.290    20457276.801    84965022.975 7
      2266.675

  23980798.360   128236106.282 5       589.815    23980800.920    99739194.734 6
       458.746

  26073977.138   137019655.680 8     -2516.024
                  26073981.834   102319883.287 9     -1878.851    26073979.750
 104989091.979 9     -1927.878    26073980.746   103654488.231 9     -1903.290
  24633984.895   129452466.024 8      1880.500
                  24633985.868    96669052.841 8      1404.244    24633983.778
  99190845.989 8      1440.832    24633985.011    97929948.019 9      1422.559
  24221483.056   127284747.418 8     -2439.647
                  24221486.545    95050306.025 9     -1821.818    24221484.084
  97529869.218 9     -1869.360    24221485.051    96290088.223 9     -1845.554
 18  4  4  8 13 30.0000000  0 16G05G07G08G13G28G30R01R02R03R11R12R13
                                R20E07E19E30
  20963410.687   110163462.669 9     -1615.700    20963409.548    85841649.42648
     -1258.987

  22894311.841   120310410.252 8     -2783.760    22894310.630    93748363.00247
     -2169.167

  24988200.960   131313871.675 5       738.963    24988204.173   102322525.11453
       575.824    24988201.542    98059082.413 5       551.428

  20993274.071   110320401.492 9      1844.004    20993272.387    85963941.74148
      1436.887

  21434649.311   112639852.446 9      1253.625    21434647.717    87771308.80848
       976.851

  21037913.874   110554978.693 9     -1886.557    21037914.726    86146738.29848
     -1470.045    21037914.663    82557291.392 9     -1408.879

  23664984.691                       -4117.182


  19370668.591   103365591.433 9     -1420.454    19370669.488    80395459.353 9
     -1104.799

  20176656.818   108007195.527 5      2604.389    20176656.207    84005621.764 4
      2025.633

  22821184.916   121949476.994 8     -4003.365    22821185.897    94849592.257 8
     -3113.728

  19519618.890   104270297.491 9     -1690.117


  20440935.696   109153467.615 8      2900.908    20440936.694    84897157.967 7
      2256.261

  23977542.430   128218695.343 5       569.088    23977544.998    99725652.891 6
       442.626

  26088340.527   137095135.664 8     -2517.656
                  26088345.263   102376248.187 9     -1880.122    26088343.175
 105046927.266 9     -1929.121    26088344.126   103711588.328 9     -1904.614
  24623252.047   129396064.597 8      1877.972
                  24623253.021    96626934.902 8      1402.236    24623250.939
  99147629.320 8      1438.852    24623252.163    97887280.714 9      1420.545
  24235413.577   127357952.847 8     -2442.241
                  24235417.086    95104972.395 9     -1824.002    24235414.623
  97585961.672 9     -1871.523    24235415.599    96345467.638 9     -1847.768
 18  4  4  8 14  0.0000000  0 15G05G07G08G13G28G30R02R03R11R12R13R20
                                E07E19E30
  20972691.848   110212235.393 9     -1634.586    20972690.728    85879654.13148
     -1273.704

  22910225.123   120394035.138 8     -2790.027    22910223.943    93813525.21647
     -2174.048

  24984038.534   131292002.258 5       720.117    24984043.305   102305484.12143
       561.131    24984039.554    98042751.447 5       538.184

  20982780.789   110265258.967 9      1833.341    20982779.109    85920973.54848
      1428.577

  21427548.971   112602539.860 9      1234.974    21427547.372    87742234.07548
       962.317

  21048721.825   110611775.033 9     -1898.692    21048722.710    86190995.17948
     -1479.500    21048722.656    82599704.223 9     -1417.832

  19378720.864   103408559.904 9     -1443.022    19378721.773    80428879.260 9
     -1122.351

  20162111.226   107929331.471 6      2587.594    20162110.570    83945060.797 5
      2012.574

  22843679.996   122069683.661 8     -4009.370    22843680.977    94943086.288 8
     -3118.400

  19529174.099   104321339.890 9     -1711.631


  20424694.110   109066738.454 7      2882.148    20424695.108    84829701.946 6
      2241.673

  23974426.535   128202033.444 5       542.885    23974429.093    99712693.683 6
       422.245

  26102735.618   137170782.321 8     -2524.348
                  26102740.391   102432737.541 9     -1885.017    26102738.310
 105104890.267 9     -1934.197    26102739.234   103768814.507 9     -1909.614
  24612556.021   129339856.639 8      1870.361
                  24612557.002    96584961.414 8      1396.756    24612554.941
  99104560.881 8      1433.163    24612556.143    97844759.752 9      1414.943
  24249382.383   127431359.441 8     -2450.169
                  24249385.943    95159788.956 9     -1829.684    24249383.452
  97642208.240 9     -1877.387    24249384.456    96400999.201 9     -1853.551
 18  4  4  8 14 30.0000000  0 15G05G07G08G13G28G30R02R03R11R12R13R20
                                E07E19E30
  20982070.532   110261520.603 9     -1651.928    20982069.419    85918058.16548
     -1287.216

  22926163.366   120477791.238 8     -2794.661    22926162.239    93878789.67647
     -2177.658

  24979970.358   131270625.755 4       704.247    24979975.840   102288826.87342
       548.769    24979971.784    98026788.355 5       525.474

  20972337.810   110210380.767 9      1824.304    20972336.139    85878211.31548
      1421.536

  21420545.121   112565734.448 9      1217.853    21420543.540    87713554.55448
       948.977

  21059588.927   110668882.189 9     -1909.317    21059589.841    86235494.25448
     -1487.780    21059589.820    82642349.171 9     -1425.703

  19386890.334   103452153.730 9     -1464.088    19386891.276    80462785.540 9
     -1138.737

  20147647.665   107851906.694 6      2572.899    20147646.995    83884841.534 5
      2001.145

  22866197.619   122190010.699 8     -4013.480    22866198.596    95036673.914 8
     -3121.598

  19538840.047   104372973.549 9     -1731.525


  20408547.636   108980517.372 8      2864.900    20408548.629    84762641.124 7
      2228.254

  23971447.081   128186101.142 6       518.204    23971449.615    99700301.934 6
       403.049

  26117158.563   137246575.243 8     -2529.542
                  26117163.341   102489336.098 9     -1888.814    26117161.266
 105162965.319 9     -1938.075    26117162.198   103826151.314 9     -1913.443
  24601893.290   129283823.618 8      1864.134
                  24601894.288    96543118.567 8      1392.205    24601892.246
  99061626.479 8      1428.524    24601893.422    97802371.129 9      1410.331
  24263385.364   127504945.683 8     -2456.366
                  24263388.966    95214739.690 9     -1834.276    24263386.443
  97698592.479 9     -1882.114    24263387.484    96456666.688 9     -1858.176
 18  4  4  8 15  0.0000000  0 15G05G07G08G13G28G30R02R03R11R12R13R20
                                E07E19E30
  20991550.519   110311338.219 9     -1668.531    20991549.411    85956877.07748
     -1300.154

  22942130.379   120561698.647 9     -2798.485    22942129.301    93944172.07146
     -2180.636

  24975999.840   131249761.68214       687.451    24976006.075   102272568.65754
       535.676    24976001.472    98011210.384 6       513.452

  20961949.406   110155789.334 9      1815.831    20961947.753    85835672.53448
      1414.933

  21413642.075   112529458.780 9      1201.407    21413640.511    87685287.81848
       936.161

  21070518.940   110726319.919 9     -1919.259    21070519.883    86280250.91548
     -1495.526    21070519.894    82685240.966 9     -1433.166

  19395180.956   103496394.110 9     -1484.432    19395181.920    80497194.714 9
     -1154.559

  20133270.810   107774946.106 6      2558.418    20133270.093    83824983.312 5
      1989.881

  22888741.261   122310476.733 7     -4016.833    22888742.224    95130369.631 8
     -3124.207

  19548620.241   104425217.670 9     -1750.735


  20392500.773   108894828.046 7      2848.297    20392501.758    84695993.879 6
      2215.345

  23968608.313   128170921.079 6       494.454    23968610.810    99688495.237 7
       384.577

  26131613.336   137322535.279 8     -2533.884
                  26131618.075   102546059.443 9     -1892.219    26131615.998
 105221168.406 9     -1941.567    26131616.967   103883614.531 9     -1916.891
  24591268.137   129227988.143 8      1858.787
                  24591269.150    96501423.256 8      1387.978    24591267.119
  99018843.462 8      1424.241    24591268.275    97760131.959 9      1406.131
  24277426.313   127578731.365 8     -2461.999
                  24277429.936    95269839.354 9     -1838.478    24277427.395
  97755129.534 9     -1886.392    24277428.470    96512485.050 9     -1862.454
 18  4  4  8 15 30.0000000  0 15G05G07G08G13G28G30R02R03R11R12R13R20
                                E07E19E30
  21001131.245   110361685.165 9     -1688.179    21001130.147    85996108.44248
     -1315.465

  22958125.647   120645754.441 9     -2805.498    22958124.618    94009670.08247
     -2186.103

  24972129.378   131229416.066 3       668.206
                  24972130.554    97996017.259 6       499.072

  20951615.541   110101484.447 9      1804.168    20951613.900    85793357.03448
      1405.845

  21406839.756   112493712.531 9      1181.510    21406838.208    87657433.60448
       920.657

  21081511.253   110784084.979 9     -1932.016    21081512.219    86325262.63048
     -1505.468    21081512.259    82728377.203 9     -1442.850

  19403592.425   103541279.294 9     -1508.040    19403593.403    80532105.391 9
     -1172.920

  20118981.016   107698451.550 7      2540.740    20118980.285    83765487.542 5
      1976.132

  22911310.112   122431077.394 7     -4023.370    22911311.072    95224170.018 7
     -3129.291

  19558513.799   104478067.293 9     -1772.881


  20376553.497   108809670.598 8      2828.393    20376554.450    84629760.341 6
      2199.861

  23965910.056   128156492.406 6       467.283    23965912.503    99677272.961 7
       363.443

  26146099.514   137398660.247 8     -2541.358
                  26146104.193   102602905.948 9     -1897.844    26146102.106
 105279497.871 9     -1947.372    26146103.120   103941202.515 9     -1922.624
  24580680.543   129172349.995 8      1850.201
                  24580681.562    96459875.280 8      1381.581    24580679.541
  98976211.633 8      1417.590    24580680.690    97718042.061 9      1399.600
  24291504.622   127652713.336 8     -2470.487
                  24291508.242    95325085.607 9     -1844.916    24291505.704
  97811817.002 9     -1893.033    24291506.803    96568451.910 9     -1868.989
 18  4  4  8 16  0.0000000  0 15G05G07G08G13G28G30R02R03R11R12R13R20
                                E07E19E30
  21010815.135   110412574.273 9     -1704.245    21010814.033    86035762.27848
     -1327.984

  22974151.610   120729971.432 9     -2808.833    22974150.627    94075293.68746
     -2188.701

  24968357.534   131209601.645 5       652.629    24968358.383   102241253.31953
       508.542    24968360.333    97981220.835 6       487.419

  20941339.138   110047481.472 9      1796.111    20941337.493    85751276.78748
      1399.568

  21400141.082   112458511.009 9      1165.320    21400139.548    87630003.86548
       908.043

  21092568.287   110842190.024 9     -1941.409    21092569.263    86370539.26448
     -1512.788    21092569.320    82771767.298 9     -1449.667

  19412127.295   103586823.009 9     -1528.070    19412128.290    80567528.269 8
     -1188.499

  20104781.649   107622441.020 7      2526.749    20104780.939    83706368.225 5
      1965.250

  22933906.185   122551823.684 8     -4026.064    22933907.124    95318083.710 6
     -3131.385

  19568522.840   104531534.282 9     -1791.399


  20360708.927   108725061.345 7      2812.003    20360709.832    84563953.134 7
      2187.115

  23963355.248   128142830.723 6       443.814    23963357.640    99666647.217 7
       345.188

  26160619.683   137474963.858 8     -2545.425
                  26160624.302   102659885.875 9     -1900.711    26160622.204
 105337964.231 9     -1950.317    26160623.248   103998925.658 9     -1925.555
  24570133.461   129116924.713 8      1845.025
                  24570134.487    96418486.267 8      1377.856    24570132.469
  98933742.902 8      1413.839    24570133.620    97676113.188 9      1395.858
  24305622.708   127726904.252 8     -2475.465
                  24305626.317    95380487.878 9     -1848.486    24305623.797
  97868664.555 9     -1896.725    24305624.907    96624576.824 9     -1872.609
 18  4  4  8 16 30.0000000  0 15G05G07G08G13G28G30R02R03R11R12R13R20
                                E07E19E30
  21020594.330   110463964.304 9     -1722.018    21020593.220    86075806.45648
     -1341.833

  22990200.448   120814308.501 9     -2813.856    22990199.497    94141010.85147
     -2192.615

  24964680.346   131190279.710 4       635.127    24964687.485   102226219.18854
       494.913    24964683.950    97966792.069 5       474.222

  20931112.852   109993741.887 9      1786.128    20931111.189    85709401.78448
      1391.787

  21393538.758   112423815.666 9      1147.370    21393537.208    87602968.57048
       894.056

  21103682.126   110900593.537 9     -1952.401    21103683.090    86416048.48548
     -1521.352    21103683.175    82815380.299 9     -1457.985

  19420777.939   103632984.516 9     -1549.759    19420778.959    80603431.643 9
     -1205.368

  20090665.719   107546877.198 7      2510.475    20090665.040    83647596.366 5
      1952.593

  22956521.358   122672672.220 8     -4030.512    22956522.224    95412076.983 5
     -3134.842

  19578639.431   104585575.130 9     -1811.676


  20344959.707   108640961.678 8      2794.141    20344960.600    84498542.346 6
      2173.219

  23960936.350   128129895.885 6       418.408    23960938.692    99656586.807 7
       325.428

  26175166.135   137551405.670 8     -2551.160
                  26175170.708   102716969.020 9     -1904.988    26175168.616
 105396536.507 9     -1954.733    26175169.661   104056753.369 9     -1929.870
  24559619.544   129061673.765 8      1838.032
                  24559620.575    96377227.444 8      1372.559    24559618.562
  98891407.762 8      1408.399    24559619.714    97634316.209 9      1390.480
  24319772.670   127801262.681 8     -2482.084
                  24319776.260    95436015.248 9     -1853.483    24319773.772
  97925640.462 9     -1901.859    24319774.878    96680828.460 9     -1877.677
 18  4  4  8 17  0.0000000  0 15G05G07G08G13G28G30R02R03R11R12R13R20
                                E07E19E30
  21030474.519   110515884.947 9     -1739.105    21030473.402    86116264.06448
     -1355.148

  23006277.806   120898795.342 9     -2818.315    23006276.888    94206844.70847
     -2196.092

  24961103.250   131171482.692 4       618.121    24961109.008   102211572.13443
       481.656    24961106.917    97952755.398 5       461.734

  20920942.853   109940298.052 9      1776.938    20920941.166    85667757.23148
      1384.627

  21387038.988   112389658.971 9      1130.052    21387037.405    87576352.97148
       880.561

  21114858.405   110959325.106 9     -1962.810    21114859.351    86461813.32648
     -1529.463    21114859.471    82859238.263 9     -1465.676

  19429550.246   103679795.195 9     -1570.770    19429551.292    80639839.918 8
     -1221.710

  20076639.842   107471795.527 7      2495.152    20076639.172    83589199.518 5
      1940.675

  22979160.973   122793651.606 9     -4034.420    22979161.734    95506172.102 4
     -3137.880

  19588868.665   104640218.245 9     -1831.118


  20329312.279   108557405.101 7      2776.486    20329313.169    84433553.858 7
      2159.491

  23958659.500   128117720.522 5       393.373    23958661.809    99647117.075 7
       305.957

  26189744.708   137628016.355 8     -2556.158
                  26189749.253   102774178.266 8     -1908.772    26189747.186
 105455238.174 9     -1958.579    26189748.215   104114708.823 9     -1933.674
  24549144.980   129006629.613 8      1831.685
                  24549146.016    96336123.043 8      1367.867    24549144.014
  98849231.074 8      1403.538    24549145.162    97592675.663 9      1385.686
  24333960.150   127875818.246 8     -2488.139
                  24333963.706    95491689.828 9     -1857.900    24333961.268
  97982767.426 9     -1906.493    24333962.361    96737229.231 9     -1882.195
 18  4  4  8 17 30.0000000  0 15G05G07G08G13G28G30R02R03R11R12R13R20
                                E07E19E30
  21040452.760   110568320.977 9     -1756.865    21040451.626    86157123.30448
     -1368.986

  23022380.759   120983416.708 9     -2823.313    23022379.877    94272783.39347
     -2199.986

  24957623.763   131153197.748 5       600.646    24957629.328   102197324.17644
       468.039    24957627.193    97939101.136 5       448.431

  20910826.746   109887137.472 9      1766.867    20910825.049    85626333.40148
      1376.779

  21380639.221   112356027.949 9      1111.865    21380637.625    87550146.97448
       866.388

  21126094.150   111018369.218 9     -1973.736    21126095.076    86507821.71448
     -1537.977    21126095.226    82903329.627 9     -1473.839

  19438441.436   103727240.279 9     -1592.391    19438442.496    80676741.633 8
     -1238.527

  20062701.910   107397184.675 7      2478.851    20062701.217    83531168.861 5
      1927.996

  23001821.922   122914745.002 8     -4038.665    23001822.631    95600355.918 5
     -3141.182

  19599207.624   104695447.140 9     -1851.043


  20313764.244   108474379.824 8      2758.180    20313765.123    84368978.731 7
      2145.252

  23956522.179   128106291.301 5       367.893    23956524.450    99638227.692 7
       286.138

  26204352.655   137704781.494 8     -2561.830
                  26204357.181   102831502.850 8     -1913.026    26204355.148
 105514058.180 9     -1962.925    26204356.161   104172781.119 9     -1937.971
  24538707.381   128951779.708 8      1824.837
                  24538708.428    96295163.697 8      1362.689    24538706.444
  98807203.218 8      1398.229    24538707.578    97551182.061 9      1380.443
  24348182.177   127950555.413 8     -2494.645
                  24348185.690    95547500.034 9     -1862.792    24348183.308
  98040033.545 9     -1911.423    24348184.385    96793767.393 9     -1887.080
 18  4  4  8 18  0.0000000  0 15G05G07G08G13G28G30R02R03R11R12R13R20
                                E07E19E30
  21050530.575   110621280.249 9     -1773.582    21050529.441    86198390.25748
     -1382.012

  23038510.851   121068180.755 8     -2827.477    23038510.006    94338833.26347
     -2203.230

  24954243.857   131135435.895 5       583.341    24954249.249   102183483.82744
       454.549    24954246.811    97925837.499 6       435.969

  20900766.550   109834270.806 9      1757.658    20900764.856    85585138.60448
      1369.604

  21374341.444   112322933.104 9      1094.580    21374339.830    87524358.80448
       852.921

  21137390.841   111077733.606 9     -1983.709    21137391.749    86554079.66648
     -1545.748    21137391.926    82947660.160 9     -1481.278

  19447453.157   103775328.494 9     -1613.303    19447454.224    80714143.557 8
     -1254.792

  20048854.442   107323058.073 7      2463.163    20048853.743    83473514.829 6
      1915.795

  23024505.412   123035958.549 8     -4041.985    23024506.121    95694633.108 6
     -3143.767

  19609657.368   104751267.502 9     -1870.086


  20298317.985   108391897.426 8      2740.698    20298318.887    84304825.697 7
      2131.653

  23954526.341   128095618.548 5       343.571    23954528.580    99629926.659 7
       267.222

  26218991.660   137781709.854 8     -2566.612
                  26218996.162   102888949.307 8     -1916.536    26218994.158
 105573003.252 8     -1966.559    26218995.181   104230976.885 9     -1941.517
  24528308.769   128897134.718 8      1818.495
                  24528309.826    96254357.375 8      1358.050    24528307.873
  98765332.379 8      1393.511    24528308.983    97509843.485 9      1375.741
  24362440.261   128025482.043 8     -2500.225
                  24362443.732    95603451.715 9     -1867.004    24362441.413
  98097444.827 9     -1915.654    24362442.465    96850448.877 9     -1891.335
 18  4  4  8 18 30.0000000  0 16G05G07G08G13G28G30R02R03R11R12R13R14
                                R20E07E19E30
  21060706.376   110674754.367 9     -1791.015    21060705.241    86240058.37348
     -1395.598

  23054666.515   121153079.226 8     -2832.181    23054665.708    94404987.87346
     -2206.895

  24950962.437   131118191.440 4       566.502    24950967.405   102170046.67344
       441.434    24950965.074    97912960.259 6       422.837

  20890761.198   109781692.377 9      1747.722    20890759.510    85544168.40748
      1361.862

  21368144.674   112290368.952 9      1076.605    21368143.006    87498984.17948
       838.914

  21148746.866   111137409.829 9     -1994.430    21148747.768    86600580.60948
     -1554.101    21148747.951    82992223.562 9     -1489.346

  19456584.066   103824052.761 9     -1634.752    19456585.133    80752040.199 8
     -1271.474

  20035096.768   107249412.256 7      2446.688    20035096.070    83416234.775 5
      1902.980

  23047209.605   123157282.597 8     -4045.823    23047210.330    95788996.205 7
     -3146.753

  19620216.135   104807670.066 9     -1889.847


  20282972.257   108309952.323 8      2722.423    20282973.160    84241090.675 7
      2117.441

  24418392.512   130163771.47415      4219.836    24418395.739
      3282.095

  23952670.741   128085695.570 5       318.336    23952672.958    99622208.753 7
       247.593

  26233660.314   137858794.089 8     -2572.090
                  26233664.780   102946512.179 8     -1920.725    26233662.786
 105632067.764 8     -1970.830    26233663.851   104289290.576 9     -1945.806
  24517948.108   128842689.198 8      1811.550
                  24517949.162    96213700.008 8      1352.689    24517947.259
  98723614.390 8      1387.991    24517948.334    97468655.798 9      1370.392
  24376732.799   128100589.774 8     -2506.434
                  24376736.233    95659538.642 9     -1871.812    24376733.976
  98154994.891 9     -1920.696    24376734.998    96907267.371 9     -1896.256
 18  4  4  8 19  0.0000000  0 16G05G07G08G13G28G30R02R03R11R12R13R14
                                R20E07E19E30
  21070981.579   110728750.793 9     -1808.378    21070980.428    86282133.47948
     -1409.127

  23070849.260   121238120.086 9     -2836.815    23070848.496    94471253.44746
     -2210.506

  24947781.436   131101474.630 5       548.638    24947784.354   102157005.69854
       427.511    24947783.885    97900476.962 6       409.666

  20880812.678   109729412.620 9      1737.941    20880810.999    85503430.94248
      1354.240

  21362050.832   112258345.450 9      1058.606    21362049.112    87474030.81548
       824.888

  21160163.630   111197405.254 9     -2004.867    21160164.530    86647330.27648
     -1562.234    21160164.713    83037025.321 9     -1497.165

  19465835.824   103873421.850 9     -1656.129    19465836.893    80790438.357 8
     -1288.101

  20021431.255   107176259.677 7      2430.407    20021430.537    83359338.330 6
      1890.317

  23069935.643   123278723.392 6     -4049.837    23069936.392    95883450.090 7
     -3149.876

  19630884.905   104864660.570 9     -1909.161


  20267729.241   108228555.387 8      2704.137    20267730.163    84177781.940 7
      2103.219

  24394654.392   130037229.679 5      4216.766    24394658.722   101140074.58015
      3279.707

  23950957.165   128076532.296 5       293.180    23950959.363    99615081.776 7
       228.029

  26248360.231   137936042.585 8     -2577.520
                  26248364.671   103004197.705 8     -1924.782    26248362.677
 105691258.134 8     -1974.976    26248363.788   104347728.529 9     -1949.897
  24507627.368   128788453.393 8      1804.530
                  24507628.417    96173199.238 8      1347.575    24507626.565
  98682057.074 8      1382.701    24507627.613    97427626.762 9      1365.128
  24391061.206   128175885.949 8     -2512.803
                  24391064.622    95715766.270 9     -1876.419    24391062.398
  98212689.324 8     -1925.384    24391063.404    96964228.402 9     -1900.922
 18  4  4  8 19 30.0000000  0 16G05G07G08G13G28G30R02R03R11R12R13R14
                                R20E07E19E30
  21081354.915   110783262.966 9     -1825.639    21081353.738    86324610.48948
     -1422.576

  23087057.790   121323296.416 9     -2841.512    23087057.069    94537624.59146
     -2214.166

  24944700.065   131085281.438 4       531.243    24944702.766   102144387.53444
       413.953    24944702.459    97888384.619 6       396.734

  20870920.153   109677427.151 9      1727.923    20870918.492    85462922.79248
      1346.434

  21356059.081   112226858.540 9      1040.647    21356057.361    87449495.55048
       810.894

  21171639.847   111257713.133 9     -2015.421    21171640.748    86694323.41348
     -1570.458    21171640.935    83082060.408 9     -1504.991

  19475207.242   103923429.435 9     -1677.587    19475208.310    80829333.117 8
     -1304.791

  20007857.500   107103598.343 7      2413.604    20007856.784    83302823.969 6
      1877.249

  23092681.979   123400272.523 5     -4053.205    23092682.799    95977988.157 8
     -3152.498

  19641662.136   104922231.042 9     -1928.697


  20252588.271   108147703.454 8      2685.973    20252589.188    84114897.120 7
      2089.090

  24370933.723   129910786.987 5      4213.061    24370938.599   101041730.309 5
      3276.826

  23949384.807   128068124.134 5       267.637    23949387.004    99608542.076 6
       208.161

  26263090.323   138013449.641 8     -2582.952
                  26263094.778   103062001.634 9     -1928.709    26263092.769
 105750569.996 9     -1979.042    26263093.893   104406286.420 9     -1953.883
  24497345.807   128734423.511 8      1797.565
                  24497346.834    96132852.253 8      1342.375    24497345.029
  98640657.561 8      1377.397    24497346.059    97386753.511 9      1359.905
  24405424.202   128251363.908 8     -2518.940
                  24405427.608    95772129.651 9     -1880.942    24405425.385
  98270523.062 8     -1929.993    24405426.397    97021326.960 9     -1905.459
 18  4  4  8 20  0.0000000  0 16G05G07G08G13G28G30R02R03R11R12R13R14
                                R20E07E19E30
  21091825.014   110838283.617 9     -1842.160    21091823.832    86367483.70048
     -1435.451

  23103290.868   121408601.698 9     -2845.345    23103290.178    94604096.21946
     -2217.153

  24941717.374   131069607.559 5       514.190    24941720.293   102132174.31943
       400.665    24941719.700    97876680.280 6       384.026

  20861082.908   109625732.190 9      1718.678    20861081.270    85422641.00948
      1339.229

  21350168.560   112195903.803 9      1023.150    21350166.857    87425374.98948
       797.261

  21183174.209   111318326.518 9     -2025.181    21183175.103    86741554.60548
     -1578.063    21183175.292    83127323.632 9     -1512.293

  19484697.174   103974069.538 9     -1698.272    19484698.236    80868719.854 8
     -1320.878

  19994375.095   107031426.248 6      2397.876    19994374.415    83246690.142 6
      1865.015

  23115447.048   123521921.813 5     -4056.245    23115447.974    96072604.098 8
     -3154.862

  19652546.400   104980372.923 9     -1947.197


  20237548.796   108067393.409 8      2668.217    20237549.703    84052433.751 7
      2075.281

  24347231.248   129784440.123 6      4210.226    24347236.088   100943460.525 6
      3274.619

  23947952.678   128060466.154 5       243.212    23947954.868    99602585.922 6
       189.166

  26277849.457   138091009.326 8     -2587.599
                  26277853.983   103119919.545 9     -1932.274    26277851.946
 105809998.811 9     -1982.659    26277853.035   104464959.782 9     -1957.460
  24487102.677   128680595.538 8      1791.254
                  24487103.683    96092656.037 8      1337.622    24487101.905
  98599412.750 8      1372.440    24487102.933    97346033.000 9      1355.007
  24419820.484   128327016.741 8     -2524.386
                  24419823.878    95828623.621 9     -1885.047    24419821.644
  98328490.796 9     -1934.240    24419822.671    97078557.813 9     -1909.654
 18  4  4  8 20 30.0000000  0 16G05G07G08G13G28G30R02R03R11R12R13R14
                                R20E07E19E30
  21102393.133   110893819.345 9     -1859.995    21102391.949    86410758.27448
     -1449.347

  23119549.671   121494042.073 9     -2850.706    23119548.983    94670673.10646
     -2221.330

  24938835.293   131054462.124 4       495.128    24938838.336   102120372.75943
       385.825    24938837.525    97865370.467 6       370.232

  20851302.733   109574337.084 9      1707.903    20851301.107    85382592.87148
      1330.834

  21344381.017   112165490.152 9      1004.470    21344379.308    87401676.07148
       782.705

  21194767.874   111379251.540 9     -2036.281    21194768.752    86789028.63648
     -1586.713    21194768.946    83172819.574 9     -1520.601

  19494307.108   104025349.949 9     -1720.219    19494308.172    80908604.593 8
     -1337.949

  19980986.131   106959754.399 6      2380.246    19980985.513    83190945.365 6
      1851.301

  23138231.726   123643676.148 7     -4060.362    23138232.737    96167301.820 8
     -3158.061

  19663538.523   105039091.084 9     -1967.132


  20222612.389   107987633.921 8      2649.214    20222613.278    83990398.638 6
      2060.501

  24323548.889   129658199.486 7      4205.969    24323553.682   100845273.382 6
      3271.311

  23946662.399   128053566.550 5       216.940    23946664.579    99597219.578 6
       168.732

  26292639.027   138168728.871 8     -2593.746
                  26292643.668   103177956.815 9     -1936.749    26292641.604
 105869550.114 9     -1987.295    26292642.615   104523754.067 9     -1962.019
  24476899.702   128626978.582 8      1783.528
                  24476900.694    96052617.411 8      1331.765    24476898.919
  98558329.633 8      1366.516    24476899.957    97305472.124 9      1349.152
  24434251.235   128402850.643 8     -2531.038
                  24434254.613    95885252.802 9     -1890.094    24434252.366
  98386597.269 9     -1939.375    24434253.407    97135925.639 9     -1914.713
 18  4  4  8 21  0.0000000  0 16G05G07G08G13G28G30R02R03R11R12R13R14
                                R20E07E19E30
  21113057.861   110949862.637 9     -1876.852    21113056.671    86454428.34048
     -1462.483

  23135832.885   121579610.689 8     -2854.836    23135832.191    94737349.91446
     -2224.549

  24936052.833   131039840.393 5       478.116    24936056.088   102108979.24243
       372.558    24936055.155    97854451.660 6       357.159

  20841578.715   109523237.069 9      1698.034    20841577.090    85342774.68248
      1323.144

  21338695.567   112135612.802 9       986.549    21338693.840    87378395.02048
       768.739

  21206419.434   111440480.788 9     -2046.379    21206420.306    86836739.71648
     -1594.582    21206420.514    83218542.689 9     -1528.054

  19504035.719   104077263.649 9     -1741.327    19504036.799    80948981.897 8
     -1354.366

  19967690.218   106888580.540 7      2363.864    19967689.660    83135587.910 6
      1838.562

  23161034.429   123765526.853 8     -4063.725    23161035.519    96262074.529 8
     -3160.677

  19674636.932   105098376.682 9     -1986.012


  20207778.492   107908421.589 8      2630.918    20207779.384    83928789.020 7
      2046.270

  24299885.813   129532061.415 7      4202.402    24299890.529   100747165.959 5
      3268.534

  23945512.926   128047419.958 5       192.422    23945515.092    99592438.912 6
       149.662

  26307457.777   138246601.794 8     -2598.695
                  26307462.531   103236108.636 9     -1940.494    26307460.448
 105929218.949 9     -1991.152    26307461.372   104582664.389 9     -1965.793
  24466736.036   128573568.148 8      1776.461
                  24466737.024    96012732.989 8      1326.688    24466735.238
  98517404.747 8      1361.319    24466736.294    97265067.470 9      1344.044
  24448715.041   128478858.215 8     -2536.736
                  24448718.406    95942011.677 9     -1894.337    24448716.139
  98444836.823 9     -1943.752    24448717.193    97193424.854 9     -1919.018
 18  4  4  8 21 30.0000000  0 16G05G07G08G13G28G30R02R03R11R12R13R14
                                R20E07E19E30
  21123819.370   111006414.740 9     -1893.548    21123818.176    86498494.92848
     -1475.491

  23152140.868   121665309.410 8     -2858.796    23152140.183    94804128.08547
     -2227.635

  24933370.703   131025746.157 4       460.462    24933374.003   102097996.80744
       358.808    24933373.012    97843926.858 7       344.177

  20831911.629   109472436.207 9      1688.393    20831910.006    85303189.59548
      1315.630

  21333112.920   112106275.807 9       968.731    21333111.188    87355535.02548
       754.855

  21218129.152   111502015.672 9     -2056.250    21218130.038    86884688.95349
     -1602.274    21218130.254    83264494.048 9     -1535.530

  19513883.404   104129812.771 9     -1762.270    19513884.493    80989853.429 8
     -1370.654

  19954488.511   106817910.881 7      2347.176    19954487.997    83080622.628 6
      1825.582

  23183855.176   123887473.915 8     -4066.476    23183856.356    96356922.178 8
     -3162.816

  19685841.592   105158229.501 9     -2004.514


  20193047.772   107829760.520 8      2612.804    20193048.651    83867608.244 7
      2032.182

  24276242.906   129406031.403 7      4199.297    24276247.442   100649142.679 5
      3266.119

  23944504.902   128042029.813 5       167.220    23944507.045    99588246.606 6
       130.061

  26322306.191   138324630.616 8     -2603.570
                  26322311.021   103294376.876 9     -1944.222    26322308.923
 105989007.233 8     -1994.945    26322309.802   104641692.657 9     -1969.584
  24456612.481   128520368.577 8      1769.810
                  24456613.466    95973006.047 9      1321.558    24456611.662
  98476641.453 8      1356.028    24456612.735    97224822.351 9      1338.828
  24463212.179   128555040.981 8     -2542.315
                  24463215.551    95998901.381 9     -1898.492    24463213.248
  98503210.610 9     -1948.063    24463214.320    97251056.602 9     -1923.313
 18  4  4  8 22  0.0000000  0 16G05G07G08G13G28G30R02R03R11R12R13R14
                                R20E07E19E30
  21134676.940   111063471.478 9     -1910.387    21134675.746    86542954.70948
     -1488.615

  23168472.687   121751133.523 8     -2863.161    23168472.010    94871003.97946
     -2231.037

  24930788.689   131012177.727 5       443.289    24930792.067   102087423.99144
       345.423    24930791.062    97833794.606 6       331.126

  20822301.152   109421932.849 9      1678.322    20822299.538    85263836.33248
      1307.784

  21327632.614   112077476.775 9       950.909    21327630.902    87333094.24348
       740.968

  21229896.113   111563851.405 9     -2066.354    21229897.008    86932872.63448
     -1610.146    21229897.235    83310670.074 9     -1543.019

  19523849.524   104182993.749 9     -1783.335    19523850.619    81031216.385 8
     -1387.038

  19941381.168   106747746.316 7      2330.193    19941380.671    83026050.205 6
      1812.373

  23206692.854   124009511.438 8     -4069.545    23206694.120    96451840.209 8
     -3165.203

  19697151.293   105218643.256 9     -2023.340


  20178420.222   107751650.128 8      2594.418    20178421.107    83806855.701 6
      2017.879

  24252620.157   129280108.363 8      4195.581    24252624.423   100551202.495 5
      3263.231

  23943637.850   128037393.361 5       141.991    23943639.980    99584640.461 6
       110.438

  26337183.552   138402811.572 8     -2608.642
                  26337188.400   103352758.720 8     -1948.077    26337186.270
 106048912.077 8     -1998.880    26337187.186   104700836.007 9     -1973.503
  24446528.727   128467378.104 8      1762.694
                  24446529.728    95933435.241 9      1316.294    24446527.898
  98436038.358 8      1350.680    24446528.986    97184735.401 9      1333.497
  24477741.773   128631394.292 8     -2548.106
                  24477745.172    96055918.425 9     -1902.747    24477742.825
  98561715.052 9     -1952.379    24477743.910    97308817.342 9     -1927.545
 18  4  4  8 22 30.0000000  0 16G05G07G08G13G28G30R02R03R11R12R13R14
                                R20E07E19E30
  21145630.985   111121035.199 9     -1926.902    21145629.807    86587809.52048
     -1501.482

  23184829.047   121837086.540 9     -2866.948    23184828.372    94937980.30346
     -2233.987

  24928307.659   130999140.108 6       425.873    24928310.946   102077264.94344
       331.848    24928309.932    97824058.860 6       318.099

  20812748.354   109371732.598 9      1668.548    20812746.746    85224719.26048
      1300.168

  21322255.763   112049221.264 9       932.998    21322254.066    87311076.96748
       727.012

  21241720.866   111625990.840 9     -2076.055    21241721.767    86981292.96948
     -1617.705    21241722.011    83357072.892 9     -1550.361

  19533934.793   104236810.565 9     -1804.183    19533935.885    81073073.895 8
     -1403.254

  19928369.491   106678093.696 7      2313.403    19928368.981    82971875.936 7
      1799.314

  23229547.785   124131641.054 8     -4072.244    23229549.128    96546829.865 7
     -3167.302

  19708566.318   105279619.608 9     -2041.533


  20163896.861   107674096.296 8      2575.959    20163897.736    83746536.078 7
      2003.525

  24229018.815   129154299.469 8      4191.865    24229022.791   100453351.104 4
      3260.337

  23942912.599   128033515.247 5       116.527    23942914.708    99581624.168 6
        90.634

  26352090.613   138481148.557 8     -2613.651
                  26352095.427   103411257.063 8     -1951.691    26352093.247
 106108936.464 8     -2002.646    26352094.270   104760097.370 9     -1977.144
  24436485.847   128414602.483 8      1755.817
                  24436486.863    95894024.879 8      1311.185    24436485.012
  98395599.905 8      1345.369    24436486.108    97144810.995 9      1328.319
  24492304.355   128707920.995 8     -2553.497
                  24492307.777    96113064.956 9     -1906.882    24492305.399
  98620352.361 9     -1956.624    24492306.485    97366709.261 9     -1931.732
 18  4  4  8 23  0.0000000  0 16G05G07G08G13G28G30R02R03R11R12R13R14
                                R20E07E19E30
  21156680.117   111179098.691 9     -1944.155    21156678.920    86633053.80248
     -1514.926

  23201208.665   121923161.802 8     -2871.545    23201207.984    95005051.88447
     -2237.569

  24925926.926   130986629.451 4       408.361    24925930.227   102067516.50044
       318.215    24925929.111    97814716.637 6       304.633

  20803252.514   109321831.604 9      1658.040    20803250.914    85185835.36348
      1291.979

  21316981.518   112021504.860 9       914.499    21316979.814    87289479.78148
       712.597

  21253602.107   111688427.117 9     -2086.471    21253603.029    87029944.59548
     -1625.822    21253603.285    83403697.360 9     -1558.037

  19544138.002   104291256.812 9     -1825.699    19544139.096    81115420.968 8
     -1419.989

  19915453.209   106608951.654 7      2295.866    19915452.657    82918098.780 6
      1785.672

  23252418.389   124253854.425 8     -4075.482    23252419.778    96641884.683 6
     -3169.819

  19720085.015   105341150.021 9     -2060.635


  20149476.944   107597094.876 8      2557.131    20149477.815    83686646.118 7
      1988.880

  24205438.226   129028601.522 7      4187.605    24205441.905   100355586.074 4
      3257.030

  23942328.237   128030390.423 5        91.577    23942330.337    99579193.748 6
        71.228

  26367026.258   138559635.687 8     -2619.164
                  26367031.017   103469867.511 8     -1955.704    26367028.777
 106169075.874 8     -2006.753    26367029.931   104819472.301 9     -1981.223
  24426483.119   128362037.782 8      1748.216
                  24426484.162    95854772.019 9      1305.531    24426482.289
  98355323.048 9      1339.662    24426483.387    97105046.136 9      1322.613
  24506898.626   128784614.223 8     -2559.603
                  24506902.071    96170335.830 9     -1911.309    24506899.691
  98679117.264 9     -1961.136    24506900.756    97424727.151 9     -1936.224
 18  4  4  8 23 30.0000000  0 16G05G07G08G13G28G30R02R03R11R12R13R14
                                R20E07E19E30
  21167825.543   111237668.109 9     -1960.448    21167824.350    86678692.26348
     -1527.624

  23217612.642   122009365.138 9     -2875.323    23217611.987    95072223.26247
     -2240.513

  24923648.166   130974654.172 5       390.655    24923651.416   102058185.03445
       304.397    24923650.310    97805774.033 6       291.656

  20793815.262   109272238.523 9      1648.280    20793813.669    85147191.40648
      1284.375

  21311811.442   111994335.890 9       896.863    21311809.731    87268309.17248
       698.855

  21265540.919   111751165.997 9     -2096.133    21265541.866    87078832.02148
     -1633.350    21265542.127    83450547.801 9     -1565.264

  19554460.439   104346339.221 9     -1846.382    19554461.529    81158262.815 8
     -1436.075

  19902634.265   106540330.697 8      2278.866    19902633.623    82864726.941 7
      1772.453

  23275305.580   124376156.505 8     -4077.948    23275306.970    96737008.521 6
     -3171.738

  19731708.138   105403238.776 9     -2078.694


  20135162.202   107520654.944 8      2538.844    20135163.084    83627192.831 7
      1974.657

  24181880.307   128903024.336 7      4184.138    24181883.747   100257914.926 6
      3254.336

  23941886.194   128028026.684 4        66.220    23941888.276    99577355.308 6
        51.504

  26381991.744   138638279.716 8     -2623.881
                  26381996.473   103528595.141 8     -1959.344    26381994.167
 106229335.533 8     -2010.494    26381995.426   104878965.942 9     -1984.903
  24416522.183   128309692.718 8      1741.260
                  24416523.238    95815683.170 9      1300.356    24416521.356
  98315214.495 9      1334.365    24416522.447    97065447.434 9      1317.417
  24521525.676   128861479.851 8     -2564.831
                  24521529.151    96227735.463 9     -1915.293    24521526.800
  98738014.280 9     -1965.287    24521527.816    97482875.478 9     -1940.297
 18  4  4  8 24  0.0000000  0 16G05G07G08G13G28G30R02R03R11R12R13R14
                                R20E07E19E30
  21179065.665   111296735.342 9     -1977.103    21179064.479    86724718.66648
     -1540.600

  23234039.533   122095688.894 9     -2879.285    23234038.917    95139488.47847
     -2243.601

  24921470.097   130963208.688 5       372.537    24921473.399   102049266.63044
       290.291    24921472.190    97797227.192 6       278.327

  20784435.660   109222948.361 9      1638.056    20784434.073    85108783.48048
      1276.407

  21306744.463   111967708.759 9       878.692    21306742.743    87247560.75848
       684.695

  21277535.793   111814199.450 9     -2105.930    21277536.757    87127948.97448
     -1640.985    21277537.024    83497618.217 9     -1572.703

  19564900.735   104402050.546 9     -1867.423    19564901.811    81201593.833 8
     -1452.440

  19889912.165   106472228.058 8      2261.547    19889911.461    82811758.222 7
      1758.980

  23298207.573   124498537.547 8     -4080.575    23298208.970    96832193.741 6
     -3173.782

  19743433.905   105465876.334 9     -2096.921


  20120951.801   107444772.343 8      2520.189    20120952.680    83568173.064 7
      1960.149

  24158344.252   128777563.676 7      4180.135    24158347.497   100160334.394 6
      3251.211

  23941585.306   128026417.672 4        41.080    23941587.357    99576103.868 6
        31.953

  26396985.721   138717073.578 7     -2628.774
                  26396990.471   103587434.685 9     -1963.185    26396988.105
 106289710.028 8     -2014.385    26396989.408   104938572.960 9     -1988.774
  24406602.071   128257562.193 8      1734.160
                  24406603.133    95776754.535 9      1294.859    24406601.246
  98275270.334 9      1328.646    24406602.329    97026011.041 9      1311.735
  24536184.006   128938509.910 8     -2570.315
                  24536187.527    96285257.886 9     -1919.452    24536185.220
  98797037.278 9     -1969.534    24536186.160    97541148.185 9     -1944.499
 18  4  4  8 24 30.0000000  0 16G05G07G08G13G28G30R02R03R11R12R13R14
                                R20E07E19E30
  21190400.227   111356298.810 9     -1993.608    21190399.042    86771131.74748
     -1553.462

  23250489.184   122182132.275 9     -2883.348    23250488.587    95206846.92046
     -2246.765

  24919393.280   130952294.871 5       354.884    24919396.583   102040762.28644
       276.537    24919395.403    97789077.183 6       265.156

  20775113.959   109173962.456 9      1627.889    20775112.371    85070612.64748
      1268.485

  21301780.783   111941624.585 9       860.503    21301779.051    87227235.44248
       670.523

  21289586.471   111877526.134 9     -2115.726    21289587.439    87177294.41548
     -1648.618    21289587.715    83544907.598 9     -1579.976

  19575458.754   104458390.063 9     -1888.423    19575459.828    81245413.440 8
     -1468.774

  19877287.474   106404646.941 8      2244.052    19877286.753    82759195.137 7
      1745.373

  23321123.951   124620995.334 7     -4083.015    23321125.377    96927438.628 6
     -3175.679

  19755261.917   105529059.613 9     -2115.067


  20106846.063   107369448.495 8      2501.559    20106846.938    83509587.857 7
      1945.658

  24134830.537   128652222.316 6      4176.146    24134833.611   100062846.694 6
      3248.108

  23941425.665   128025563.784 4        16.049    23941427.691    99575439.703 7
        12.479

  26412008.127   138796016.970 7     -2633.748
                  26412012.962   103646385.913 8     -1966.868    26412010.547
 106350199.114 8     -2018.232    26412011.826   104998293.117 9     -1992.541
  24396723.101   128205647.842 8      1726.978
                  24396724.173    95737987.324 9      1289.576    24396722.284
  98235491.804 9      1323.184    24396723.355    96986738.168 9      1306.388
  24550873.406   129015703.170 8     -2575.652
                  24550876.972    96342902.168 9     -1923.512    24550874.710
  98856185.321 9     -1973.655    24550875.565    97599544.347 9     -1948.600
 18  4  4  8 25  0.0000000  0 16G05G07G08G13G28G30R02R03R11R12R13R14
                                R20E07E19E30
  21201830.004   111416362.786 9     -2010.368    21201828.831    86817934.83448
     -1566.521

  23266962.458   122268699.695 9     -2887.505    23266961.859    95274302.00546
     -2250.006

  24917418.600   130941918.430 6       337.109    24917421.920   102032676.84643
       262.678    24917420.687    97781328.659 7       251.590

  20765851.554   109125288.128 9      1617.374    20765849.964    85032684.59548
      1260.291

  21296921.706   111916090.070 9       841.957    21296919.970    87207338.42348
       656.071

  21301693.767   111941150.376 9     -2125.676    21301694.718    87226871.73448
     -1656.371    21301695.009    83592419.185 9     -1587.374

  19586135.564   104515363.389 9     -1909.491    19586136.642    81289726.005 8
     -1485.160

  19864762.046   106337597.155 9      2226.203    19864761.312    82707045.298 7
      1731.491

  23344055.290   124743533.038 7     -4085.733    23344056.770    97022745.658 6
     -3177.796

  19767192.648   105592791.704 9     -2133.358


  20092846.425   107294691.286 8      2482.496    20092847.289    83451443.387 6
      1930.831

  24111340.685   128527008.506 6      4171.834    24111343.615    99965458.270 6
      3244.760

  23941408.365   128025471.300 4        -9.425    23941410.378    99575367.794 6
        -7.330

  26427059.980   138875115.224 7     -2638.876
                  26427064.966   103705452.780 8     -1970.747    26427062.519
 106410806.857 8     -2022.186    26427063.717   105058130.423 9     -1996.475
  24386886.640   128153956.918 8      1719.393
                  24386887.726    95699386.960 9      1283.978    24386885.833
  98195884.476 9      1317.419    24386886.893    96947634.321 9      1300.694
  24565594.699   129093063.955 8     -2581.354
                  24565598.286    96400671.555 8     -1927.606    24565596.078
  98915461.743 9     -1977.987    24565596.844    97658067.247 9     -1952.770
 18  4  4  8 25 30.0000000  0 16G05G07G08G13G28G30R02R03R11R12R13R14
                                R20E07E19E30
  21213352.455   111476913.611 9     -2027.464    21213351.267    86865117.26848
     -1579.843

  23283456.938   122355378.485 8     -2892.200    23283456.322    95341843.88346
     -2253.665

  24915544.401   130932069.444 4       318.303    24915547.692   102025002.27044
       248.030    24915546.532    97773973.883 6       237.765

  20756646.404   109076914.734 9      1606.410    20756644.800    84994991.04748
      1251.748

  21292165.176   111891094.433 9       823.146    21292163.426    87187861.31848
       641.413

  21313855.137   112005058.852 9     -2136.041    21313856.075    87276670.53848
     -1664.448    21313856.387    83640143.037 9     -1595.200

  19596928.614   104572957.034 9     -1931.200    19596929.684    81334521.051 8
     -1502.045

  19852334.192   106271069.638 9      2207.895    19852333.441    82655301.651 7
      1717.250

  23366998.815   124866135.926 7     -4088.864    23367000.341    97118103.387 7
     -3180.230

  19779223.215   105657057.535 9     -2152.108


  20078950.915   107220490.010 8      2463.098    20078951.757    83393731.288 7
      1915.744

  24087872.926   128401912.564 6      4166.954    24087875.742    99868161.561 7
      3240.972

  23941531.205   128026128.130 4       -35.351    23941533.207    99575878.671 7
       -27.496

  26442138.944   138954355.991 8     -2644.633
                  26442144.098   103764626.075 8     -1975.075    26442141.642
 106471523.803 8     -2026.516    26442142.724   105118075.535 9     -2000.790
  24377090.711   128102479.030 8      1711.338
                  24377091.809    95660945.691 9      1277.832    24377089.912
  98156440.393 9      1311.146    24377090.961    96908691.647 9      1294.472
  24580345.352   129170579.077 8     -2587.379
                  24580348.935    96458556.216 8     -1932.247    24580346.792
  98974856.447 9     -1982.700    24580347.479    97716706.937 9     -1957.537
 18  4  4  8 26  0.0000000  0 16G05G07G08G13G28G30R02R03R11R12R13R14
                                R20E07E19E30
  21224969.110   111537959.399 9     -2043.258    21224967.907    86912685.38548
     -1592.150

  23299974.167   122442176.869 8     -2895.490    23299973.549    95409478.96246
     -2256.227

  24913772.474   130922758.020 6       301.086    24913775.736   102017746.67545
       234.607    24913774.557    97767020.586 7       224.925

  20747500.621   109028853.296 9      1596.651    20747498.995    84957540.57648
      1244.143

  21287513.196   111866648.108 9       805.533    21287511.430    87168812.24248
       627.688

  21326072.155   112069259.801 9     -2145.032    21326073.104    87326697.23248
     -1671.454    21326073.434    83688085.280 9     -1601.869

  19607839.677   104631180.403 9     -1951.538    19607840.740    81379805.865 9
     -1517.864

  19840006.434   106205077.876 8      2190.619    19840005.642    82603974.701 7
      1703.815

  23389955.918   124988811.229 7     -4090.658    23389957.462    97213517.400 7
     -3181.627

  19791355.104   105721863.803 9     -2169.289


  20065161.698   107146856.415 8      2444.773    20065162.509    83336460.739 7
      1901.491

  24064429.688   128276947.011 7      4163.053    24064432.448    99770966.181 7
      3237.932

  23941796.091   128027544.496 4       -59.810    23941798.124    99576980.254 7
       -46.519

  26457246.845   139033748.518 8     -2649.061
                  26457252.129   103823912.646 8     -1978.213    26457249.699
 106532357.008 8     -2029.842    26457250.667   105178135.426 9     -2004.008
  24367337.464   128051225.354 8      1704.532
                  24367338.576    95622671.839 9      1272.832    24367336.674
  98117168.091 9      1306.056    24367337.715    96869918.568 9      1289.448
  24595126.953   129248256.774 8     -2592.329
                  24595130.521    96516562.261 9     -1935.738    24595128.447
  99034375.703 8     -1986.164    24595129.074    97775469.585 9     -1960.966
 18  4  4  8 26 30.0000000  0 16G05G07G08G13G28G30R02R03R11R12R13R14
                                R20E07E19E30
  21236679.654   111599498.792 9     -2059.542    21236678.438    86960638.16848
     -1604.837

  23316513.981   122529093.963 8     -2899.200    23316513.365    95477206.53846
     -2259.118

  24912103.174   130913985.921 5       283.369    24912106.375   102010911.30745
       220.809    24912105.219    97760470.090 7       211.607

  20738414.519   108981105.496 9      1586.454    20738412.876    84920334.50348
      1236.198

  21282966.002   111842752.426 9       787.339    21282964.232    87150192.23648
       613.511

  21338344.567   112133751.796 9     -2154.567    21338345.531    87376950.71448
     -1678.884    21338345.877    83736244.868 9     -1608.950

  19618868.591   104690032.679 9     -1972.134    19618869.651    81425579.837 9
     -1533.883

  19827779.421   106139625.458 9      2172.719    19827778.534    82553067.275 8
      1689.894

  23412926.064   125111556.352 7     -4092.758    23412927.568    97308985.773 7
     -3183.258

  19803587.548   105787207.589 9     -2187.054


  20051479.259   107073792.901 8      2425.967    20051480.037    83279633.572 7
      1886.863

  24041011.371   128152114.337 7      4158.867    24041014.087    99673874.165 7
      3234.679

  23942203.068   128029720.779 4       -84.757    23942205.139    99578672.910 6
       -65.922

  26472383.576   139113292.351 8     -2653.839
                  26472388.904   103883312.202 9     -1981.860    26472386.524
 106593306.126 8     -2033.580    26472387.408   105238309.767 9     -2007.715
  24357627.170   128000197.431 8      1697.166
                  24357628.288    95584566.574 9      1267.327    24357626.386
  98078068.781 9      1300.351    24357627.415    96831316.280 9      1283.841
  24609939.242   129326095.746 8     -2597.318
                  24609942.780    96574688.749 9     -1939.613    24609940.760
  99094018.540 9     -1990.168    24609941.358    97834354.250 9     -1964.912
 18  4  4  8 27  0.0000000  0 17G05G07G08G13G15G28G30R02R03R11R12R13
                                R14R20E07E19E30
  21248482.481   111661522.991 9     -2075.769    21248481.255    87008968.70248
     -1617.484

  23333074.889   122616122.008 8     -2902.918    23333074.319    95545020.56046
     -2262.016

  24910535.479   130905747.122 5       265.773    24910538.680   102004491.44845
       207.099    24910537.514    97754317.649 7       198.139

  20729387.088   108933665.985 9      1575.971    20729385.451    84883368.64148
      1228.029

  22788489.279   119754331.64115      2971.736


  21278522.391   111819401.126 9       769.098    21278520.639    87131996.41048
       599.297

  21350670.789   112198526.479 9     -2164.041    21350671.771    87427424.46648
     -1686.266    21350672.122    83784615.552 9     -1616.064

  19630013.861   104749505.839 9     -1992.962    19630014.929    81471836.716 9
     -1550.082

  19815652.477   106074708.759 9      2154.715    19815651.522    82502576.519 8
      1675.890

  23435907.488   125234361.695 7     -4094.574    23435908.940    97404500.969 7
     -3184.670

  19815918.706   105853078.840 9     -2204.703


  20037902.381   107001293.139 8      2407.168    20037903.131    83223244.886 7
      1872.243

  24017617.144   128027410.129 7      4154.441    24017619.792    99576882.085 7
      3231.236

  23942750.783   128032649.565 4      -110.364    23942752.887    99580950.821 6
       -85.839

  26487547.704   139192980.042 8     -2658.963
                  26487552.996   103942819.193 8     -1985.528    26487550.683
 106654365.481 9     -2037.365    26487551.520   105298592.939 9     -2011.405
  24347958.811   127949389.817 8      1689.659
                  24347959.938    95546625.824 9      1261.730    24347958.034
  98039138.269 9      1294.666    24347959.052    96792880.649 9      1278.201
  24624780.659   129404087.686 8     -2602.546
                  24624784.171    96632929.446 9     -1943.387    24624782.174
  99153778.574 9     -1994.151    24624782.770    97893354.612 9     -1968.740
 18  4  4  8 27 30.0000000  0 17G05G07G08G13G15G28G30R02R03R11R12R13
                                R14R20E07E19E30
  21260380.484   111724046.961 9     -2091.859    21260379.267    87057688.60148
     -1630.023

  23349659.827   122703276.414 8     -2906.626    23349659.337    95612933.03447
     -2264.905

  24909072.351   130898058.452 6       247.945    24909075.561   101998500.30644
       193.197    24909074.403    97748576.165 7       185.026

  20720421.748   108886552.782 9      1565.604    20720420.116    84846657.04848
      1219.951

  22771540.788   119665278.926 4      2965.851


  21274185.701   111796611.729 9       750.905    21274183.956    87114238.45048
       585.122

  21363053.717   112263599.123 9     -2173.323    21363054.708    87478130.40148
     -1693.499    21363055.045    83833208.725 9     -1622.918

  19641278.568   104809616.363 9     -2013.696    19641279.651    81518589.326 8
     -1566.208

  19803629.371   106010348.031 9      2136.632    19803628.399    82452518.190 8
      1661.824

  23458902.881   125357241.793 7     -4096.670    23458904.313    97500074.303 7
     -3186.301

  19828351.380   105919491.647 9     -2222.037


  20024434.560   106929375.761 8      2388.080    20024435.303    83167309.161 7
      1857.396

  23994250.652   127902853.561 7      4150.205    23994253.245    99480004.778 7
      3227.939

  23943442.510   128036348.493 4      -135.430    23943444.638    99583827.746 6
      -105.335

  26502742.288   139272827.846 8     -2663.628
                  26502747.501   104002445.759 8     -1989.038    26502745.269
 106715547.534 9     -2040.943    26502746.094   105358997.246 9     -2014.927
  24338335.842   127898820.731 8      1682.201
                  24338336.974    95508863.192 9      1256.278    24338335.068
  98000390.529 9      1289.036    24338336.076    96754625.465 9      1272.659
  24639654.115   129482247.969 8     -2607.566
                  24639657.609    96691295.850 9     -1947.064    24639655.603
  99213667.589 9     -1997.897    24639656.225    97952482.325 9     -1972.507
 18  4  4  8 28  0.0000000  0 17G05G07G08G13G15G28G30R02R03R11R12R13
                                R14R20E07E19E30
  21272369.025   111787047.114 9     -2108.337    21272367.804    87106779.63248
     -1642.858

  23366264.270   122790533.321 9     -2910.661    23366263.862    95680925.37947
     -2268.048

  24907710.101   130890899.425 4       229.669    24907713.299   101992921.82144
       178.968    24907712.185    97743230.038 7       171.325

  20711514.519   108839744.960 9      1554.687    20711512.871    84810183.41948
      1211.444

  22754625.505                        2959.128    22754622.063
      2305.814

  21269951.856   111774362.665 9       732.205    21269950.104    87096901.52648
       570.549

  21375488.803   112328945.868 9     -2183.216    21375489.792    87529049.92748
     -1701.208    21375490.110    83882006.585 9     -1630.233

  19652658.231   104870340.323 9     -2034.783    19652659.317    81565819.049 8
     -1582.610

  19791706.537   105946524.064 9      2118.034    19791705.584    82402877.322 8
      1647.360

  23481907.491   125480171.210 7     -4098.843    23481908.951    97595685.976 7
     -3187.992

  19840880.566   105986420.122 9     -2239.971


  20011071.844   106858019.721 8      2368.661    20011072.579    83111810.045 7
      1842.293

  23970908.076   127778424.653 7      4145.087    23970910.627    99383226.793 6
      3223.957

  23944273.903   128040794.266 5      -160.883    23944276.025    99587285.567 6
      -125.132

  26517962.939   139352812.814 8     -2668.941
                  26517968.063   104062174.776 9     -1993.028    26517965.919
 106776834.697 9     -2044.928    26517966.749   105419505.340 9     -2018.973
  24328754.280   127848469.234 8      1674.271
                  24328755.417    95471263.057 9      1250.340    24328753.505
  97961809.512 9      1282.971    24328754.506    96716534.886 9      1266.697
  24654555.059   129560552.743 8     -2612.929
                  24654558.545    96749770.152 9     -1951.150    24654556.524
  99273667.311 9     -2002.114    24654557.174    98011719.336 9     -1976.624
 18  4  4  8 28 30.0000000  0 17G05G07G08G13G15G28G30R02R03R11R12R13
                                R14R20E07E19E30
  21284449.395   111850529.869 9     -2124.112    21284448.121    87156246.74348
     -1655.153

  23382889.654   122877900.111 9     -2914.108    23382889.291    95749003.33447
     -2270.736

  24906450.192   130884278.795 6       211.721    24906453.449   101987762.89045
       164.974    24906452.326    97738286.063 7       158.242

  20702667.244   108793252.196 9      1544.402    20702665.562    84773955.29348
      1203.430

  22737745.002   119487655.70814      2953.934    22737748.491    93107286.21253
      2301.760

  21265822.625   111752663.260 9       714.120    21265820.848    87079992.90348
       556.456

  21387977.369   112394573.599 9     -2192.274    21387978.355    87580188.39948
     -1708.266    21387978.644    83931014.292 9     -1637.076

  19664154.264   104931685.204 9     -2055.211    19664155.339    81613531.701 9
     -1598.498

  19779886.217   105883248.911 9      2099.856    19779885.278    82353663.320 8
      1633.222

  23504922.450   125603155.984 7     -4100.554    23504923.965    97691340.696 7
     -3189.324

  19853507.264   106053869.665 9     -2256.930


  19997816.196   106787235.360 8      2349.913    19997816.927    83056755.551 7
      1827.710

  23947591.499   127654134.179 7      4140.728    23947594.043    99286556.426 6
      3220.563

  23945246.564   128045995.371 4      -185.771    23945248.678    99591330.846 5
      -144.490

  26533211.187   139432942.837 8     -2673.399
                  26533216.242   104122012.106 9     -1996.399    26533214.174
 106838233.011 9     -2048.484    26533215.018   105480123.166 9     -2022.436
  24319215.999   127798345.175 8      1666.924
                  24319217.139    95433832.750 9      1244.860    24319215.223
  97923402.764 9      1277.332    24319216.216    96678616.360 9      1261.105
  24669484.841   129639009.085 8     -2617.725
                  24669488.331    96808357.630 9     -1954.790    24669486.293
  99333783.155 9     -2005.735    24669486.969    98071070.997 9     -1980.291
 18  4  4  8 29  0.0000000  0 17G05G07G08G13G15G28G30R02R03R11R12R13
                                R14R20E07E19E30
  21296620.916   111914491.161 9     -2139.678    21296619.664    87206086.60248
     -1667.284

  23399535.394   122965373.824 9     -2917.185    23399535.044    95817164.61847
     -2273.133

  24905292.576   130878195.475 5       193.828    24905295.836   101983022.58345
       151.041    24905294.755    97733743.295 6       144.979

  20693879.789   108747073.774 9      1534.373    20693878.077    84737972.09848
      1195.615

  22720898.538   119399126.007 6      2948.320    22720902.294    93038302.0664
      2297.382

  21261797.669   111731511.917 9       696.167    21261795.877    87063511.34448
       542.468

  21400518.724   112460478.672 9     -2201.098    21400519.694    87631542.98048
     -1715.142    21400519.949    83980229.100 9     -1643.763

  19675766.076   104993648.071 9     -2075.414    19675767.160    81661725.037 9
     -1614.211

  19768168.560   105820523.247 9      2082.011    19768167.628    82304876.678 8
      1619.341

  23527946.830   125726191.282 8     -4101.639    23527948.415    97787034.739 7
     -3190.167

  19866230.592   106121834.977 9     -2273.726


  19984667.455   106717021.884 8      2331.292    19984668.180    83002145.081 7
      1813.228

  23924300.843   127529982.280 7      4136.543    23924303.372    99189993.927 6
      3217.314

  23946360.005   128051949.475 5      -210.399    23946362.058    99595961.845 6
      -163.642

  26548486.548   139513215.256 8     -2677.762
                  26548491.569   104181955.750 9     -1999.695    26548489.533
 106899740.413 9     -2051.863    26548490.399   105540848.687 9     -2025.715
  24309720.855   127748447.828 9      1659.732
                  24309722.000    95396571.750 9      1239.406    24309720.083
  97885169.736 9      1271.712    24309721.062    96640869.345 9      1255.557
  24684442.740   129717613.283 8     -2622.350
                  24684446.235    96867055.536 9     -1958.292    24684444.192
  99394012.313 9     -2009.325    24684444.887    98130534.532 9     -1983.836
 18  4  4  8 29 30.0000000  0 17G05G07G08G13G15G28G30R02R03R11R12R13
                                R14R20E07E19E30
  21308882.841   111978928.049 9     -2155.605    21308881.595    87256297.17448
     -1679.689

  23416201.093   123052952.365 9     -2920.828    23416200.740    95885407.59147
     -2275.974

  24904237.201   130872649.245 7       176.041    24904240.469   101978700.75944
       137.169    24904239.323    97729601.595 7       131.516

  20685152.234   108701210.194 9      1523.682    20685150.496    84702234.24548
      1187.284

  22704086.116   119310774.297 5      2942.017    22704089.262    92969456.61642
      2292.479

  21257876.952   111710908.467 9       677.909    21257875.161    87047456.70948
       528.240

  21413112.382   112526658.634 9     -2210.397    21413113.335    87683111.76048
     -1722.389    21413113.573    84029649.163 9     -1650.520

  19687493.356   105056226.911 9     -2096.021    19687494.461    81710397.428 9
     -1630.241

  19756554.035   105758349.753 9      2063.380    19756553.100    82256519.531 8
      1604.852

  23550980.009   125849273.507 8     -4103.289    23550981.660    97882765.260 7
     -3191.450

  19879049.747   106190312.180 9     -2290.986


  19971625.709   106647379.783 8      2312.036    19971626.437    82947979.019 7
      1798.252

  23901036.504   127405970.652 7      4131.478    23901039.017    99093540.520 6
      3213.375

  23947614.127   128058655.779 5      -235.971    23947616.119    99601177.862 6
      -183.534

  26563788.716   139593628.480 8     -2682.511
                  26563793.733   104242004.542 9     -2003.201    26563791.680
 106961355.694 9     -2055.450    26563792.571   105601680.721 9     -2029.279
  24300268.953   127698777.676 9      1652.072
                  24300270.111    95359480.398 9      1233.759    24300268.194
  97847110.779 9      1265.984    24300269.153    96603294.191 9      1249.881
  24699428.328   129796363.004 8     -2627.176
                  24699431.831    96925862.106 9     -1961.778    24699429.789
  99454352.975 9     -2012.988    24699430.499    98190108.143 9     -1987.375
 18  4  4  8 30  0.0000000  0 17G05G07G08G13G15G28G30R02R03R11R12R13
                                R14R20E07E19E30
  21321235.619   112043842.339 9     -2171.844    21321234.320    87306879.76848
     -1692.348

  23432887.170   123140637.937 8     -2924.710    23432886.814    95953733.95446
     -2278.998

  24903284.791   130867644.256 6       157.733    24903288.010   101974800.81244
       122.906    24903286.881    97725864.169 7       117.825

  20676485.468   108655666.042 9      1512.599    20676483.705    84666745.29648
      1178.648

  22687308.599   119222605.941 5      2935.747    22687310.783    92900754.08244
      2287.595

  21254061.214   111690856.783 9       658.972    21254059.417    87031832.04648
       513.485

  21425758.665   112593115.270 9     -2220.002    21425759.622    87734896.13948
     -1729.873    21425759.860    84079275.858 9     -1657.752

  19699336.478   105119424.028 9     -2116.892    19699337.603    81759550.729 8
     -1646.471

  19745043.939   105696735.281 9      2044.289    19745043.007    82208597.162 9
      1590.002

  23574022.166   125972403.591 8     -4105.412    23574023.858    97978532.993 7
     -3193.102

  19891964.623   106259301.384 9     -2308.325


  19958691.912   106578314.073 8      2292.383    19958692.645    82894261.245 7
      1782.965

  23877799.535   127282104.768 7      4126.342    23877802.042    98997200.430 7
      3209.380

  23949009.434   128066117.202 5      -261.605    23949011.368    99606981.215 5
      -203.470

  26579118.216   139674185.276 8     -2687.899
                  26579123.248   104302160.546 9     -2007.089    26579121.150
 107023080.986 9     -2059.431    26579122.063   105662621.366 9     -2033.210
  24290861.171   127649339.438 9      1643.918
                  24290862.337    95322562.238 9      1227.600    24290860.419
  97809229.540 9      1259.551    24290861.355    96565894.485 9      1243.666
  24714441.975   129875260.173 8     -2632.575
                  24714445.476    96984778.789 9     -1965.854    24714443.436
  99514806.616 9     -2017.139    24714444.165    98249793.302 9     -1991.454
 18  4  4  8 30 30.0000000  0 17G05G07G08G13G15G28G30R02R03R11R12R13
                                R14R20E07E19E30
  21333679.746   112109236.416 9     -2187.249    21333678.479    87357836.10949
     -1704.351

  23449594.084   123228433.081 8     -2927.855    23449593.745    96022145.69146
     -2281.448

  24902436.472   130863185.278 5       139.705    24902439.719   101971326.14844
       108.855    24902438.539    97722534.191 7       104.622

  20667880.456   108610446.425 9      1502.361    20667878.672    84631509.23648
      1170.671

  22670567.059   119134626.570 5      2929.895    22670568.345    92832198.72045
      2283.036

  21250351.408   111671361.667 9       641.049    21250349.609    87016641.05648
       499.519

  21438458.035   112659850.905 9     -2228.665    21438459.007    87786897.91848
     -1736.622    21438459.257    84129110.893 9     -1664.221

  19711295.939   105183241.989 9     -2137.114    19711297.102    81809186.897 9
     -1662.201

  19733639.496   105635686.426 9      2025.997    19733638.589    82161114.716 9
      1575.775

  23597073.534   126095582.806 8     -4106.345    23597075.242    98074338.947 7
     -3193.826

  19904975.432   106328802.944 9     -2324.753


  19945866.964   106509829.707 8      2273.656    19945867.693    82840995.652 7
      1768.401

  23854591.135   127158391.051 8      4121.807    23854593.649    98900978.671 8
      3205.853

  23950546.669   128074337.606 5      -286.192    23950548.555    99613374.879 5
      -222.592

  26594475.649   139754888.897 8     -2692.004
                  26594480.705   104362426.199 9     -2010.240    26594478.554
 107084918.786 9     -2062.740    26594479.492   105723673.098 9     -2036.503
  24281498.525   127600138.351 8      1636.615
                  24281499.713    95285821.161 9      1222.172    24281497.783
  97771529.999 9      1254.054    24281498.704    96528674.182 9      1238.097
  24729484.141   129954307.142 8     -2636.896
                  24729487.629    97043807.329 9     -1969.072    24729485.592
  99575375.045 9     -2020.431    24729486.349    98309591.793 9     -1994.763
 18  4  4  8 31  0.0000000  0 17G05G07G08G13G15G28G30R02R03R11R12R13
                                R14R20E07E19E30
  21346214.062   112175104.679 9     -2203.379    21346212.827    87409162.03748
     -1716.918

  23466321.065   123316333.742 7     -2931.904    23466320.754    96090639.64445
     -2284.603

  24901691.370   130859269.782 6       121.523    24901694.578   101968275.11543
        94.685    24901693.461    97719610.282 7        90.818

  20659336.887   108565549.666 9      1491.252    20659335.099    84596524.74448
      1162.015

  22653861.096   119046834.639 4      2923.188    22653861.680    92763789.44944
      2277.815

  21246747.034   111652420.545 9       622.275    21246745.241    87001881.74548
       484.890

  21451209.631   112726861.022 9     -2238.113    21451210.625    87839113.58448
     -1743.984    21451210.899    84179150.909 9     -1671.332

  19723371.029   105247676.947 9     -2158.037    19723372.226    81859302.951 8
     -1678.474

  19722340.876   105575204.091 9      2006.704    19722340.005    82114072.904 9
      1560.769

  23620133.036   126218805.428 8     -4107.981    23620134.719    98170178.680 7
     -3195.099

  19918081.058   106398810.996 9     -2341.969


  19933150.617   106441925.249 8      2253.792    19933151.353    82788181.098 7
      1752.950

  23831411.172   127034828.852 8      4116.208    23831413.699    98804874.745 7
      3201.492

  23952225.182   128083313.400 5      -311.619    23952227.022    99620356.051 5
      -242.371

  26609860.296   139835735.671 8     -2697.141
                  26609865.378   104422798.769 8     -2014.119    26609863.186
 107146866.285 9     -2066.684    26609864.137   105784833.132 9     -2040.394
  24272180.694   127551172.805 9      1628.306
                  24272181.904    95249255.980 9      1215.945    24272179.957
  97734010.944 9      1247.659    24272180.867    96491632.068 9      1231.779
  24744553.969   130033499.466 8     -2642.057
                  24744557.444    97102944.417 8     -1972.903    24744555.393
  99636054.848 9     -2024.378    24744556.191    98369500.237 9     -1998.650
 18  4  4  8 31 30.0000000  0 17G05G07G08G13G15G28G30R02R03R11R12R13
                                R14R20E07E19E30
  21358838.092   112241444.332 9     -2219.455    21358836.885    87460855.24648
     -1729.447

  23483067.587   123404337.426 8     -2935.452    23483067.270    96159213.93045
     -2287.365

  24901049.647   130855897.246 5       103.432    24901052.809   101965647.14245
        80.598    24901051.756    97717091.729 7        77.041

  20650854.758   108520975.788 9      1480.159    20650852.969    84561791.85448
      1153.370

  22637190.842   118959230.743 5      2916.597    22637190.964    92695526.61144
      2272.678

  21243247.934   111634032.701 9       603.425    21243246.157    86987553.55448
       470.202

  21464012.922   112794142.804 9     -2247.597    21464013.958    87891540.93248
     -1751.375    21464014.252    84229393.776 9     -1678.274

  19735561.239   105312726.217 9     -2178.817    19735562.446    81909896.806 8
     -1694.636

  19711148.366   105515289.750 9      1987.339    19711147.536    82067472.859 9
      1545.709

  23643200.006   126342067.761 8     -4109.620    23643201.650    98266049.276 7
     -3196.375

  19931280.540   106469321.143 9     -2358.954


  19920542.900   106374600.843 8      2234.191    19920543.637    82735817.691 7
      1737.705

  23808259.828   126911419.220 8      4110.748    23808262.363    98708889.483 7
      3197.249

  23954044.635   128093042.938 5      -337.271    23954046.424    99627923.494 6
      -262.321

  26625271.807   139916723.706 8     -2702.266
                  26625276.923   104483276.825 8     -2017.869    26625274.704
 107208922.020 8     -2070.497    26625275.658   105846100.023 9     -2044.164
  24262907.704   127502442.908 9      1620.187
                  24262908.938    95212866.772 9      1209.884    24262906.973
  97696672.449 9      1241.417    24262907.875    96454768.212 9      1225.692
  24759650.929   130112834.386 8     -2647.103
                  24759654.400    97162187.991 8     -1976.717    24759652.316
  99696843.916 8     -2028.300    24759653.168    98429516.563 9     -2002.540
