     2.11           OBSERVATION DATA    M                   RINEX VERSION / TYPE
GM10 V4.20                              2018 04 04 08:00    PGM / RUN BY / DATE 
FOUR                                                        MARKER NAME         
FOUR                                                        MARKER NUMBER       
EC+G                HEIG                                    OBSERVER / AGENCY   
GM10BLEU            LEICA GM10          4.20/6.524          REC # / TYPE / VERS 
AR10BLEU            LEIAR10         NONE                    ANT # / TYPE        
  4344605.8637   487412.4746  4630063.5541                  APPROX POSITION XYZ 
       -0.0507        0.0000        0.0000                  ANTENNA: DELTA H/E/N
     1     1                                                WAVELENGTH FACT L1/2
    11    C1    L1    P2    L2    C2    C5    L5    C7    L7# / TYPES OF OBSERV 
          C8    L8                                          # / TYPES OF OBSERV 
                                                            COMMENT             
    30.000                                                  INTERVAL            
  2018    04    04    08    00   30.0000000     GPS         TIME OF FIRST OBS   
  2018    04    04    10    14    0.0000000     GPS         TIME OF LAST OBS    
    18                                                      LEAP SECONDS        
    25                                                      # OF SATELLITES     
BIT 2 OF LLI FLAGS DATA COLLECTED UNDER A/S CONDITION       COMMENT             
SNR is mapped to RINEX snr flag value [1-9]                 COMMENT             
LX:    >= 25dBHz -> 1; 26-27dBHz -> 2; 28-31dBHz -> 3       COMMENT             
       32-35dBHz -> 4; 36-38dBHz -> 5; 39-41dBHz -> 6       COMMENT             
       42-44dBHz -> 7; 45-48dBHz -> 8; >= 49dBHz -> 9       COMMENT             
                                                            END OF HEADER       
 18 04 04 08 00 30.0000000  0 16G05G07G13G15G20G28G30R01R02R03R11R12
                                R13E07E19E30
  20757524.043   109081521.46819  20757518.552    84998561.57558  20757519.245  
                                                                                
                
  22493958.756   118206550.82918  22493953.061    92108972.58456  22493953.609  
                                                                                
                
  21281027.094   111832552.53419  21281021.134    87142224.01457                
                                                                                
                
  23722505.277   124662611.11118  23722500.328    97139670.22456  23722500.812  
                                                                                
                
  23830560.053   125230430.74317  23830554.295    97582114.14555                
                                                                                
                
  21656996.869   113808287.48918  21656991.187    88681765.45257                
                                                                                
                
  20781446.650   109207241.76819  20781443.223    85096534.37258  20781444.020  
                                                                                
                
  23080020.889   123375933.43215  23080022.867    95959059.21613  23080023.160  
                                                                                
                
  19205056.714   102481862.51219  19205055.778    79708110.55818  19205056.674  
                                                                                
                
  20579713.970   110164821.14418  20579711.323    85683736.65118  20579711.996  
                                                                                
                
  22248650.543   118890037.58218  22248649.766    92470022.62817  22248650.773  
                                                                                
                
  19313643.396   103170017.18218                                                
                                                                                
                
  20895939.903   111583160.89817  20895939.257    86786893.57816  20895940.764  
                                                                                
                
  25729654.175   135210238.56519                                                
  25729656.541   100968690.39219  25729652.900   103602643.15319  25729654.261  
 102285666.65118
  24909873.565   130902271.65818                                                
  24909873.011    97751691.94319  24909869.248   100301724.76119  24909870.436  
  99026704.22718
  23888376.141   125534261.06719                                                
  23888377.126    93743116.54619  23888372.909    96188578.98119  23888374.475  
  94965846.14418
 18 04 04 08 01  0.0000000  0 16G05G07G13G15G20G28G30R01R02R03R11R12
                                R13E07E19E30
  20764108.548   109116123.16309  20764103.055    85025523.91148  20764103.747  
                                                                                
                
  22509041.350   118285810.24508  22509035.641    92170733.13146  22509036.197  
                                                                                
                
  21269229.264   111770554.58709  21269223.309    87093913.93247                
                                                                                
                
  23704183.708   124566330.56808  23704178.733    97064646.42545  23704179.216  
                                                                                
                
  23812773.476   125136961.60807  23812767.656    97509281.09045                
                                                                                
                
  21647384.184   113757772.69308  21647378.512    88642403.31347                
                                                                                
                
  20790524.554   109254946.43509  20790521.129    85133706.82148  20790521.932  
                                                                                
                
  23102221.175   123494606.85504  23102223.280    96051360.75003  23102223.491  
                                                                                
                
  19209980.515   102508136.73109  19209979.546    79728546.03708  19209980.452  
                                                                                
                
  20563181.080   110076319.21508  20563178.452    85614901.80508  20563179.108  
                                                                                
                
  22270260.727   119005515.73508  22270259.964    92559838.92907  22270260.985  
                                                                                
                
  19320045.963   103204218.83609                                                
                                                                                
                
  20877266.396   111483445.48506  20877265.750    86709337.16906  20877267.254  
                                                                                
                
  25743204.118   135281443.87309                                                
  25743206.450   101021863.16109  25743202.837   103657203.02909  25743204.203  
 102339532.97508
  24898315.088   130841531.37908                                                
  24898314.516    97706333.95009  24898310.738   100255183.51209  24898311.938  
  98980754.60808
  23901255.204   125601940.93608                                                
  23901256.195    93793656.67909  23901251.983    96240437.56409  23901253.551  
  95017045.50108
 18 04 04 08 01 30.0000000  0 16G05G07G13G15G20G28G30R01R02R03R11R12
                                R13E07E19E30
  20770800.323   109151288.65109  20770794.831    85052925.57848  20770795.526  
                                                                                
                
  22524160.551   118365262.12408  22524154.826    92232643.66346  22524155.398  
                                                                                
                
  21257480.197   111708812.83609  21257474.249    87045803.47647                
                                                                                
                
  23685882.100   124470155.00908  23685877.108    96989704.44345  23685877.593  
                                                                                
                
  23795043.989   125043792.53306  23795038.155    97436681.80345                
                                                                                
                
  21637864.806   113707748.08608  21637859.144    88603423.10647                
                                                                                
                
  20799673.961   109303026.89709  20799670.543    85171172.11048  20799671.344  
                                                                                
                
  23124462.952   123613501.63804  23124465.116    96143834.41003  23124465.302  
                                                                                
                
  19215025.701   102535058.71009  19215024.716    79749485.33608  19215025.629  
                                                                                
                
  20546718.041   109988191.30008  20546715.409    85546357.88808  20546716.055  
                                                                                
                
  22291913.590   119121222.00508  22291912.841    92649832.66707  22291913.883  
                                                                                
                
  19326576.693   103239104.85408                                                
                                                                                
                
  20858681.480   111384203.25607  20858680.831    86632148.79006  20858682.335  
                                                                                
                
  25756788.582   135352830.56809                                                
  25756790.896   101075171.37309  25756787.293   103711901.89009  25756788.663  
 102393536.50908
  24886787.958   130780955.83508                                                
  24886787.380    97661098.96309  24886783.583   100208768.48709  24886784.798  
  98934929.60508
  23914180.792   125669865.19209                                                
  23914181.802    93844379.27009  23914177.595    96292483.37909  23914179.177  
  95068429.70608
 18 04 04 08 02  0.0000000  0 16G05G07G13G15G20G28G30R01R02R03R11R12
                                R13E07E19E30
  20777597.957   109187010.38009  20777592.477    85080760.67148  20777593.167  
                                                                                
                
  22539314.668   118444897.54808  22539308.936    92294697.21746  22539309.529  
                                                                                
                
  21245778.706   111647321.14208  21245772.767    86997887.88147                
                                                                                
                
  23667599.295   124374078.41907  23667594.301    96914839.59746  23667594.785  
                                                                                
                
  23777370.716   124950919.09607  23777364.931    97364312.89945                
                                                                                
                
  21628437.686   113658208.31108  21628432.016    88564820.69747                
                                                                                
                
  20808893.213   109351474.35009  20808889.807    85208923.36248  20808890.601  
                                                                                
                
  23146744.439   123732608.65903  23146746.635    96236473.12603  23146746.809  
                                                                                
                
  19220190.927   102562621.32409  19220189.929    79770922.90908  19220190.850  
                                                                                
                
  20530324.193   109900433.66308  20530321.565    85478101.95108  20530322.207  
                                                                                
                
  22313607.144   119237145.73308  22313606.399    92739995.52807  22313607.459  
                                                                                
                
  19333233.750   103274665.37908                                                
                                                                                
                
  20840184.367   111285429.95007  20840183.699    86555325.15506  20840185.220  
                                                                                
                
  25770406.084   135424390.93309                                                
  25770408.412   101128609.27909  25770404.780   103766733.83209  25770406.167  
 102447671.43708
  24875291.036   130720539.03108                                                
  24875290.459    97615982.50809  24875286.645   100162475.07609  24875287.870  
  98889224.67908
  23927151.175   125738024.93609                                                
  23927152.188    93895277.76009  23927147.984    96344709.66909  23927149.579  
  95119992.09508
 18 04 04 08 02 30.0000000  0 16G05G07G13G15G20G28G30R01R02R03R11R12
                                R13E07E19E30
  20784501.964   109223291.14409  20784496.503    85109031.37848  20784497.184  
                                                                                
                
  22554504.184   118524718.96408  22554498.466    92356895.69046  22554499.062  
                                                                                
                
  21234125.772   111586084.59209  21234119.843    86950171.08947                
                                                                                
                
  23649336.300   124278105.92808  23649331.328    96840055.84246  23649331.819  
                                                                                
                
  23759754.959   124858347.74407  23759749.225    97292179.38245                
                                                                                
                
  21619103.899   113609159.08108  21619098.229    88526600.53847                
                                                                                
                
  20818182.764   109400291.16809  20818179.371    85246962.41948  20818180.156  
                                                                                
                
  23169065.893   123851929.49503  23169068.148    96329278.17903  23169068.281  
                                                                                
                
  19225477.105   102590829.34309  19225476.114    79792862.46008  19225477.038  
                                                                                
                
  20514000.870   109813053.67908  20513998.234    85410139.75008  20513998.877  
                                                                                
                
  22335341.517   119353287.47908  22335340.799    92830327.96907  22335341.837  
                                                                                
                
  19340017.378   103310902.16809                                                
                                                                                
                
  20821776.235   111187131.66307  20821775.557    86478870.94506  20821777.098  
                                                                                
                
  25784057.302   135496128.53209                                                
  25784059.657   101182179.54909  25784055.959   103821701.58809  25784057.383  
 102501940.44808
  24863825.297   130660286.15408                                                
  24863824.724    97570988.47909  24863820.898   100116307.28809  24863822.123  
  98843643.76608
  23940166.855   125806422.60109                                                
  23940167.861    93946353.91409  23940163.667    96397118.25109  23940165.259  
  95171734.46308
 18 04 04 08 03  0.0000000  0 16G05G07G13G15G20G28G30R01R02R03R11R12
                                R13E07E19E30
  20791511.068   109260124.22909  20791505.626    85137732.47548  20791506.298  
                                                                                
                
  22569727.782   118604719.47209  22569722.091    92419233.72346  22569722.669  
                                                                                
                
  21222520.461   111525098.33909  21222514.539    86902649.34247                
                                                                                
                
  23631092.337   124182233.60008  23631087.375    96765350.16745  23631087.879  
                                                                                
                
  23742196.170   124766075.49607  23742190.433    97220278.93944                
                                                                                
                
  21609862.611   113560596.00208  21609856.953    88488759.21047                
                                                                                
                
  20827541.203   109449470.00409  20827537.818    85285283.56848  20827538.601  
                                                                                
                
  23191425.945   123971456.47404  23191428.288    96422243.55402  23191428.368  
                                                                                
                
  19230883.030   102619676.35409  19230882.050    79815299.00208  19230882.978  
                                                                                
                
  20497747.666   109726048.86608  20497745.039    85342469.31208  20497745.686  
                                                                                
                
  22357114.996   119469638.09307  22357114.317    92920822.85607  22357115.318  
                                                                                
                
  19346926.120   103347806.99408                                                
                                                                                
                
  20803456.358   111089304.64207  20803455.674    86402783.27706  20803457.227  
                                                                                
                
  25797741.090   135568037.18709                                                
  25797743.491   101235877.52709  25797739.716   103876800.38409  25797741.176  
 102556338.83008
  24852389.888   130600192.68908                                                
  24852389.323    97526113.48908  24852385.494   100070261.63609  24852386.710  
  98798183.44408
  23953226.405   125875050.77909                                                
  23953227.372    93997602.22309  23953223.203    96449703.44209  23953224.779  
  95223651.20808
 18 04 04 08 03 30.0000000  0 16G05G07G13G15G20G28G30R01R02R03R11R12
                                R13E07E19E30
  20798626.706   109297517.20709  20798621.293    85166869.85148  20798621.958  
                                                                                
                
  22584986.682   118684905.47808  22584981.007    92481716.31146  22584981.566  
                                                                                
                
  21210964.679   111464372.36409  21210958.765    86855330.41047                
                                                                                
                
  23612869.302   124086471.17508  23612864.343    96690730.12345  23612864.863  
                                                                                
                
  23724696.360   124674113.22706  23724690.576    97148620.08144                
                                                                                
                
  21600715.848   113512529.57608  21600710.211    88451304.86347                
                                                                                
                
  20836969.804   109499017.59309  20836966.415    85323892.07248  20836967.201  
                                                                                
                
  23213825.981   124091195.93103  23213825.769    96515373.18412  23213830.219  
                                                                                
                
  19236410.443   102649171.77109  19236409.471    79838239.88708  19236410.400  
                                                                                
                
  20481566.638   109639430.72608  20481564.014    85275099.67108  20481564.669  
                                                                                
                
  22378928.575   119586202.83907  22378927.910    93011484.24607  22378928.906  
                                                                                
                
  19353960.960   103385385.49508                                                
                                                                                
                
  20785226.827   110991959.98607  20785226.154    86327070.78306  20785227.692  
                                                                                
                
  25811458.914   135640124.77909                                                
  25811461.365   101289709.15909  25811457.517   103932036.32709  25811458.998  
 102610872.62708
  24840986.659   130540268.27708                                                
  24840986.089    97481364.72908  24840982.275   100024345.53509  24840983.479  
  98752851.01308
  23966331.094   125943916.20809                                                
  23966331.975    94049027.72608  23966327.861    96502470.45209  23966329.414  
  95275747.46608
 18 04 04 08 04  0.0000000  0 16G05G07G13G15G20G28G30R01R02R03R11R12
                                R13E07E19E30
  20805848.232   109335466.64809  20805842.841    85196440.83248  20805843.511  
                                                                                
                
  22600280.135   118765272.92709  22600274.463    92544340.26446  22600275.007  
                                                                                
                
  21199458.184   111403905.32809  21199452.275    86808213.23447                
                                                                                
                
  23594666.960   123990817.32408  23594661.991    96616194.65545  23594662.532  
                                                                                
                
  23707255.592   124582461.36806  23707249.781    97077203.07345                
                                                                                
                
  21591663.430   113464958.98508  21591657.814    88414236.89347                
                                                                                
                
  20846467.825   109548929.93409  20846464.423    85362784.79348  20846465.214  
                                                                                
                
  23236264.649   124211143.31704  23236265.314    96608665.59402  23236266.362  
                                                                                
                
  19242059.018   102679313.51809  19242058.055    79861683.44408  19242058.991  
                                                                                
                
  20465458.074   109553200.52508  20465455.471    85208031.74508  20465456.135  
                                                                                
                
  22400781.084   119702975.69407  22400780.393    93102307.50807  22400781.417  
                                                                                
                
  19361121.006   103423632.99808                                                
                                                                                
                
  20767087.618   110895097.67807  20767086.935    86251733.44806  20767088.471  
                                                                                
                
  25825210.269   135712388.45009                                                
  25825212.777   101343672.24409  25825208.860   103987407.15209  25825210.353  
 102665539.58208
  24829615.376   130480511.72908                                                
  24829614.796    97436741.32309  24829610.989    99978558.02009  24829612.186  
  98707645.55108
  23979480.171   126013014.92309                                                
  23979480.936    94100627.43608  23979476.886    96555416.20409  23979478.424  
  95328020.19908
 18 04 04 08 04 30.0000000  0 16G05G07G13G15G20G28G30R01R02R03R11R12
                                R13E07E19E30
  20813176.039   109373974.50909  20813170.654    85226446.93348  20813171.332  
                                                                                
                
  22615608.448   118845823.51409  22615602.776    92607106.91946  22615603.311  
                                                                                
                
  21188001.718   111343701.17109  21187995.803    86761300.90347                
                                                                                
                
  23576486.002   123895275.94407  23576481.019    96541746.85946  23576481.570  
                                                                                
                
  23689874.887   124491125.42507  23689869.091    97006032.20744                
                                                                                
                
  21582706.195   113417888.42508  21582700.589    88377558.53847                
                                                                                
                
  20856035.478   109599208.18309  20856032.077    85401962.63148  20856032.865  
                                                                                
                
  23258742.271   124331299.32404  23258744.090    96702120.23102  23258743.993  
                                                                                
                
  19247829.172   102710104.08709  19247828.208    79885631.64608  19247829.151  
                                                                                
                
  20449423.172   109467364.69608  20449420.583    85141270.55708  20449421.262  
                                                                                
                
  22422672.408   119819956.23808  22422671.702    93193292.33307  22422672.742  
                                                                                
                
  19368406.287   103462549.56408                                                
                                                                                
                
  20749039.715   110798722.94807  20749039.023    86176775.34906  20749040.557  
                                                                                
                
  25838995.559   135784830.49909                                                
  25838998.108   101397768.54209  25838994.147   104042914.67109  25838995.645  
 102720341.48408
  24818276.784   130420927.03208                                                
  24818276.214    97392246.25708  24818272.409    99932902.22109  24818273.591  
  98662570.11908
  23992673.876   126082348.11008                                                
  23992674.555    94152402.19209  23992670.551    96608541.60109  23992672.084  
  95380470.27208
 18 04 04 08 05  0.0000000  0 16G05G07G13G15G20G28G30R01R02R03R11R12
                                R13E07E19E30
  20820608.325   109413031.38709  20820602.923    85256880.85248  20820603.616  
                                                                                
                
  22630969.776   118926547.78508  22630964.103    92670008.95046  22630964.629  
                                                                                
                
  21176593.968   111283753.01409  21176588.038    86714588.05247                
                                                                                
                
  23558325.284   123799840.96808  23558320.313    96467381.97046  23558320.872  
                                                                                
                
  23672553.220   124400099.74507  23672547.431    96935103.11444                
                                                                                
                
  21573842.939   113371311.78108  21573837.336    88341265.07647                
                                                                                
                
  20865670.920   109649842.79309  20865667.511    85441418.18048  20865668.301  
                                                                                
                
  23281256.901   124451653.70103  23281258.977    96795729.14002  23281260.497  
                                                                                
                
  19253719.492   102741535.92109  19253718.520    79910078.62308  19253719.472  
                                                                                
                
  20433461.075   109381918.44208  20433458.504    85074812.36108  20433459.195  
                                                                                
                
  22444600.432   119937133.02107  22444599.736    93284429.81006  22444600.755  
                                                                                
                
  19375814.840   103502124.91708                                                
                                                                                
                
  20731082.007   110702829.85107  20731081.302    86102191.85106  20731082.835  
                                                                                
                
  25852813.189   135857442.53808                                                
  25852815.760   101451991.78909  25852811.784   104098552.43809  25852813.280  
 102775271.99308
  24806969.620   130361507.56108                                                
  24806969.078    97347874.57308  24806965.276    99887373.02109  24806966.439  
  98617619.67108
  24005910.343   126151906.14308                                                
  24005911.007    94204344.83409  24005907.001    96661839.28309  24005908.549  
  95433090.43908
 18 04 04 08 05 30.0000000  0 15G05G07G13G15G20G28G30R02R03R11R12R13
                                E07E19E30
  20828145.802   109452640.93909  20828140.370    85287745.41548  20828141.082  
                                                                                
                
  22646364.603   119007448.09108  22646358.941    92733048.12346  22646359.472  
                                                                                
                
  21165235.922   111224066.15909  21165229.984    86668078.83247                
                                                                                
                
  23540185.835   123704517.68707  23540180.904    96393104.10346  23540181.459  
                                                                                
                
  23655291.979   124309391.54306  23655286.183    96864421.43745                
                                                                                
                
  21565074.804   113325234.98108  21565069.210    88305361.09347                
                                                                                
                
  20875374.695   109700836.35409  20875371.285    85481153.40048  20875372.075  
                                                                                
                
  19259730.780   102773613.20209  19259729.817    79935027.58608  19259730.772  
                                                                                
                
  20417573.029   109296868.61708  20417570.460    85008662.50708  20417571.166  
                                                                                
                
  22466565.381   120054506.97507  22466564.700    93375720.63906  22466565.689  
                                                                                
                
  19383347.036   103542360.55808                                                
                                                                                
                
  20713215.777   110607425.13307  20713215.055    86027988.19306  20713216.593  
                                                                                
                
  25866663.878   135930228.31009                                                
  25866666.455   101506344.77609  25866662.487   104154323.33609  25866663.974  
 102830333.93808
  24795694.917   130302258.73908                                                
  24795694.403    97303630.32408  24795690.616    99841974.58809  24795691.763  
  98572798.33808
  24019190.054   126221691.56509                                                
  24019190.749    94256457.30509  24019186.710    96715311.25309  24019188.279  
  95485882.66208
 18 04 04 08 06  0.0000000  0 16G05G07G13G15G20G28G30R01R02R03R11R12
                                R13E07E19E30
  20835789.003   109492806.08909  20835783.538    85319042.92148  20835784.265  
                                                                                
                
  22661793.468   119088527.38308  22661787.830    92796226.76046  22661788.375  
                                                                                
                
  21153928.707   111164646.37509  21153922.779    86621777.70347                
                                                                                
                
  23522068.717   123609311.84708  23522063.816    96318917.77745  23522064.356  
                                                                                
                
  23638092.456   124219007.60005  23638086.672    96793992.41344                
                                                                                
                
  21556402.906   113279663.87508  21556397.312    88269851.16047                
                                                                                
                
  20885147.286   109752191.62909  20885143.875    85521170.48948  20885144.666  
                                                                                
                
  23326401.555   124692976.22814                                                
                                                                                
                
  19265863.920   102806340.74809  19265862.972    79960482.32808  19265863.923  
                                                                                
                
  20401760.737   109212224.14808  20401758.157    84942827.91808  20401758.882  
                                                                                
                
  22488567.474   120172079.39108  22488566.794    93467165.79207  22488567.776  
                                                                                
                
  19391003.196   103583258.56908                                                
                                                                                
                
  20695442.195   110512515.23107  20695441.447    85954169.40406  20695442.996  
                                                                                
                
  25880548.407   136003191.78509                                                
  25880550.981   101560830.43909  25880547.024   104210230.37509  25880548.507  
 102885530.29008
  24784453.765   130243186.25508                                                
  24784453.285    97259517.75609  24784449.515    99796711.24709  24784450.642  
  98528110.37808
  24032513.603   126291707.25209                                                
  24032514.351    94308741.71009  24032510.272    96768959.62909  24032511.855  
  95538849.05308
 18 04 04 08 06 30.0000000  0 16G05G07G13G15G20G28G30R01R02R03R11R12
                                R13E07E19E30
  20843533.886   109533505.62609  20843528.415    85350756.83148  20843529.146  
                                                                                
                
  22677252.253   119169763.95108  22677246.634    92859527.95746  22677247.198  
                                                                                
                
  21142668.658   111105474.35909  21142662.735    86575669.62647                
                                                                                
                
  23503970.351   123514204.33208  23503965.484    96244808.01245  23503966.014  
                                                                                
                
  23620951.243   124128930.19406  23620945.483    96723802.25245                
                                                                                
                
  21547823.608   113234579.34008  21547818.017    88234720.36347                
                                                                                
                
  20894984.504   109803886.46409  20894981.095    85561452.15248  20894981.890  
                                                                                
                
  23349027.037   124813913.90903                                                
                                                                                
                
  19272114.996   102839697.58209  19272114.049    79986426.51108  19272115.006  
                                                                                
                
  20386020.790   109127966.92608  20386018.189    84877294.51608  20386018.927  
                                                                                
                
  22510602.171   120289825.88808  22510601.515    93558746.34007  22510602.493  
                                                                                
                
  19398778.939   103624795.35008                                                
                                                                                
                
  20677757.867   110418081.87607  20677757.113    85880721.24806  20677758.661  
                                                                                
                
  25894462.710   136076311.83909                                                
  25894465.261   101615433.06209  25894461.312   104266257.41609  25894462.804  
 102940845.11908
  24773242.500   130184270.76408                                                
  24773242.033    97215522.42409  24773238.291    99751568.21709  24773239.399  
  98483541.19908
  24045876.729   126361930.97509                                                
  24045877.521    94361181.49909  24045873.424    96822767.43209  24045875.005  
  95591972.84808
 18 04 04 08 07  0.0000000  0 16G05G07G13G15G20G28G30R01R02R03R11R12
                                R13E07E19E30
  20851385.836   109574767.94409  20851380.391    85382909.27948  20851381.117  
                                                                                
                
  22692746.248   119251185.54108  22692740.651    92922973.33346  22692741.221  
                                                                                
                
  21131461.590   111046580.74609  21131455.659    86529778.49547                
                                                                                
                
  23485896.598   123419226.14608  23485891.729    96170799.03145  23485892.261  
                                                                                
                
  23603874.506   124039191.53407  23603868.753    96653876.01444                
                                                                                
                
  21539342.852   113190012.65108  21539337.267    88199993.08647                
                                                                                
                
  20904891.625   109855948.72909  20904888.218    85602020.14048  20904889.013  
                                                                                
                
  23371689.799   124935059.21803                                                
                                                                                
                
  19278489.642   102873713.79709  19278488.710    80012883.54108  19278489.665  
                                                                                
                
  20370359.412   109044130.30508  20370356.791    84812088.25908  20370357.534  
                                                                                
                
  22532674.451   120407773.38808  22532673.805    93650483.23807  22532674.794  
                                                                                
                
  19406679.359   103666998.00308                                                
                                                                                
                
  20660168.829   110324157.35207  20660168.082    85807668.85306  20660169.625  
                                                                                
                
  25908412.384   136149617.58609                                                
  25908414.911   101670174.31309  25908410.979   104322426.71309  25908412.475  
 102996300.39108
  24762066.983   130125543.08708                                                
  24762066.526    97171667.33809  24762062.806    99706569.07809  24762063.897  
  98439114.09108
  24059284.799   126432390.73209                                                
  24059285.636    94413797.50409  24059281.540    96876756.03709  24059283.110  
  95645275.15108
 18 04 04 08 07 30.0000000  0 15G05G07G13G15G20G28G30R02R03R11R12R13
                                E07E19E30
  20859344.320   109616590.14409  20859338.926    85415497.99848  20859339.639  
                                                                                
                
  22708274.872   119332789.01408  22708269.307    92986560.42146  22708269.871  
                                                                                
                
  21120307.391   110987965.07809  21120301.451    86484103.96847                
                                                                                
                
  23467847.348   123324376.85408  23467842.460    96096890.51945  23467842.999  
                                                                                
                
  23586862.433   123949792.58507  23586856.638    96584214.47844                
                                                                                
                
  21530960.638   113145963.88908  21530955.046    88165669.40847                
                                                                                
                
  20914868.040   109908375.15809  20914864.624    85642871.90548  20914865.422  
                                                                                
                
  19284987.543   102908387.79309  19284986.613    80039852.19408  19284987.571  
                                                                                
                
  20354776.998   108960716.44108  20354774.339    84747210.81508  20354775.102  
                                                                                
                
  22554783.387   120525916.82808  22554782.743    93742372.56606  22554783.742  
                                                                                
                
  19414703.626   103709862.34708                                                
                                                                                
                
  20642675.205   110230742.37007  20642674.464    85735012.77206  20642675.997  
                                                                                
                
  25922396.990   136223106.85809                                                
  25922399.490   101725052.61209  25922395.580   104378736.62009  25922397.068  
 103051894.49708
  24750927.107   130067002.77808                                                
  24750926.662    97127952.18409  24750922.955    99661713.52909  24750924.037  
  98394828.73708
  24072737.152   126503083.19708                                                
  24072738.025    94466587.28409  24072733.944    96930922.92609  24072735.492  
  95698753.48208
 18 04 04 08 08  0.0000000  0 15G05G07G13G15G20G28G30R02R03R11R12R13
                                E07E19E30
  20867401.988   109658933.51209  20867396.661    85448492.80448  20867397.353  
                                                                                
                
  22723830.695   119414535.37108  22723825.160    93050258.84846  22723825.717  
                                                                                
                
  21109199.195   110929591.02109  21109193.258    86438617.66748                
                                                                                
                
  23449815.791   123229620.58308  23449810.888    96023054.49745  23449811.436  
                                                                                
                
  23569908.321   123860698.31306  23569902.503    96514790.38845                
                                                                                
                
  21522670.099   113102396.81408  21522664.500    88131721.04947                
                                                                                
                
  20924906.329   109961126.62109  20924902.922    85683976.91348  20924903.710  
                                                                                
                
  19291601.651   102943681.78209  19291600.720    80067303.04008  19291601.688  
                                                                                
                
  20339267.072   108877690.45008  20339264.408    84682635.01708  20339265.178  
                                                                                
                
  22576921.229   120644214.75207  22576920.589    93834382.05306  22576921.583  
                                                                                
                
  19422844.196   103753347.90308                                                
                                                                                
                
  20625270.214   110137800.65007  20625269.482    85662724.76606  20625271.007  
                                                                                
                
  25936409.269   136296741.59409                                                
  25936411.742   101780039.54709  25936407.845   104435157.98009  25936409.326  
 103107598.64108
  24739816.005   130008613.58908                                                
  24739815.577    97084349.86409  24739811.863    99616973.75909  24739812.947  
  98350657.68708
  24086226.320   126573969.23308                                                
  24086227.225    94519521.62209  24086223.172    96985238.12909  24086224.690  
  95752378.25508
 18 04 04 08 08 30.0000000  0 15G05G07G13G15G20G28G30R02R03R11R12R13
                                E07E19E30
  20875565.380   109701832.43309  20875560.095    85481920.52248  20875560.771  
                                                                                
                
  22739420.228   119496458.91308  22739414.732    93114095.34746  22739415.274  
                                                                                
                
  21098143.900   110871495.08909  21098137.962    86393348.11947                
                                                                                
                
  23431808.894   123134993.73808  23431803.985    95949319.29646  23431804.549  
                                                                                
                
  23553019.440   123771947.00806  23553013.625    96445633.61445                
                                                                                
                
  21514478.237   113059348.35608  21514472.631    88098176.81847                
                                                                                
                
  20935012.860   110014236.77809  20935009.461    85725361.44448  20935010.245  
                                                                                
                
  19298338.543   102979631.08409  19298337.609    80095263.59708  19298338.585  
                                                                                
                
  20323836.870   108795091.57508  20323834.188    84618391.47408  20323834.969  
                                                                                
                
  22599094.147   120762700.03307  22599093.524    93926537.27206  22599094.497  
                                                                                
                
  19431107.233   103797487.34408                                                
                                                                                
                
  20607960.962   110045370.35107  20607960.234    85590834.56906  20607961.750  
                                                                                
                
  25950455.848   136370556.65009                                                
  25950458.283   101835161.15709  25950454.412   104491717.55509  25950455.881  
 103163439.23708
  24728740.638   129950412.15108                                                
  24728740.222    97040887.74509  24728736.491    99572377.84509  24728737.589  
  98306628.67408
  24099758.679   126645082.48608                                                
  24099759.588    94572625.69309  24099755.577    97039727.48409  24099757.054  
  95806174.96008
 18 04 04 08 09  0.0000000  0 15G05G07G13G15G20G28G30R02R03R11R12R13
                                E07E19E30
  20883833.662   109745282.42809  20883828.397    85515777.63848  20883829.062  
                                                                                
                
  22755042.490   119578554.42108  22755037.034    93178065.83846  22755037.557  
                                                                                
                
  21087141.129   110813675.10509  21087135.195    86348293.57747                
                                                                                
                
  23413826.300   123040494.57508  23413821.374    95875683.59746  23413821.951  
                                                                                
                
  23536195.668   123683537.62307  23536189.902    96376743.22544                
                                                                                
                
  21506384.671   113016816.41608  21506379.054    88065035.06247                
                                                                                
                
  20945186.718   110067700.68109  20945183.337    85767021.60748  20945184.110  
                                                                                
                
  19305197.673   103016232.59909  19305196.744    80123731.42208  19305197.725  
                                                                                
                
  20308486.440   108712919.62508  20308483.783    84554479.95908  20308484.563  
                                                                                
                
  22621300.924   120881365.95608  22621300.312    94018832.93206  22621301.284  
                                                                                
                
  19439491.560   103842274.93509                                                
                                                                                
                
  20590747.322   109953450.60007  20590746.602    85519341.45406  20590748.116  
                                                                                
                
  25964536.034   136444548.21909                                                
  25964538.440   101890414.55609  25964534.587   104548412.35209  25964536.044  
 103219413.33308
  24717700.600   129892396.35808                                                
  24717700.190    96997564.25709  24717696.436    99527924.17609  24717697.555  
  98262740.09308
  24113333.368   126716418.06309                                                
  24113334.270    94625895.75409  24113330.311    97094387.21009  24113331.752  
  95860139.85908
 18 04 04 08 09 30.0000000  0 15G05G07G13G15G20G28G30R02R03R11R12R13
                                E07E19E30
  20892203.935   109789268.29209  20892198.663    85550052.30748  20892199.325  
                                                                                
                
  22770694.583   119660806.60308  22770689.155    93242158.40146  22770689.662  
                                                                                
                
  21076188.464   110756118.50608  21076182.530    86303444.28647                
                                                                                
                
  23395865.654   122946110.80008  23395860.705    95802137.83646  23395861.296  
                                                                                
                
  23519434.962   123595459.18407  23519429.248    96308110.60443                
                                                                                
                
  21498387.114   112974789.00109  21498381.487    88032286.44547                
                                                                                
                
  20955424.946   110121502.90709  20955421.560    85808945.41848  20955422.333  
                                                                                
                
  19312176.368   103053472.27309  19312175.451    80152695.60708  19312176.437  
                                                                                
                
  20293213.805   108631164.19308  20293211.166    84490892.40008  20293211.950  
                                                                                
                
  22643538.236   121000195.07907  22643537.585    94111255.50607  22643538.593  
                                                                                
                
  19447994.063   103887693.66508                                                
                                                                                
                
  20573627.012   109862029.29507  20573626.298    85448236.02106  20573627.819  
                                                                                
                
  25978647.058   136518701.96809                                                
  25978649.457   101945789.08709  25978645.595   104605231.42909  25978647.049  
 103275510.13908
  24706693.510   129834553.70208                                                
  24706693.076    96954370.07009  24706689.319    99483603.19109  24706690.461  
  98218982.51408
  24126947.451   126787960.58509                                                
  24126948.348    94679320.33809  24126944.428    97149205.52609  24126945.854  
  95914261.31208
 18 04 04 08 10  0.0000000  0 15G05G07G13G15G20G28G30R02R03R11R12R13
                                E07E19E30
  20900676.123   109833789.74009  20900670.804    85584744.33048  20900671.480  
                                                                                
                
  22786376.360   119743214.83708  22786370.941    93306372.58646  22786371.436  
                                                                                
                
  21065286.313   110698827.37909  21065280.381    86258801.85747                
                                                                                
                
  23377927.376   122851844.46808  23377922.414    95728683.56446  23377923.008  
                                                                                
                
  23502737.805   123507714.82207  23502732.069    96239738.33645                
                                                                                
                
  21490485.956   112933268.14008  21490480.321    87999932.54747                
                                                                                
                
  20965727.419   110175642.68309  20965724.027    85851132.23448  20965724.804  
                                                                                
                
  19319274.737   103091350.49909  19319273.858    80182156.43308  19319274.835  
                                                                                
                
  20278019.697   108549829.01008  20278017.064    84427631.70308  20278017.849  
                                                                                
                
  22665805.661   121119185.21507  22665804.983    94203803.34607  22665806.007  
                                                                                
                
  19456614.443   103933741.99208                                                
                                                                                
                
  20556600.644   109771109.53307  20556599.970    85377520.65706  20556601.479  
                                                                                
                
  25992789.030   136593018.27309                                                
  25992791.449   102001284.97109  25992787.556   104662175.04209  25992789.019  
 103331729.88508
  24695719.788   129776886.29409                                                
  24695719.319    96911306.73309  24695715.577    99439416.47109  24695716.730  
  98175357.48208
  24140600.786   126859709.28809                                                
  24140601.692    94732898.86609  24140597.785    97204181.77209  24140599.224  
  95968538.69808
 18 04 04 08 10 30.0000000  0 15G05G07G13G15G20G28G30R02R03R11R12R13
                                E07E19E30
  20909254.552   109878869.50809  20909249.182    85619871.40048  20909249.881  
                                                                                
                
  22802092.006   119825801.01408  22802086.590    93370725.42646  22802087.085  
                                                                                
                
  21054439.370   110641826.24509  21054433.423    86214385.37747                
                                                                                
                
  23360016.222   122757720.68908  23360011.248    95655340.36946  23360011.851  
                                                                                
                
  23486109.275   123420331.29306  23486103.490    96171647.28445                
                                                                                
                
  21482685.983   112892279.01008  21482680.348    87967992.97947                
                                                                                
                
  20976098.256   110230141.79409  20976094.851    85893599.06748  20976095.641  
                                                                                
                
  19326497.256   103129891.22409  19326496.408    80212132.53408  19326497.379  
                                                                                
                
  20262909.312   108468942.01908  20262906.672    84364719.59108  20262907.470  
                                                                                
                
  22688107.093   121238357.07407  22688106.443    94296492.50707  22688107.447  
                                                                                
                
  19465356.550   103980440.64208                                                
                                                                                
                
  20539672.976   109680716.90107  20539672.338    85307215.29406  20539673.827  
                                                                                
                
  26006966.266   136667520.01209                                                
  26006968.702   102056919.35109  26006964.792   104719260.75309  26006966.256  
 103388089.93008
  24684784.096   129719418.83909                                                
  24684783.578    96868392.73809  24684779.869    99395382.96809  24684781.025  
  98131883.73308
  24154297.501   126931685.95708                                                
  24154298.430    94786647.62309  24154294.525    97259332.69409  24154295.991  
  96022988.53608
 18 04 04 08 11  0.0000000  0 15G05G07G13G15G20G28G30R02R03R11R12R13
                                E07E19E30
  20917934.168   109924481.09009  20917928.751    85655412.88248  20917929.473  
                                                                                
                
  22817836.605   119908539.17808  22817831.224    93435196.65146  22817831.715  
                                                                                
                
  21043643.205   110585091.92309  21043637.230    86170176.80548                
                                                                                
                
  23342127.710   122663715.92308  23342122.734    95582089.91245  23342123.333  
                                                                                
                
  23469545.046   123333285.95607  23469539.240    96103819.83245                
                                                                                
                
  21474982.691   112851797.93108  21474977.054    87936449.29147                
                                                                                
                
  20986532.446   110284973.81209  20986529.042    85936325.29948  20986529.840  
                                                                                
                
  19333839.230   103169069.31409  19333838.411    80242604.35008  19333839.366  
                                                                                
                
  20247878.542   108388481.20309  20247875.896    84302138.95508  20247876.708  
                                                                                
                
  22710437.215   121357682.27606  22710436.612    94389300.91807  22710437.603  
                                                                                
                
  19474215.171   104027761.71308                                                
                                                                                
                
  20522839.821   109590828.87807  20522839.217    85237302.39006  20522840.688  
                                                                                
                
  26021173.977   136742181.91909                                                
  26021176.439   102112673.32109  26021172.557   104776469.20309  26021173.991  
 103444571.13908
  24673882.001   129662127.84709                                                
  24673881.449    96825610.49209  24673877.769    99351484.67609  24673878.926  
  98088543.46608
  24168032.563   127003864.22308                                                
  24168033.530    94840546.93109  24168029.622    97314638.08209  24168031.118  
  96077590.88808
 18 04 04 08 11 30.0000000  0 15G05G07G13G15G20G28G30R02R03R11R12R13
                                E07E19E30
  20926716.034   109970630.06709  20926710.593    85691373.10848  20926711.333  
                                                                                
                
  22833611.068   119991434.64308  22833605.717    93499790.52846  22833606.194  
                                                                                
                
  21032899.276   110528632.22209  21032893.292    86126182.24748                
                                                                                
                
  23324263.448   122569838.65208  23324258.465    95508938.81946  23324259.058  
                                                                                
                
  23453047.162   123246588.76407  23453041.369    96036263.55545                
                                                                                
                
  21467377.705   112811833.51708  21467372.061    87905308.21047                
                                                                                
                
  20997031.018   110340144.14009  20997027.615    85979315.15348  20997028.416  
                                                                                
                
  19341301.952   103208891.71409  19341301.145    80273577.31008  19341302.096  
                                                                                
                
  20232929.323   108308456.94608  20232926.673    84239897.87008  20232927.499  
                                                                                
                
  22732796.709   121477164.41707  22732796.140    94482231.36707  22732797.141  
                                                                                
                
  19483191.075   104075709.64108                                                
                                                                                
                
  20506102.770   109501454.13707  20506102.157    85167788.73506  20506103.633  
                                                                                
                
  26035413.414   136817010.50509                                                
  26035415.898   102168551.75509  26035412.062   104833805.35309  26035413.453  
 103501178.42908
  24663015.045   129605021.61309                                                
  24663014.449    96782966.24609  24663010.796    99307727.96309  24663011.952  
  98045342.97908
  24181807.018   127076249.56108                                                
  24181808.034    94894600.86709  24181804.126    97370102.10009  24181805.642  
  96132349.86008
 18 04 04 08 12  0.0000000  0 15G05G07G13G15G20G28G30R02R03R11R12R13
                                E07E19E30
  20935597.609   110017303.04209  20935592.155    85727741.64948  20935592.905  
                                                                                
                
  22849412.940   120074473.99008  22849407.628    93564496.48346  22849408.095  
                                                                                
                
  21022205.498   110472436.07909  21022199.520    86082393.05047                
                                                                                
                
  23306421.437   122476078.17908  23306416.459    95435878.70446  23306417.039  
                                                                                
                
  23436613.660   123160229.92207  23436607.881    95968970.92445                
                                                                                
                
  21459868.905   112772374.60908  21459863.261    87874561.03647                
                                                                                
                
  21007591.324   110395638.86309  21007587.928    86022557.77648  21007588.731  
                                                                                
                
  19348882.914   103249345.26409  19348882.114    80305041.16808  19348883.058  
                                                                                
                
  20218059.947   108228860.11108  20218057.320    84177989.21908  20218058.146  
                                                                                
                
  22755182.715   121596788.31708  22755182.147    94575272.11506  22755183.170  
                                                                                
                
  19492281.480   104124269.19408                                                
                                                                                
                
  20489460.043   109412582.94707  20489459.425    85098666.71706  20489460.892  
                                                                                
                
  26049682.139   136891992.92509                                                
  26049684.618   102224545.07409  26049680.830   104891259.39509  26049682.187  
 103557902.11308
  24652181.173   129548089.19009                                                
  24652180.552    96740451.77109  24652176.914    99264104.40809  24652178.079  
  98002273.97108
  24195618.201   127148827.97509                                                
  24195619.235    94948799.01509  24195615.358    97425714.11209  24195616.874  
  96187254.94308
 18 04 04 08 12 30.0000000  0 15G05G07G13G15G20G28G30R02R03R11R12R13
                                E07E19E30
  20944584.988   110064531.94409  20944579.536    85764543.37248  20944580.279  
                                                                                
                
  22865248.163   120157688.50008  22865242.887    93629338.90846  22865243.353  
                                                                                
                
  21011568.427   110416537.91209  21011562.458    86038836.03747                
                                                                                
                
  23288608.143   122382468.78608  23288603.165    95362936.35746  23288603.726  
                                                                                
                
  23420251.266   123074244.98306  23420245.475    95901969.70545                
                                                                                
                
  21452462.872   112733455.71009  21452457.227    87844234.64347                
                                                                                
                
  21018219.325   110451489.33909  21018215.923    86066077.61448  21018216.730  
                                                                                
                
  19356588.500   103290463.65109  19356587.722    80337022.10508  19356588.657  
                                                                                
                
  20203277.357   108149727.85008  20203274.752    84116441.90808  20203275.580  
                                                                                
                
  22777600.876   121716584.07008  22777600.286    94668446.54606  22777601.327  
                                                                                
                
  19501492.110   104173470.89508                                                
                                                                                
                
  20472918.254   109324250.74907  20472917.622    85029963.90506  20472919.080  
                                                                                
                
  26063986.328   136967161.68709                                                
  26063988.789   102280677.54409  26063985.034   104948856.18509  26063986.382  
 103614766.74608
  24641386.868   129491364.77509                                                
  24641386.241    96698092.64209  24641382.603    99220640.25909  24641383.773  
  97959362.32908
  24209472.107   127221630.88109                                                
  24209473.109    95003164.84209  24209469.275    97481498.16509  24209470.782  
  96242329.87808
 18 04 04 08 13  0.0000000  0 15G05G07G13G15G20G28G30R02R03R11R12R13
                                E07E19E30
  20953672.004   110112284.37709  20953666.558    85801753.04048  20953667.289  
                                                                                
                
  22881110.586   120241045.99008  22881105.330    93694292.76946  22881105.792  
                                                                                
                
  21000982.397   110360907.85809  21000976.437    85995487.92247                
                                                                                
                
  23270817.992   122288980.97808  23270813.032    95290088.74546  23270813.572  
                                                                                
                
  23403954.646   122988605.72207  23403948.836    95835237.84845                
                                                                                
                
  21445153.945   112695046.98608  21445148.307    87814305.76747                
                                                                                
                
  21028908.802   110507662.90009  21028905.394    86109849.21248  21028906.210  
                                                                                
                
  19364412.691   103332215.06809  19364411.915    80369495.42008  19364412.854  
                                                                                
                
  20188576.316   108071032.07808  20188573.723    84055234.08708  20188574.561  
                                                                                
                
  22800044.744   121836517.12608  22800044.143    94761727.80206  22800045.169  
                                                                                
                
  19510816.512   104223280.47808                                                
                                                                                
                
  20456471.802   109236427.71007  20456471.173    84961657.12606  20456472.618  
                                                                                
                
  26078319.961   137042485.21009                                                
  26078322.409   102336925.59309  26078318.663   105006571.58409  26078320.021  
 103671748.46808
  24630626.509   129434818.67809                                                
  24630625.882    96655866.66709  24630622.227    99177312.73409  24630623.404  
  97916585.57808
  24223362.573   127294625.69809                                                
  24223363.527    95057673.96009  24223359.735    97537429.26109  24223361.228  
  96297549.98908
 18 04 04 08 13 30.0000000  0 15G05G07G13G15G20G28G30R02R03R11R12R13
                                E07E19E30
  20962860.587   110160570.46909  20962855.140    85839378.54148  20962855.855  
                                                                                
                
  22897002.185   120324556.75208  22896996.940    93759366.06546  22896997.394  
                                                                                
                
  20990449.805   110305558.67909  20990443.841    85952358.68747                
                                                                                
                
  23253053.481   122195627.85708  23253048.536    95217346.07346  23253049.057  
                                                                                
                
  23387726.503   122903326.20707  23387720.688    95768786.28345                
                                                                                
                
  21437944.584   112657161.58708  21437938.950    87784784.69447                
                                                                                
                
  21039661.657   110564169.45209  21039658.247    86153880.26848  21039659.074  
                                                                                
                
  19372357.660   103374610.88309  19372356.883    80402469.91408  19372357.829  
                                                                                
                
  20173959.672   107992787.94308  20173957.074    83994377.52208  20173957.926  
                                                                                
                
  22822515.929   121956596.12908  22822515.330    94855122.55306  22822516.328  
                                                                                
                
  19520256.413   104273706.67508                                                
                                                                                
                
  20440123.311   109149127.79507  20440122.683    84893757.21206  20440124.124  
                                                                                
                
  26092685.175   137117974.55309                                                
  26092687.618   102393297.44209  26092683.855   105064414.00509  26092685.235  
 103728855.60208
  24619902.527   129378463.71108                                                
  24619901.894    96613783.40909  24619898.214    99134131.65409  24619899.413  
  97873953.40808
  24237291.474   127367822.34009                                                
  24237292.386    95112333.77309  24237288.615    97593514.99109  24237290.100  
  96352922.76608
 18 04 04 08 14  0.0000000  0 15G05G07G13G15G20G28G30R02R03R11R12R13
                                E07E19E30
  20972149.252   110209382.58509  20972143.800    85877413.95148  20972144.504  
                                                                                
                
  22912921.410   120408212.59709  22912916.167    93824552.39846  22912916.622  
                                                                                
                
  20979969.679   110250485.23409  20979963.714    85909444.31947                
                                                                                
                
  23235313.636   122102404.34308  23235308.677    95144704.39346  23235309.196  
                                                                                
                
  23371566.035   122818402.31807  23371560.254    95702611.80845                
                                                                                
                
  21430833.792   112619794.18008  21430828.161    87755667.24947                
                                                                                
                
  21050476.358   110621001.02809  21050472.942    86198164.60148  21050473.775  
                                                                                
                
  19380422.121   103417644.28009  19380421.329    80435940.29908  19380422.299  
                                                                                
                
  20159426.746   107914991.96008  20159424.128    83933869.53008  20159424.985  
                                                                                
                
  22845012.634   122076811.42308  22845012.051    94948623.28306  22845013.026  
                                                                                
                
  19529810.006   104324740.22108                                                
                                                                                
                
  20423871.960   109062346.46707  20423871.341    84826260.63006  20423872.767  
                                                                                
                
  26107080.589   137193622.74509                                                
  26107083.020   102449787.94009  26107079.249   105122378.16309  26107080.647  
 103786082.92808
  24609213.960   129322294.84309                                                
  24609213.319    96571839.11209  24609209.623    99091093.15809  24609210.844  
  97831462.01208
  24251257.284   127441212.87609                                                
  24251258.176    95167138.36509  24251254.390    97649749.27409  24251255.878  
  96408442.19908
 18 04 04 08 14 30.0000000  0 15G05G07G13G15G20G28G30R02R03R11R12R13
                                E07E19E30
  20981539.771   110258729.92409  20981534.318    85915866.40748  20981535.015  
                                                                                
                
  22928869.978   120492022.64809  22928864.721    93889858.90546  22928865.177  
                                                                                
                
  20969544.287   110195699.40009  20969538.320    85866754.05447                
                                                                                
                
  23217600.746   122009322.48908  23217595.758    95072173.09546  23217596.292  
                                                                                
                
  23355475.777   122733847.57606  23355470.023    95636725.03945                
                                                                                
                
  21423823.856   112582956.75408  21423818.219    87726962.76847                
                                                                                
                
  21061354.611   110678166.57009  21061351.202    86242709.16148  21061352.039  
                                                                                
                
  19388608.004   103461325.79709  19388607.211    80469914.81308  19388608.180  
                                                                                
                
  20144980.248   107837658.72708  20144977.596    83873721.47408  20144978.462  
                                                                                
                
  22867536.305   122197170.72207  22867535.733    95042236.00406  22867536.699  
                                                                                
                
  19539478.747   104376388.78508                                                
                                                                                
                
  20407720.140   108976096.72007  20407719.509    84759177.52006  20407720.930  
                                                                                
                
  26121508.135   137269439.86009                                                
  26121510.546   102506404.58709  26121506.778   105180471.75709  26121508.193  
 103843438.04908
  24598563.037   129266323.87209                                                
  24598562.372    96530042.62109  24598558.670    99048206.31709  24598559.909  
  97789120.34808
  24265261.722   127514806.32608                                                
  24265262.627    95222094.45409  24265258.804    97706139.02309  24265260.299  
  96464115.11908
 18 04 04 08 15  0.0000000  0 15G05G07G13G15G20G28G30R02R03R11R12R13
                                E07E19E30
  20991031.973   110308611.61709  20991026.524    85954735.23348  20991027.216  
                                                                                
                
  22944847.780   120575986.24008  22944842.500    93955285.04946  22944842.961  
                                                                                
                
  20959173.939   110141202.81408  20959167.967    85824289.17347                
                                                                                
                
  23199915.253   121916384.55008  23199910.239    94999753.91946  23199910.790  
                                                                                
                
  23339456.427   122649665.31007  23339450.681    95571128.48144                
                                                                                
                
  21416915.110   112546651.08009  21416909.446    87698672.64647                
                                                                                
                
  21072296.190   110735664.95509  21072292.797    86287513.09348  21072293.629  
                                                                                
                
  19396915.421   103505655.55409  19396914.633    80504393.47508  19396915.604  
                                                                                
                
  20130620.918   107760791.94909  20130618.231    83813936.19308  20130619.104  
                                                                                
                
  22890086.415   122317671.46307  22890085.823    95135958.75806  22890086.798  
                                                                                
                
  19549262.267   104428650.43508                                                
                                                                                
                
  20391668.370   108890381.11607  20391667.728    84692509.82706  20391669.153  
                                                                                
                
  26135967.819   137345425.91408                                                
  26135970.220   102563147.39509  26135966.448   105238694.80809  26135967.879  
 103900920.97708
  24587950.162   129210552.74709                                                
  24587949.484    96488395.33409  24587945.784    99005472.57909  24587947.029  
  97746929.83408
  24279304.550   127588601.61808                                                
  24279305.489    95277201.27209  24279301.619    97762683.41809  24279303.130  
  96519940.72608
 18 04 04 08 15 30.0000000  0 15G05G07G13G15G20G28G30R02R03R11R12R13
                                E07E19E30
  21000623.023   110359012.90809  21000617.568    85994008.96848  21000618.261  
                                                                                
                
  22960851.990   120660088.67108  22960846.678    94020819.40446  22960847.133  
                                                                                
                
  20948856.340   110086983.61609  20948850.359    85782040.47347                
                                                                                
                
  23182254.811   121823578.54708  23182249.770    94927437.60846  23182250.331  
                                                                                
                
  23323505.929   122565844.82407  23323500.207    95505813.80545                
                                                                                
                
  21410105.272   112510865.15608  21410099.574    87670787.53047                
                                                                                
                
  21083298.277   110793481.35409  21083294.906    86332564.82748  21083295.732  
                                                                                
                
  19405341.721   103550619.94109  19405340.909    80539365.77208  19405341.896  
                                                                                
                
  20116346.837   107684381.56308  20116344.100    83754505.90208  20116344.977  
                                                                                
                
  22912659.954   122438297.39407  22912659.332    95229778.86206  22912660.327  
                                                                                
                
  19559157.407   104481508.40508                                                
                                                                                
                
  20375714.442   108805188.06107  20375713.776    84626248.58506  20375715.208  
                                                                                
                
  26150457.034   137421567.13609                                                
  26150459.445   102620006.05809  26150455.659   105297036.74609  26150457.109  
 103958521.28308
  24577372.992   129154969.45309                                                
  24577372.313    96446888.35209  24577368.620    98962882.81109  24577369.859  
  97704881.46208
  24293382.932   127662583.86209                                                
  24293383.914    95332447.71009  24293380.002    97819371.07009  24293381.528  
  96575907.77008
 18 04 04 08 16  0.0000000  0 15G05G07G13G15G20G28G30R02R03R11R12R13
                                E07E19E30
  21010314.756   110409943.22309  21010309.292    86033694.90848  21010309.992  
                                                                                
                
  22976884.438   120744339.39208  22976879.099    94086469.28946  22976879.542  
                                                                                
                
  20938593.820   110033053.69409  20938587.838    85740017.14548                
                                                                                
                
  23164621.913   121730916.99208  23164616.862    94855233.78246  23164617.431  
                                                                                
                
  23307626.761   122482399.35706  23307621.085    95440791.36245                
                                                                                
                
  21403396.603   112475610.87209  21403390.877    87643316.67647                
                                                                                
                
  21094362.630   110851624.90109  21094359.279    86377871.46648  21094360.105  
                                                                                
                
  19413888.876   103596229.14809  19413888.075    80574839.58708  19413889.049  
                                                                                
                
  20102160.741   107608442.09408  20102157.967    83695441.85608  20102158.844  
                                                                                
                
  22935258.334   122559056.00707  22935257.692    95323702.17006  22935258.692  
                                                                                
                
  19569165.734   104534970.99308                                                
                                                                                
                
  20359860.732   108720530.11507  20359860.052    84560403.53806  20359861.483  
                                                                                
                
  26164977.703   137497873.71008                                                
  26164980.115   102676988.20809  26164976.331   105355505.37909  26164977.788  
 104016246.67508
  24566833.887   129099586.12109                                                
  24566833.223    96405530.66809  24566829.522    98920446.22609  24566830.759  
  97662984.32708
  24307498.629   127736762.25409                                                
  24307499.644    95387840.64109  24307495.711    97876209.04509  24307497.237  
  96632023.22008
 18 04 04 08 16 30.0000000  0 15G05G07G13G15G20G28G30R02R03R11R12R13
                                E07E19E30
  21020105.943   110461396.18209  21020100.470    86073788.09748  21020101.187  
                                                                                
                
  22992943.881   120828732.07508  22992938.521    94152229.80646  22992938.955  
                                                                                
                
  20928385.634   109979409.36409  20928379.647    85698216.38148                
                                                                                
                
  23147015.775   121638396.27808  23147010.702    94783139.75346  23147011.278  
                                                                                
                
  23291818.436   122399326.49606  23291812.810    95376059.29944                
                                                                                
                
  21396788.386   112440884.50808  21396782.629    87616257.19847                
                                                                                
                
  21105487.992   110910089.01909  21105484.649    86423427.89548  21105485.479  
                                                                                
                
  19422555.893   103642477.84709  19422555.084    80610810.77308  19422556.066  
                                                                                
                
  20088062.249   107532971.67609  20088059.445    83636742.64508  20088060.322  
                                                                                
                
  22957880.056   122679939.40407  22957879.431    95417722.55006  22957880.398  
                                                                                
                
  19579285.757   104589030.12308                                                
                                                                                
                
  20344106.695   108636404.39407  20344106.013    84494972.42106  20344107.437  
                                                                                
                
  26179528.800   137574340.15008                                                
  26179531.202   102734089.72909  26179527.448   105414096.52009  26179528.899  
 104074093.00808
  24556332.134   129044399.09408                                                
  24556331.473    96364319.58309  24556327.767    98878160.06709  24556329.006  
  97621235.70508
  24321650.408   127811130.30509                                                
  24321651.447    95443375.21909  24321647.504    97933192.33509  24321649.016  
  96688282.15508
 18 04 04 08 17  0.0000000  0 15G05G07G13G15G20G28G30R02R03R11R12R13
                                E07E19E30
  21029996.921   110513373.55409  21029991.429    86114289.93148  21029992.160  
                                                                                
                
  23009030.683   120913268.61408  23009025.318    94218102.41846  23009025.748  
                                                                                
                
  20918232.684   109926055.20309  20918226.710    85656641.69648                
                                                                                
                
  23129437.337   121546021.05008  23129432.269    94711159.06146  23129432.852  
                                                                                
                
  23276082.201   122316632.31607  23276076.606    95311622.27944                
                                                                                
                
  21390281.528   112406690.72808  21390275.750    87589612.70347                
                                                                                
                
  21116674.660   110968875.36109  21116671.305    86469235.42548  21116672.152  
                                                                                
                
  19431343.309   103689369.15309  19431342.501    80647281.77708  19431343.482  
                                                                                
                
  20074052.713   107457977.46708  20074049.903    83578413.80608  20074050.778  
                                                                                
                
  22980525.153   122800947.86307  22980524.563    95511840.21006  22980525.481  
                                                                                
                
  19589517.486   104643685.93909                                                
                                                                                
                
  20328453.222   108552815.82007  20328452.539    84429959.11406  20328453.957  
                                                                                
                
  26194110.837   137650969.21408                                                
  26194113.222   102791312.70309  26194109.492   105472812.24909  26194110.938  
 104132062.35908
  24545868.606   128989412.98509                                                
  24545867.950    96323258.53009  24545864.249    98836027.85509  24545865.490  
  97579639.06708
  24335838.620   127885689.78609                                                
  24335839.675    95499052.74509  24335835.735    97990322.30109  24335837.216  
  96744685.90008
 18 04 04 08 17 30.0000000  0 15G05G07G13G15G20G28G30R02R03R11R12R13
                                E07E19E30
  21039986.733   110565870.29409  21039981.237    86155196.45848  21039981.975  
                                                                                
                
  23025143.871   120997943.85008  23025138.525    94284083.08946  23025138.947  
                                                                                
                
  20908134.465   109872988.72309  20908128.491    85615291.19348                
                                                                                
                
  23111886.224   121453789.49108  23111881.165    94639290.33446  23111881.749  
                                                                                
                
  23260417.846   122234315.52306  23260412.267    95247479.25946                
                                                                                
                
  21383875.453   112373026.59408  21383869.667    87563380.92047                
                                                                                
                
  21127921.642   111027978.55309  21127918.290    86515289.82548  21127919.144  
                                                                                
                
  19440250.340   103736898.56409  19440249.540    80684249.06608  19440250.522  
                                                                                
                
  20060131.925   107383458.34108  20060129.150    83520454.47408  20060130.007  
                                                                                
                
  23003192.467   122922074.83707  23003191.927    95606050.02306  23003192.810  
                                                                                
                
  19599859.756   104698932.17408                                                
                                                                                
                
  20312900.117   108469763.12508  20312899.446    84365362.57106  20312900.857  
                                                                                
                
  26208722.993   137727756.55008                                                
  26208725.374   102848653.85309  26208721.674   105531649.25909  26208723.104  
 104190151.43308
  24535442.839   128934625.29709                                                
  24535442.179    96282345.64309  24535438.493    98794047.68209  24535439.740  
  97538192.54308
  24350062.230   127960435.24908                                                
  24350063.293    95554869.15309  24350059.359    98047594.76409  24350060.799  
  96801230.33708
 18 04 04 08 18  0.0000000  0 15G05G07G13G15G20G28G30R02R03R11R12R13
                                E07E19E30
  21050074.150   110618879.99209  21050068.656    86196502.70748  21050069.393  
                                                                                
                
  23041282.333   121082751.78808  23041277.011    94350167.13046  23041277.424  
                                                                                
                
  20898090.343   109820206.50409  20898084.364    85574162.18848                
                                                                                
                
  23094361.779   121361698.13508  23094356.742    94567530.85546  23094357.326  
                                                                                
                
  23244824.827   122152373.93406  23244819.278    95183628.68545                
                                                                                
                
  21377569.493   112339888.54308  21377563.696    87537559.07247                
                                                                                
                
  21139227.667   111087392.13409  21139224.296    86561586.12948  21139225.157  
                                                                                
                
  19449275.843   103785060.37309  19449275.026    80721708.24308  19449276.019  
                                                                                
                
  20046299.669   107309413.27208  20046296.931    83462863.88908  20046297.767  
                                                                                
                
  23025880.408   123043312.07607  23025879.893    95700345.59706  23025880.780  
                                                                                
                
  19610310.894   104754760.17308                                                
                                                                                
                
  20297446.770   108387243.22907  20297446.100    84301180.44906  20297447.512  
                                                                                
                
  26223364.217   137804696.75008                                                
  26223366.614   102906109.15809  26223362.947   105590603.40409  26223364.358  
 104248356.15808
  24525054.167   128880032.56709                                                
  24525053.492    96241578.36309  24525049.821    98752216.89909  24525051.065  
  97496893.50708
  24364320.037   128035360.37808                                                
  24364321.099    95610819.71409  24364317.184    98105004.90409  24364318.576  
  96857910.69108
 18 04 04 08 18 30.0000000  0 15G05G07G13G15G20G28G30R02R03R11R12R13
                                E07E19E30
  21060261.171   110672413.09709  21060255.698    86238216.79848  21060256.424  
                                                                                
                
  23057448.023   121167702.87908  23057442.710    94416362.73446  23057443.124  
                                                                                
                
  20888102.795   109767721.60009  20888096.817    85533264.86548                
                                                                                
                
  23076866.545   121269760.35008  23076861.538    94495891.05246  23076862.115  
                                                                                
                
  23229305.994   122070822.36907  23229300.462    95120082.08945                
                                                                                
                
  21371366.159   112307289.85208  21371360.356    87512157.51847                
                                                                                
                
  21150594.765   111147126.52009  21150591.401    86608132.37248  21150592.257  
                                                                                
                
  19458422.138   103833866.62509  19458421.340    80759668.64008  19458422.320  
                                                                                
                
  20032558.922   107235858.01608  20032556.216    83405654.25508  20032557.035  
                                                                                
                
  23048590.711   123164668.90007  23048590.213    95794734.17207  23048591.110  
                                                                                
                
  19620872.765   104811179.70308                                                
                                                                                
                
  20282095.807   108305269.94807  20282095.156    84237423.44806  20282096.566  
                                                                                
                
  26238036.725   137881801.37408                                                
  26238039.145   102963687.25109  26238035.483   105649683.54209  26238036.899  
 104306685.27208
  24514705.156   128825648.14108                                                
  24514704.465    96200966.61509  24514700.809    98710545.70809  24514702.048  
  97455752.03708
  24378614.027   128110475.62908                                                
  24378615.098    95666912.22009  24378611.203    98162560.71809  24378612.561  
  96914734.85408
 18 04 04 08 19  0.0000000  0 15G05G07G13G15G20G28G30R02R03R11R12R13
                                E07E19E30
  21070547.267   110726466.93909  21070541.825    86280336.66948  21070542.540  
                                                                                
                
  23073640.559   121252795.04708  23073635.233    94482668.27545  23073635.661  
                                                                                
                
  20878171.868   109715534.28009  20878165.897    85492599.43148                
                                                                                
                
  23059400.570   121177976.37408  23059395.591    94424371.11246  23059396.165  
                                                                                
                
  23213861.679   121989661.94707  23213856.145    95056840.20545                
                                                                                
                
  21365265.408   112275230.22509  21365259.610    87487176.00447                
                                                                                
                
  21162022.317   111207178.80909  21162018.965    86654926.38848  21162019.807  
                                                                                
                
  19467688.895   103883315.74209  19467688.108    80798129.04908  19467689.078  
                                                                                
                
  20018910.058   107162794.61808  20018907.365    83348827.17108  20018908.173  
                                                                                
                
  23071322.635   123286141.26407  23071322.177    95889212.62807  23071323.058  
                                                                                
                
  19631544.526   104868186.21108                                                
                                                                                
                
  20266847.233   108223843.54007  20266846.595    84174091.82606  20266848.007  
                                                                                
                
  26252740.182   137959068.53408                                                
  26252742.630   103021386.70409  26252738.933   105708888.20309  26252740.385  
 104365137.33308
  24504395.813   128771472.11909                                                
  24504395.097    96160510.48609  24504391.469    98669034.20109  24504392.698  
  97414768.22408
  24392943.629   128185778.14008                                                
  24392944.727    95723144.56309  24392940.847    98220260.01909  24392942.194  
  96971700.66808
 18 04 04 08 19 30.0000000  0 15G05G07G13G15G20G28G30R02R03R11R12R13
                                E07E19E30
  21080929.645   110781026.71909  21080924.247    86322850.76448  21080924.949  
                                                                                
                
  23089857.051   121338013.06108  23089851.700    94549071.87646  23089852.148  
                                                                                
                
  20868295.173   109663631.95909  20868289.214    85452156.06848                
                                                                                
                
  23041961.779   121086334.97408  23041956.814    94352962.22446  23041957.391  
                                                                                
                
  23198489.835   121908882.09707  23198484.237    94993894.85345                
                                                                                
                
  21359264.915   112243697.44709  21359259.120    87462605.01947                
                                                                                
                
  21173507.583   111267534.17409  21173504.277    86701956.49848  21173505.101  
                                                                                
                
  19477073.382   103933393.05309  19477072.616    80837078.04208  19477073.570  
                                                                                
                
  20005351.147   107090212.74708  20005348.454    83292374.61008  20005349.262  
                                                                                
                
  23094073.047   123407712.36008  23094072.664    95983767.87107  23094073.499  
                                                                                
                
  19642323.087   104925763.41308                                                
                                                                                
                
  20251698.969   108142952.73907  20251698.350    84111176.77606  20251699.765  
                                                                                
                
  26267471.938   138036484.39108                                                
  26267474.411   103079197.20309  26267470.674   105768206.80309  26267472.162  
 104423701.88108
  24494123.849   128717492.46409                                                
  24494123.102    96120200.99109  24494119.513    98627673.17309  24494120.723  
  97373932.96108
  24407306.007   128261253.03508                                                
  24407307.141    95779505.66409  24407303.265    98278091.41509  24407304.614  
  97028796.91908
 18 04 04 08 20  0.0000000  0 15G05G07G13G15G20G28G30R02R03R11R12R13
                                E07E19E30
  21091410.130   110836102.09409  21091404.783    86365766.62548  21091405.469  
                                                                                
                
  23106099.472   121423367.38608  23106094.099    94615581.71145  23106094.563  
                                                                                
                
  20858475.227   109612027.82109  20858469.275    85411945.04948                
                                                                                
                
  23024552.532   120994848.78608  23024547.549    94281674.29045  23024548.138  
                                                                                
                
  23183192.985   121828496.70106  23183187.319    94931256.94845                
                                                                                
                
  21353367.084   112212704.07809  21353361.286    87438454.34447                
                                                                                
                
  21185052.365   111328202.44309  21185049.094    86749230.46948  21185049.900  
                                                                                
                
  19486577.699   103984109.78709  19486576.942    80876524.36708  19486577.892  
                                                                                
                
  19991885.030   107018127.66709  19991882.322    83236308.42608  19991883.136  
                                                                                
                
  23116843.634   123529391.27008  23116843.332    96078406.97707  23116844.108  
                                                                                
                
  19653210.092   104983919.84308                                                
                                                                                
                
  20236653.619   108062611.45307  20236653.019    84048689.11506  20236654.437  
                                                                                
                
  26282234.091   138114059.89608                                                
  26282236.579   103137126.91809  26282232.819   105827647.74909  26282234.326  
 104482387.21308
  24483891.705   128663722.08609                                                
  24483890.913    96080047.79309  24483887.361    98586472.50209  24483888.555  
  97333256.02808
  24421703.110   128336910.34408                                                
  24421704.288    95836002.97209  24421700.420    98336062.57409  24421701.760  
  97086031.15308
 18 04 04 08 20 30.0000000  0 15G05G07G13G15G20G28G30R02R03R11R12R13
                                E07E19E30
  21101988.051   110891689.45909  21101982.737    86409081.43448  21101983.418  
                                                                                
                
  23122367.048   121508853.88108  23122361.682    94682194.53345  23122362.138  
                                                                                
                
  20848711.854   109560720.94209  20848705.908    85371965.66048                
                                                                                
                
  23007172.717   120903517.32608  23007167.702    94210506.94346  23007168.309  
                                                                                
                
  23167971.240   121748505.91907  23167965.568    94868926.47545                
                                                                                
                
  21347571.645   112182248.82609  21347565.828    87414723.00547                
                                                                                
                
  21196655.931   111389179.62209  21196652.692    86796745.14448  21196653.487  
                                                                                
                
  19496201.340   104035463.36609  19496200.583    80916466.02908  19496201.528  
                                                                                
                
  19978511.825   106946539.87708  19978509.095    83180629.02808  19978509.907  
                                                                                
                
  23139633.391   123651172.63608  23139633.164    96173125.76707  23139633.885  
                                                                                
                
  19664204.502   105042650.10608                                                
                                                                                
                
  20221710.872   107982818.08707  20221710.282    83986627.63506  20221711.693  
                                                                                
                
  26297026.073   138191792.07908                                                
  26297028.584   103195173.63609  26297024.781   105887208.73509  26297026.302  
 104541191.06508
  24473699.185   128610159.91209                                                
  24473698.370    96040050.06009  24473694.833    98545431.35309  24473696.020  
  97292736.58608
  24436134.159   128412746.04908                                                
  24436135.386    95892633.50309  24436131.526    98394170.41709  24436132.844  
  97143400.33708
 18 04 04 08 21  0.0000000  0 15G05G07G13G15G20G28G30R02R03R11R12R13
                                E07E19E30
  21112663.461   110947789.09609  21112658.166    86452795.41048  21112658.850  
                                                                                
                
  23138659.970   121594473.57408  23138654.624    94748911.15345  23138655.056  
                                                                                
                
  20839005.645   109509714.40509  20838999.694    85332220.30148                
                                                                                
                
  22989822.992   120812343.94908  22989817.965    94139462.75246  22989818.597  
                                                                                
                
  23152825.536   121668914.60007  23152819.880    94806907.23745                
                                                                                
                
  21341879.200   112152334.67508  21341873.364    87391413.27347                
                                                                                
                
  21208318.365   111450466.12409  21208315.147    86844500.84048  21208315.937  
                                                                                
                
  19505944.528   104087454.68209  19505943.777    80956903.69508  19505944.718  
                                                                                
                
  19965232.591   106875455.16409  19965229.825    83125340.93608  19965230.634  
                                                                                
                
  23162442.210   123773055.66107  23162442.039    96267923.59306  23162442.736  
                                                                                
                
  19675306.175   105101953.28208                                                
                                                                                
                
  20206871.588   107903577.14707  20206871.006    83924995.79206  20206872.408  
                                                                                
                
  26311848.133   138269682.35308                                                
  26311850.681   103253338.40709  26311846.821   105946890.85709  26311848.370  
 104600114.51508
  24463546.899   128556809.25609                                                
  24463546.074    96000210.28309  24463542.544    98504552.27109  24463543.728  
  97252377.15708
  24450599.255   128488760.66608                                                
  24450600.536    95949397.63209  24450596.691    98452415.33809  24450597.971  
  97200904.86308
 18 04 04 08 21 30.0000000  0 15G05G07G13G15G20G28G30R02R03R11R12R13
                                E07E19E30
  21123435.414   111004396.06809  21123430.120    86496904.71948  21123430.813  
                                                                                
                
  23154977.419   121680222.04908  23154972.074    94815728.11245  23154972.492  
                                                                                
                
  20829356.159   109459005.99209  20829350.183    85292707.25948                
                                                                                
                
  22972502.998   120721326.94608  22972497.969    94068540.44246  22972498.612  
                                                                                
                
  23137755.628   121589721.68805  23137749.984    94745198.44745                
                                                                                
                
  21336289.268   112122959.44108  21336283.407    87368523.51147                
                                                                                
                
  21220038.728   111512057.05509  21220035.520    86892493.75748  21220036.312  
                                                                                
                
  19515806.403   104140079.55909  19515805.626    80997834.15708  19515806.586  
                                                                                
                
  19952047.322   106804873.37009  19952044.526    83070443.99408  19952045.330  
                                                                                
                
  23185268.820   123895033.91507  23185268.648    96362795.53106  23185269.348  
                                                                                
                
  19686513.853   105161822.77108                                                
                                                                                
                
  20192135.346   107824886.47207  20192134.765    83863791.94406  20192136.159  
                                                                                
                
  26326699.525   138347726.87008                                                
  26326702.106   103311618.36509  26326698.203   106006691.18209  26326699.788  
 104659154.65408
  24453434.481   128503668.16509                                                
  24453433.650    95960527.01409  24453430.111    98463833.78009  24453431.303  
  97212176.27608
  24465097.478   128564949.32708                                                
  24465098.811    96006291.71209  24465095.004    98510793.62409  24465096.228  
  97258541.04808
 18 04 04 08 22  0.0000000  0 15G05G07G13G15G20G28G30R02R03R11R12R13
                                E07E19E30
  21134303.426   111061507.78709  21134298.108    86541407.34348  21134298.820  
                                                                                
                
  23171318.816   121766096.23508  23171313.447    94882643.00645  23171313.857  
                                                                                
                
  20819763.407   109408595.73309  20819757.419    85253426.54448                
                                                                                
                
  22955212.773   120630466.31308  22955207.755    93997739.96646  22955208.403  
                                                                                
                
  23122761.689   121510928.44806  23122756.087    94683801.15445                
                                                                                
                
  21330801.763   112094122.43208  21330795.898    87346053.12147                
                                                                                
                
  21231816.431   111573949.32609  21231813.225    86940721.49448  21231814.023  
                                                                                
                
  19525786.682   104193336.11309  19525785.908    81039255.89108  19525786.869  
                                                                                
                
  19938956.498   106734797.05308  19938953.674    83015940.18908  19938954.477  
                                                                                
                
  23208112.454   124017103.21607  23208112.290    96457738.28706  23208112.980  
                                                                                
                
  19697826.689   105222253.94508                                                
                                                                                
                
  20177502.314   107746747.02007  20177501.704    83803016.84106  20177503.107  
                                                                                
                
  26341579.869   138425923.58808                                                
  26341582.496   103370011.97809  26341578.543   106066608.11209  26341580.172  
 104718309.92708
  24443361.944   128450736.58309                                                
  24443361.115    95921000.18009  24443357.558    98423275.80709  24443358.760  
  97172133.86908
  24479628.229   128641309.06308                                                
  24479629.586    96063313.58808  24479625.833    98569303.01609  24479626.994  
  97316306.68008
 18 04 04 08 22 30.0000000  0 15G05G07G13G15G20G28G30R02R03R11R12R13
                                E07E19E30
  21145266.848   111119120.83909  21145261.511    86586300.61048  21145262.230  
                                                                                
                
  23187683.721   121852093.92808  23187678.323    94949654.14246  23187678.730  
                                                                                
                
  20810227.353   109358483.46809  20810221.382    85214378.02748                
                                                                                
                
  22937952.398   120539762.35508  22937947.388    93927061.54446  22937948.036  
                                                                                
                
  23107844.101   121432536.26107  23107838.547    94622716.34245                
                                                                                
                
  21325416.627   112065823.39108  21325410.767    87324001.92347                
                                                                                
                
  21243650.953   111636140.03809  21243647.760    86989181.75848  21243648.554  
                                                                                
                
  19535884.978   104247222.41809  19535884.195    81081167.44408  19535885.163  
                                                                                
                
  19925960.283   106665227.19008  19925957.444    82961830.28408  19925958.246  
                                                                                
                
  23230972.338   124139259.36707  23230972.225    96552748.56307  23230972.883  
                                                                                
                
  19709243.875   105283242.67908                                                
                                                                                
                
  20162972.553   107669158.94307  20162971.927    83742670.57006  20162973.338  
                                                                                
                
  26356488.826   138504270.65708                                                
  26356491.512   103428517.86609  26356487.484   106126640.25009  26356489.168  
 104777578.94008
  24433329.267   128398014.48809                                                
  24433328.445    95881629.77809  24433324.869    98382878.36109  24433326.086  
  97132249.94908
  24494190.998   128717836.99408                                                
  24494192.366    96120461.05508  24494188.671    98627941.28809  24494189.778  
  97374199.55308
 18 04 04 08 23  0.0000000  0 15G05G07G13G15G20G28G30R02R03R11R12R13
                                E07E19E30
  21156326.598   111177240.15709  21156321.255    86631588.38348  21156321.977  
                                                                                
                
  23204073.136   121938220.52508  23204067.714    95016765.73645  23204068.116  
                                                                                
                
  20800749.556   109308677.42609  20800743.615    85175568.13748                
                                                                                
                
  22920723.486   120449223.96608  22920718.474    93856512.19346  22920719.114  
                                                                                
                
  23093004.603   121354554.28206  23092999.068    94561951.18645                
                                                                                
                
  21320135.330   112038070.06508  21320129.467    87302375.96947                
                                                                                
                
  21255543.239   111698634.34509  21255540.051    87037878.61648  21255540.838  
                                                                                
                
  19546102.381   104301744.43609  19546101.597    81123573.44408  19546102.567  
                                                                                
                
  19913060.704   106596174.72108  19913057.866    82908122.82008  19913058.663  
                                                                                
                
  23253849.200   124261506.27207  23253849.157    96647829.42806  23253849.778  
                                                                                
                
  19720766.143   105344792.70708                                                
                                                                                
                
  20148547.565   107592130.37308  20148546.922    83682759.48206  20148548.339  
                                                                                
                
  26371427.563   138582774.22508                                                
  26371430.311   103487140.62809  26371426.190   106186792.29609  26371427.935  
 104836966.34508
  24423338.004   128345510.03608                                                
  24423337.186    95842421.90209  24423333.598    98342647.67009  24423334.823  
  97092530.66108
  24508786.790   128794538.36009                                                
  24508788.160    96177738.01509  24508784.505    98686712.44709  24508785.584  
  97432223.61008
 18 04 04 08 23 30.0000000  0 15G05G07G13G15G20G28G30R02R03R11R12R13
                                E07E19E30
  21167481.764   111235860.76509  21167476.436    86677266.73948  21167477.151  
                                                                                
                
  23220486.067   122024470.80808  23220480.632    95083973.72046  23220481.023  
                                                                                
                
  20791329.592   109259175.18909  20791323.677    85136994.95148                
                                                                                
                
  22903525.619   120358848.52008  22903520.612    93786089.76646  22903521.243  
                                                                                
                
  23078242.939   121276981.25207  23078237.399    94501504.70645                
                                                                                
                
  21314957.335   112010859.62408  21314951.470    87281173.04247                
                                                                                
                
  21267492.323   111761427.01009  21267489.139    87086807.94648  21267489.916  
                                                                                
                
  19556438.059   104356897.54709  19556437.285    81166470.28808  19556438.254  
                                                                                
                
  19900257.631   106527638.88509  19900254.824    82854817.17308  19900255.607  
                                                                                
                
  23276741.871   124383837.63807  23276741.894    96742975.98506  23276742.486  
                                                                                
                
  19732392.220   105406897.00208                                                
                                                                                
                
  20134226.928   107515659.05008  20134226.253    83623281.81006  20134227.682  
                                                                                
                
  26386395.255   138661429.96608                                                
  26386398.065   103545877.03509  26386393.864   106247060.95909  26386395.650  
 104896468.87808
  24413387.697   128293220.83608                                                
  24413386.885    95803374.77309  24413383.289    98302581.91709  24413384.518  
  97052974.22108
  24523414.589   128871407.92709                                                
  24523415.947    96235140.59909  24523412.296    98745612.47909  24523413.385  
  97490374.92008
 18 04 04 08 24  0.0000000  0 15G05G07G13G15G20G28G30R02R03R11R12R13
                                E07E19E30
  21178731.958   111294980.94609  21178726.651    86723334.41148  21178727.353  
                                                                                
                
  23236922.291   122110843.45908  23236916.866    95151277.03146  23236917.244  
                                                                                
                
  20781967.703   109209978.12209  20781961.780    85098659.57048                
                                                                                
                
  22886359.108   120268637.85508  22886354.095    93715795.75346  22886354.716  
                                                                                
                
  23063559.693   121199819.88807  23063554.161    94441378.92845                
                                                                                
                
  21309882.812   111984192.89208  21309876.937    87260393.77447                
                                                                                
                
  21279497.859   111824516.33109  21279494.684    87135968.43248  21279495.451  
                                                                                
                
  19566891.872   104412681.04109  19566891.118    81209857.43208  19566892.083  
                                                                                
                
  19887551.777   106459623.39609  19887549.002    82801916.22208  19887549.773  
                                                                                
                
  23299649.728   124506250.17707  23299649.788    96838185.67506  23299650.366  
                                                                                
                
  19744121.452   105469552.54008                                                
                                                                                
                
  20120011.104   107439747.38407  20120010.404    83564239.41706  20120011.840  
                                                                                
                
  26401391.801   138740237.27108                                                
  26401394.660   103604726.62209  26401390.409   106307445.75809  26401392.205  
 104956086.06808
  24403478.597   128241148.19809                                                
  24403477.800    95764489.35809  24403474.195    98262682.10409  24403475.425  
  97013581.60508
  24538074.089   128948444.03108                                                
  24538075.427    96292667.55109  24538071.762    98804640.14509  24538072.875  
  97548652.22708
 18 04 04 08 24 30.0000000  0 15G05G07G13G15G20G28G30R02R03R11R12R13
                                E07E19E30
  21190077.198   111354600.54909  21190071.919    86769791.23048  21190072.606  
                                                                                
                
  23253381.867   122197339.04108  23253376.448    95218676.17846  23253376.814  
                                                                                
                
  20772664.416   109161088.95409  20772658.461    85060564.11848                
                                                                                
                
  22869224.566   120178595.13908  22869219.540    93645632.60446  22869220.156  
                                                                                
                
  23048955.491   121123074.12505  23048949.958    94381577.04245                
                                                                                
                
  21304912.226   111958072.39308  21304906.326    87240040.15147                
                                                                                
                
  21291559.841   111887902.36609  21291556.671    87185360.13848  21291557.434  
                                                                                
                
  19577463.941   104469095.59209  19577463.200    81253735.39108  19577464.163  
                                                                                
                
  19874943.969   106392132.86108  19874941.211    82749423.59708  19874941.977  
                                                                                
                
  23322572.673   124628743.09807  23322572.768    96933457.84806  23322573.328  
                                                                                
                
  19755953.590   105532757.67808                                                
                                                                                
                
  20105900.623   107364398.18207  20105899.908    83505634.49806  20105901.334  
                                                                                
                
  26416417.394   138819197.20208                                                
  26416420.297   103663690.17509  26416416.035   106367947.49509  26416417.810  
 105015818.71208
  24393611.254   128189295.12109                                                
  24393610.473    95725767.92609  24393606.861    98222950.54209  24393608.093  
  96974355.11008
  24552765.351   129025646.97908                                                
  24552766.671    96350319.08809  24552762.985    98863795.63609  24552764.122  
  97607055.73708
 18 04 04 08 25  0.0000000  0 15G05G07G13G15G20G28G30R02R03R11R12R13
                                E07E19E30
  21201516.869   111414716.38209  21201511.635    86816634.71648  21201512.307  
                                                                                
                
  23269864.305   122283954.64708  23269858.906    95286168.81346  23269859.257  
                                                                                
                
  20763419.690   109112507.61109  20763413.720    85022708.54348                
                                                                                
                
  22852121.947   120088720.34408  22852116.893    93575600.34146  22852117.511  
                                                                                
                
  23034430.483   121046745.16806  23034424.979    94322100.01645                
                                                                                
                
  21300045.457   111932497.43008  21300039.534    87220111.61447                
                                                                                
                
  21303677.690   111951582.03009  21303674.505    87234980.66148  21303675.274  
                                                                                
                
  19588153.920   104526139.30109  19588153.187    81298102.71008  19588154.150  
                                                                                
                
  19862434.655   106325169.54609  19862431.922    82697341.02108  19862432.685  
                                                                                
                
  23345509.796   124751311.88707  23345509.902    97028789.08106  23345510.445  
                                                                                
                
  19767887.780   105596507.96008                                                
                                                                                
                
  20091895.527   107289611.79308  20091894.799    83447467.33206  20091896.210  
                                                                                
                
  26431471.629   138898307.67608                                                
  26431474.570   103722766.14509  26431470.336   106428564.57909  26431472.064  
 105075665.24408
  24383785.676   128137661.46409                                                
  24383784.906    95687210.33109  24383781.296    98183387.09509  24383782.531  
  96935294.59208
  24567487.781   129103013.63108                                                
  24567489.098    96408092.84109  24567485.400    98923076.54509  24567486.547  
  97665583.07208
 18 04 04 08 25 30.0000000  0 15G05G07G13G15G20G28G30R02R03R11R12R13
                                E07E19E30
  21213049.108   111475318.68609  21213043.906    86863857.28348  21213044.564  
                                                                                
                
  23286367.904   122370681.44508  23286362.539    95353748.07545  23286362.870  
                                                                                
                
  20754232.228   109064227.30109  20754226.287    84985087.53648                
                                                                                
                
  22835050.121   119999007.23308  22835045.060    93505694.00846  22835045.683  
                                                                                
                
  23019983.890   120970827.66507  23019978.434    94262943.43644                
                                                                                
                
  21295281.186   111907461.10108  21295275.231    87200602.79547                
                                                                                
                
  21315849.664   112015545.92409  21315846.483    87284822.60848  21315847.257  
                                                                                
                
  19598959.999   104583802.60809  19598959.273    81342951.94108  19598960.226  
                                                                                
                
  19850022.861   106258728.34808  19850020.133    82645664.53508  19850020.902  
                                                                                
                
  23368459.188   124873945.99807  23368459.291    97124171.09406  23368459.833  
                                                                                
                
  19779921.934   105660792.18108                                                
                                                                                
                
  20077994.579   107215381.48408  20077993.840    83389732.65506  20077995.249  
                                                                                
                
  26446552.901   138977560.19208                                                
  26446555.867   103781948.18809  26446551.681   106489290.50009  26446553.344  
 105135619.22108
  24374000.637   128086240.71709                                                
  24373999.866    95648811.71009  24373996.272    98143986.79109  24373997.504  
  96896395.13408
  24582239.590   129180534.67008                                                
  24582240.914    96465981.88209  24582237.200    98982475.73909  24582238.354  
  97724227.19208
 18 04 04 08 26  0.0000000  0 15G05G07G13G15G20G28G30R02R03R11R12R13
                                E07E19E30
  21224676.412   111536420.41509  21224671.226    86911468.97748  21224671.887  
                                                                                
                
  23302895.142   122457532.45408  23302889.836    95421424.09845  23302890.147  
                                                                                
                
  20745105.080   109016263.85209  20745099.185    84947713.40248                
                                                                                
                
  22818012.168   119909472.34408  22818007.090    93435926.58146  22818007.736  
                                                                                
                
  23005618.778   120895338.55906  23005613.325    94204120.75546                
                                                                                
                
  21290622.305   111882978.59608  21290616.332    87181525.52447                
                                                                                
                
  21328078.145   112079806.96109  21328074.971    87334896.14248  21328075.744  
                                                                                
                
  19609884.894   104642099.78209  19609884.182    81388294.14808  19609885.124  
                                                                                
                
  19837712.041   106192827.58309  19837709.298    82594408.37108  19837710.077  
                                                                                
                
  23391423.077   124996657.44407  23391423.156    97219613.21706  23391423.724  
                                                                                
                
  19792058.227   105725622.00208                                                
                                                                                
                
  20064200.854   107141723.83307  20064200.092    83332443.40106  20064201.506  
                                                                                
                
  26461663.869   139056968.75608                                                
  26461666.870   103841246.75709  26461662.729   106550135.99909  26461664.323  
 105195691.25508
  24364259.140   128035048.82408                                                
  24364258.367    95610584.00509  24364254.768    98104761.83109  24364256.008  
  96857668.79808
  24597023.262   129258223.12308                                                
  24597024.597    96523995.93509  24597020.864    99042003.22009  24597022.024  
  97782997.95908
 18 04 04 08 26 30.0000000  0 15G05G07G13G15G20G28G30R02R03R11R12R13
                                E07E19E30
  21236396.905   111598011.95709  21236391.716    86959462.37348  21236392.379  
                                                                                
                
  23319444.200   122544498.54908  23319438.956    95489189.88946  23319439.227  
                                                                                
                
  20736037.005   108968610.84609  20736031.131    84910581.19248                
                                                                                
                
  22801006.895   119820109.08708  22801001.805    93366292.87046  22801002.479  
                                                                                
                
  22991334.145   120820272.67807  22991328.647    94145627.97045                
                                                                                
                
  21286067.510   111859043.10308  21286061.515    87162874.51347                
                                                                                
                
  21340361.397   112144355.68109  21340358.219    87385193.82748  21340358.988  
                                                                                
                
  19620926.852   104701021.72709  19620926.141    81434122.31708  19620927.078  
                                                                                
                
  19825501.306   106127462.63109  19825498.511    82543568.98108  19825499.305  
                                                                                
                
  23414399.325   125119435.33706  23414399.329    97315107.09606  23414399.942  
                                                                                
                
  19804294.447   105790986.20008                                                
                                                                                
                
  20050513.293   107068633.03607  20050512.511    83275595.01906  20050513.934  
                                                                                
                
  26476802.940   139136524.90308                                                
  26476805.972   103900655.50609  26476801.868   106611094.54009  26476803.409  
 105255874.90008
  24354559.962   127984079.25809                                                
  24354559.205    95572522.30609  24354555.584    98065707.22709  24354556.834  
  96819110.64508
  24611837.022   129336069.59608                                                
  24611838.372    96582127.96909  24611834.611    99101651.75309  24611835.784  
  97841888.24008
 18 04 04 08 27  0.0000000  0 15G05G07G13G15G20G28G30R02R03R11R12R13
                                E07E19E30
  21248209.135   111660085.55509  21248203.941    87007831.39348  21248204.609  
                                                                                
                
  23336013.949   122631573.08108  23336008.808    95557040.10346  23336009.027  
                                                                                
                
  20727027.163   108921263.80109  20727021.284    84873687.39748                
                                                                                
                
  22784033.515   119730913.63008  22784028.392    93296789.97546  22784029.090  
                                                                                
                
  22977129.547   120745626.61507  22977123.991    94087462.15245                
                                                                                
                
  21281615.826   111835649.34608  21281609.804    87144645.61547                
                                                                                
                
  21352697.984   112209184.65309  21352694.815    87435709.87048  21352695.579  
                                                                                
                
  19632084.570   104760561.38309  19632083.861    81480430.91808  19632084.787  
                                                                                
                
  19813390.167   106062630.77008  19813387.319    82493144.20908  19813388.128  
                                                                                
                
  23437386.427   125242271.07406  23437386.374    97410645.92705  23437387.045  
                                                                                
                
  19816629.072   105856875.65008                                                
                                                                                
                
  20036930.851   106996103.66007  20036930.046    83219183.30306  20036931.481  
                                                                                
                
  26491968.820   139216221.99108                                                
  26491971.857   103960169.52709  26491967.786   106672161.10509  26491969.295  
 105316165.19408
  24344902.194   127933327.40308                                                
  24344901.455    95534623.21509  24344897.799    98026819.45709  24344899.060  
  96780717.21408
  24626679.368   129414066.55308                                                
  24626680.720    96640372.44509  24626676.935    99161415.64409  24626678.122  
  97900892.42608
 18 04 04 08 27 30.0000000  0 15G05G07G13G15G20G28G30R02R03R11R12R13
                                E07E19E30
  21260113.697   111722644.42609  21260108.493    87056578.56648  21260109.168  
                                                                                
                
  23352605.040   122718759.71608  23352600.024    95624977.66346  23352600.177  
                                                                                
                
  20718076.764   108874229.09409  20718070.865    84837036.97748                
                                                                                
                
  22767093.342   119641892.50408  22767088.195    93227422.87746  22767088.921  
                                                                                
                
  22963006.153   120671407.60307  22963000.492    94029629.19945                
                                                                                
                
  21277268.340   111812803.16308  21277262.291    87126843.40947                
                                                                                
                
  21365088.540   112274297.39409  21365085.380    87486447.06948  21365086.138  
                                                                                
                
  19643358.919   104820723.39609  19643358.214    81527223.56908  19643359.131  
                                                                                
                
  19801380.170   105998340.36308  19801377.282    82443140.56708  19801378.105  
                                                                                
                
  23460384.845   125365167.22207  23460384.724    97506231.74205  23460385.485  
                                                                                
                
  19829062.463   105923292.62908                                                
                                                                                
                
  20023454.807   106924142.51507  20023453.978    83163213.55006  20023455.434  
                                                                                
                
  26507162.407   139296064.70008                                                
  26507165.447   104019792.28509  26507161.406   106733339.25609  26507162.899  
 105376565.64608
  24335287.136   127882799.90109                                                
  24335286.417    95496891.63509  24335282.739    97988103.57509  24335284.001  
  96742493.48908
  24641551.095   129492217.82308                                                
  24641552.456    96698732.11709  24641548.672    99221297.76309  24641549.862  
  97960013.32408
 18 04 04 08 28  0.0000000  0 15G05G07G13G15G20G28G30R02R03R11R12R13
                                E07E19E30
  21272112.014   111785695.85809  21272106.808    87105709.52348  21272107.486  
                                                                                
                
  23369218.762   122806065.33408  23369213.875    95693007.96446  23369213.945  
                                                                                
                
  20709187.670   108827516.56109  20709181.758    84800637.59248                
                                                                                
                
  22750188.318   119553055.94908  22750183.154    93158199.58647  22750183.886  
                                                                                
                
  22948966.213   120597627.04208  22948960.491    93972137.86645                
                                                                                
                
  21273026.807   111790513.77308  21273020.732    87109475.06947                
                                                                                
                
  21377534.430   112339700.88409  21377531.283    87537410.81448  21377532.037  
                                                                                
                
  19654751.272   104881515.06409  19654750.583    81574505.94808  19654751.493  
                                                                                
                
  19789473.576   105934603.52708  19789470.689    82393567.47208  19789471.520  
                                                                                
                
  23483395.706   125488129.77307  23483395.474    97601869.15505  23483396.366  
                                                                                
                
  19841595.612   105990242.48508                                                
                                                                                
                
  20010087.126   106852759.85807  20010086.296    83107693.70106  20010087.759  
                                                                                
                
  26522385.189   139376060.82108                                                
  26522388.228   104079529.60409  26522384.208   106794634.93409  26522385.694  
 105437082.14708
  24325716.637   127832506.54109                                                
  24325715.942    95459334.89209  24325712.260    97949567.07809  24325713.502  
  96704446.86508
  24656453.478   129570530.36108                                                
  24656454.841    96757212.24609  24656451.078    99281303.44109  24656452.255  
  98019256.21908
 18 04 04 08 28 30.0000000  0 15G05G07G13G15G20G28G30R02R03R11R12R13
                                E07E19E30
  21284201.200   111849224.81309  21284195.991    87155212.58648  21284196.667  
                                                                                
                
  23385852.451   122893475.88008  23385847.676    95761120.03346  23385847.683  
                                                                                
                
  20700357.626   108781114.47309  20700351.700    84764480.14048                
                                                                                
                
  22733316.207   119464392.51808  22733311.035    93089111.24446  22733311.757  
                                                                                
                
  22935007.740   120524274.41807  22935001.999    93914979.92745                
                                                                                
                
  21268888.933   111768769.10608  21268882.840    87092531.18147                
                                                                                
                
  21390032.876   112405380.59809  21390029.757    87588589.79248  21390030.503  
                                                                                
                
  19666258.947   104942922.13609  19666258.269    81622266.98108  19666259.174  
                                                                                
                
  19777668.581   105871410.56709  19777665.722    82344417.38008  19777666.551  
                                                                                
                
  23506416.015   125611142.87806  23506415.644    97697545.91505  23506416.673  
                                                                                
                
  19854225.537   106057708.85608                                                
                                                                                
                
  19996825.622   106781944.22707  19996824.799    83052614.88906  19996826.265  
                                                                                
                
  26537634.595   139456196.86908                                                
  26537637.636   104139371.42009  26537633.633   106856037.84409  26537635.112  
 105497704.50808
  24316188.473   127782435.75409                                                
  24316187.787    95421944.39009  24316184.111    97911201.17709  24316185.328  
  96666568.66008
  24671383.794   129648989.74908                                                
  24671385.154    96815802.04309  24671381.435    99341421.66009  24671382.586  
  98078610.23108
 18 04 04 08 29  0.0000000  0 15G05G07G13G15G20G28G30R02R03R11R12R13
                                E07E19E30
  21296382.996   111913240.38509  21296377.782    87205094.82048  21296378.456  
                                                                                
                
  23402508.074   122981001.72508  23402503.385    95829321.95445  23402503.351  
                                                                                
                
  20691589.067   108735035.37609  20691583.135    84728574.34448                
                                                                                
                
  22716479.599   119375915.39608  22716474.431    93020168.02446  22716475.125  
                                                                                
                
  22921133.182   120451363.15807  22921127.404    93858165.97145                
                                                                                
                
  21264856.914   111747580.75108  21264850.809    87076020.78847                
                                                                                
                
  21402585.695   112471346.12409  21402582.612    87639991.49248  21402583.351  
                                                                                
                
  19677883.925   105004955.16409  19677883.236    81670514.87708  19677884.142  
                                                                                
                
  19765967.821   105808775.60309  19765964.994    82295701.30508  19765965.814  
                                                                                
                
  23529447.380   125734215.21206  23529446.883    97793268.76405  23529448.024  
                                                                                
                
  19866953.666   106125699.98008                                                
                                                                                
                
  19983672.667   106711708.31607  19983671.849    82997986.97507  19983673.319  
                                                                                
                
  26552912.612   139536483.35908                                                
  26552915.688   104199325.57709  26552911.683   106917556.02509  26552913.159  
 105558440.68308
  24306705.074   127732600.09809                                                
  24306704.401    95384729.43409  24306700.736    97873015.39609  24306701.932  
  96628868.29308
  24686343.900   129727605.58208                                                
  24686345.273    96874508.62509  24686341.601    99401659.72809  24686342.720  
  98138082.55708
 18 04 04 08 29 30.0000000  0 15G05G07G13G15G20G28G30R02R03R11R12R13
                                E07E19E30
  21308655.761   111977734.03909  21308650.531    87255349.59848  21308651.208  
                                                                                
                
  23419184.175   123068635.05708  23419179.537    95897607.60345  23419179.484  
                                                                                
                
  20682880.978   108689274.01209  20682875.031    84692916.13148                
                                                                                
                
  22699677.411   119287619.21308  22699672.264    92951365.79046  22699672.923  
                                                                                
                
  22907341.852   120378889.42108  22907336.054    93801692.95545                
                                                                                
                
  21260929.654   111726942.88008  21260923.548    87059939.33647                
                                                                                
                
  21415191.362   112537589.26209  21415188.294    87691609.49048  21415189.041  
                                                                                
                
  19689624.751   105067606.25509  19689624.055    81719243.46008  19689624.959  
                                                                                
                
  19754370.724   105746695.49809  19754367.930    82247416.77508  19754368.735  
                                                                                
                
  23552488.085   125857337.26705  23552487.523    97889030.27605  23552488.721  
                                                                                
                
  19879778.217   106194206.02508                                                
                                                                                
                
  19970627.276   106642046.74708  19970626.479    82943805.77607  19970627.948  
                                                                                
                
  26568217.874   139616913.01708                                                
  26568221.003   104259386.63809  26568216.974   106979183.89809  26568218.452  
 105619285.15108
  24297265.391   127682994.24709                                                
  24297264.718    95347686.11309  24297261.063    97835005.73109  24297262.243  
  96591341.79808
  24701332.258   129806369.82508                                                
  24701333.659    96933326.01309  24701330.018    99462011.50009  24701331.112  
  98197667.12908
 18 04 04 08 30  0.0000000  0 15G05G07G13G15G20G28G30R02R03R11R12R13
                                E07E19E30
  21321018.889   112042702.49509  21321013.644    87305974.34148  21321014.324  
                                                                                
                
  23435880.159   123156372.93208  23435875.535    95965974.73345  23435875.486  
                                                                                
                
  20674233.265   108643829.91909  20674227.303    84657505.14048                
                                                                                
                
  22682909.681   119199504.31108  22682904.557    92882704.85247  22682905.185  
                                                                                
                
  22893633.864   120306853.50507  22893628.058    93745561.08145                
                                                                                
                
  21257106.945   111706854.33509  21257100.838    87044285.91147                
                                                                                
                
  21427849.227   112604106.81509  21427846.167    87743441.33748  21427846.926  
                                                                                
                
  19701480.860   105130872.62509  19701480.130    81768450.62608  19701481.043  
                                                                                
                
  19742877.601   105685171.90909  19742874.821    82199565.08808  19742875.612  
                                                                                
                
  23575537.276   125980504.86205  23575536.680    97984827.22904  23575537.906  
                                                                                
                
  19892698.191   106263222.07008                                                
                                                                                
                
  19957689.446   106572959.50808  19957688.675    82890071.27806  19957690.136  
                                                                                
                
  26583549.923   139697483.57308                                                
  26583553.097   104319552.94408  26583549.046   107040919.76609  26583550.525  
 105680236.23608
  24287869.388   127633617.96808                                                
  24287868.715    95310814.22109  24287865.066    97797171.96409  24287866.244  
  96553988.97208
  24716348.232   129885279.29008                                                
  24716349.660    96992251.87709  24716346.031    99522474.56609  24716347.115  
  98257361.59908
 18 04 04 08 30 30.0000000  0 15G05G07G13G15G20G28G30R02R03R11R12R13
                                E07E19E30
  21333471.627   112108141.90109  21333466.361    87356966.06548  21333467.045  
                                                                                
                
  23452595.347   123244211.73308  23452590.706    96034420.53345  23452590.658  
                                                                                
                
  20665645.724   108598702.07609  20665639.756    84622340.59248                
                                                                                
                
  22666176.380   119111570.15208  22666171.272    92814184.71646  22666171.880  
                                                                                
                
  22880009.301   120235255.90707  22880003.489    93689770.74944                
                                                                                
                
  21253388.475   111687313.69608  21253382.358    87029059.45847                
                                                                                
                
  21440558.577   112670894.89409  21440555.510    87795483.97848  21440556.289  
                                                                                
                
  19713451.578   105194750.59809  19713450.831    81818133.48408  19713451.742  
                                                                                
                
  19731488.512   105624205.25209  19731485.741    82152146.58308  19731486.517  
                                                                                
                
  23598594.095   126103713.15306  23598593.507    98080655.81704  23598594.752  
                                                                                
                
  19905712.524   106332742.22108                                                
                                                                                
                
  19944858.928   106504445.27308  19944858.183    82836782.43106  19944859.631  
                                                                                
                
  26598908.256   139778192.14808                                                
  26598911.469   104379822.27408  26598907.404   107102761.31909  26598908.897  
 105741291.68007
  24278516.892   127584470.31008                                                
  24278516.238    95274113.03209  24278512.590    97759513.35509  24278513.769  
  96516809.07508
  24731391.146   129964330.20008                                                
  24731392.608    97051283.34809  24731388.972    99583045.99909  24731390.052  
  98317163.05208
 18 04 04 08 31  0.0000000  0 15G05G07G13G15G20G28G30R02R03R11R12R13
                                E07E19E30
  21346014.993   112174057.64309  21346009.715    87408328.96848  21346010.405  
                                                                                
                
  23469331.058   123332158.21808  23469326.379    96102950.23445  23469326.339  
                                                                                
                
  20657120.099   108553899.57609  20657114.132    84587429.55648                
                                                                                
                
  22649479.195   119023825.97208  22649474.071    92745812.66946  22649474.677  
                                                                                
                
  22866470.127   120164106.87907  22866464.309    93634329.92245                
                                                                                
                
  21249775.847   111668329.24108  21249769.729    87014266.37647                
                                                                                
                
  21453320.593   112737959.75509  21453317.504    87847742.31348  21453318.298  
                                                                                
                
  19725538.248   105259247.26509  19725537.490    81868297.53408  19725538.406  
                                                                                
                
  19720205.688   105563807.32409  19720202.934    82105170.40408  19720203.698  
                                                                                
                
  23621659.547   126226967.34906  23621659.026    98176520.06704  23621660.260  
                                                                                
                
  19918822.238   106402771.54108                                                
                                                                                
                
  19932137.491   106436513.52908  19932136.735    82783946.64106  19932138.185  
                                                                                
                
  26614294.178   139859045.78808                                                
  26614297.386   104440199.97608  26614293.312   107164714.08509  26614294.833  
 105802456.90507
  24269209.625   127535560.43508                                                
  24269208.994    95237589.43809  24269205.337    97722036.97109  24269206.516  
  96479809.08308
  24746462.176   130043528.88308                                                
  24746463.668    97110425.19909  24746460.007    99643730.69609  24746461.087  
  98377076.32808
 18 04 04 08 31 30.0000000  0 14G05G07G13G15G20G28G30R02R03R12R13E07
                                E19E30
  21358648.297   112240446.04109  21358643.019    87460060.17048  21358643.709  
                                                                                
                
  23486086.684   123420209.29908  23486081.982    96171561.44245  23486081.924  
                                                                                
                
  20648656.254   108509421.82809  20648650.295    84552771.58248                
                                                                                
                
  22632818.164   118936271.75208  22632813.043    92677588.62846  22632813.642  
                                                                                
                
  22853016.293   120093406.75606  22853010.447    93579239.00245                
                                                                                
                
  21246268.788   111649899.60008  21246262.668    86999905.62747                
                                                                                
                
  21466134.673   112805298.00009  21466131.581    87900213.62448  21466132.384  
                                                                                
                
  19737740.244   105324359.35909  19737739.478    81918940.24508  19737740.400  
                                                                                
                
  19709029.250   105503979.02009  19709026.514    82058637.28208  19709027.274  
                                                                                
                
  19932026.321   106473304.97008                                                
                                                                                
                
  19919525.040   106369163.83908  19919524.283    82731563.57306  19919525.732  
                                                                                
                
  26629707.270   139940042.07808                                                
  26629710.456   104500684.18308  26629706.362   107226776.16508  26629707.938  
 105863730.04607
  24259947.507   127486887.83409                                                
  24259946.909    95201243.03809  24259943.222    97684742.38609  24259944.405  
  96442988.59208
  24761560.712   130122872.02108                                                
  24761562.250    97169674.90209  24761558.542    99704526.03109  24761559.628  
  98437098.84908
 18 04 04 08 32  0.0000000  0 14G05G07G13G15G20G28G30R02R03R12R13E07
                                E19E30
  21371370.759   112307303.01109  21371365.484    87512156.49648  21371366.179  
                                                                                
                
  23502861.573   123508361.55108  23502856.885    96240251.48445  23502856.773  
                                                                                
                
  20640254.064   108465268.06209  20640248.118    84518366.05248                
                                                                                
                
  22616193.186   118848906.96808  22616188.085    92609512.19147  22616188.671  
                                                                                
                
  22839647.990   120023155.79607  22839642.149    93524497.96945                
                                                                                
                
  21242867.003   111632023.17008  21242860.899    86985975.94648                
                                                                                
                
  21478999.998   112872905.74509  21478996.923    87952894.97248  21478997.726  
                                                                                
                
  19750056.891   105390083.29509  19750056.129    81970058.85408  19750057.047  
                                                                                
                
  19697959.433   105444721.47709  19697956.727    82012548.08508  19697957.483  
                                                                                
                
  19945323.649   106544336.73408                                                
                                                                                
                
  19907021.363   106302394.99908  19907020.597    82679632.27206  19907022.050  
                                                                                
                
  26645146.944   140021178.05608                                                
  26645150.103   104561272.70308  26645145.995   107288945.26908  26645147.630  
 105925108.86707
  24250730.406   127438451.65408                                                
  24250729.841    95165073.15509  24250726.120    97647628.94709  24250727.312  
  96406346.92808
  24776686.018   130202355.84608                                                
  24776687.615    97229029.65909  24776683.853    99765429.18509  24776684.945  
  98497227.79808
 18 04 04 08 32 30.0000000  0 14G05G07G13G15G20G28G30R02R03R12R13E07
                                E19E30
  21384181.855   112374625.75109  21384176.594    87564615.76048  21384177.285  
                                                                                
                
  23519655.303   123596612.76408  23519650.658    96309018.63445  23519650.466  
                                                                                
                
  20631913.627   108421438.79109  20631907.691    84484213.37348                
                                                                                
                
  22599604.415   118761732.40708  22599599.329    92541583.97946  22599599.898  
                                                                                
                
  22826365.447   119953355.57307  22826359.608    93470108.17045                
                                                                                
                
  21239570.409   111614699.55308  21239564.324    86972477.02847                
                                                                                
                
  21491916.150   112940780.63509  21491913.076    88005784.50948  21491913.883  
                                                                                
                
  19762487.839   105456417.10609  19762487.087    82021651.79908  19762487.999  
                                                                                
                
  19686996.648   105386036.87409  19686993.955    81966904.51708  19686994.703  
                                                                                
                
  19958713.520   106615862.99508                                                
                                                                                
                
  19894626.549   106236207.38808  19894625.783    82628153.03006  19894627.233  
                                                                                
                
  26660612.924   140102452.24608                                                
  26660616.068   104621964.42708  26660611.956   107351220.26909  26660613.634  
 105986592.23208
  24241558.383   127390252.36808                                                
  24241557.834    95129080.18709  24241554.086    97610697.03009  24241555.287  
  96369884.48808
  24791837.655   130281978.04908                                                
  24791839.303    97288487.75209  24791835.486    99826438.36109  24791836.592  
  98557461.43808
 18 04 04 08 33  0.0000000  0 14G05G07G13G15G20G28G30R02R03R12R13E07
                                E19E30
  21397081.912   112442415.97409  21397076.665    87617439.29148  21397077.352  
                                                                                
                
  23536468.398   123684965.70508  23536463.800    96377865.05345  23536463.514  
                                                                                
                
  20623635.849   108377938.78709  20623629.919    84450317.26148                
                                                                                
                
  22583052.827   118674753.30708  22583047.739    92473808.07846  22583048.305  
                                                                                
                
  22813169.749   119884011.92207  22813163.923    93416074.18746                
                                                                                
                
  21236379.743   111597932.64008  21236373.670    86959411.91947                
                                                                                
                
  21504883.562   113008924.71909  21504880.507    88058883.76548  21504881.310  
                                                                                
                
  19775033.495   105523363.01009  19775032.723    82073720.80908  19775033.653  
                                                                                
                
  19676142.179   105327932.06209  19676139.472    81921711.88808  19676140.219  
                                                                                
                
  19972196.012   106687884.09808                                                
                                                                                
                
  19882341.497   106170606.00107  19882340.725    82577129.75906  19882342.170  
                                                                                
                
  26676105.777   140183867.56908                                                
  26676108.914   104682761.53808  26676104.788   107413603.40209  26676106.501  
 106048182.35108
  24232432.385   127342294.93808                                                
  24232431.854    95093267.81509  24232428.093    97573950.42909  24232429.293  
  96333604.99808
  24807016.012   130361740.73708                                                
  24807017.681    97348050.77408  24807013.832    99887555.20109  24807014.951  
  98617801.36508
 18 04 04 08 33 30.0000000  0 14G05G07G13G15G20G28G30R02R03R12R13E07
                                E19E30
  21410069.518   112510666.29809  21410064.294    87670621.34048  21410064.976  
                                                                                
                
  23553299.636   123773413.82308  23553295.077    96446785.60945  23553294.695  
                                                                                
                
  20615420.005   108334764.28709  20615414.076    84416674.79948                
                                                                                
                
  22566537.770   118587966.12408  22566532.659    92406181.70446  22566533.241  
                                                                                
                
  22800060.452   119815122.12807  22800054.633    93362393.83845                
                                                                                
                
  21233294.131   111581717.73108  21233288.067    86946776.93648                
                                                                                
                
  21517900.886   113077331.17409  21517897.865    88112187.47948  21517898.655  
                                                                                
                
  19787692.655   105590914.60109  19787691.866    82126260.91508  19787692.813  
                                                                                
                
  19665395.639   105270405.01409  19665392.906    81876968.64308  19665393.648  
                                                                                
                
  19985769.537   106760391.46108                                                
                                                                                
                
  19870165.432   106105586.53707  19870164.668    82526559.08206  19870166.104  
                                                                                
                
  26691624.356   140265418.09108                                                
  26691627.489   104743659.63708  26691623.335   107476090.13709  26691625.068  
 106109874.76608
  24223351.656   127294575.46908                                                
  24223351.133    95057633.15409  24223347.385    97537386.17509  24223348.576  
  96297505.54108
  24822219.831   130441637.20108                                                
  24822221.495    97407713.69008  24822217.639    99948774.54409  24822218.770  
  98678242.50008
 18 04 04 08 34  0.0000000  0 14G05G07G13G15G20G28G30R02R03R12R13E07
                                E19E30
  21423145.417   112579380.65209  21423140.212    87724164.98148  21423140.890  
                                                                                
                
  23570149.898   123861961.89708  23570145.343    96515784.05546  23570144.893  
                                                                                
                
  20607267.442   108291922.30909  20607261.516    84383291.44248                
                                                                                
                
  22550060.679   118501378.37408  22550055.527    92338710.71146  22550056.122  
                                                                                
                
  22787039.019   119746693.87507  22787033.172    93309073.10345                
                                                                                
                
  21230314.800   111566061.27109  21230308.738    86934577.10047                
                                                                                
                
  21530968.946   113146004.26709  21530965.948    88165698.98448  21530966.721  
                                                                                
                
  19800466.161   105659076.37209  19800465.361    82179275.60508  19800466.314  
                                                                                
                
  19654758.775   105213465.00509  19654756.021    81832681.96008  19654756.765  
                                                                                
                
  19999434.545   106833387.83108                                                
                                                                                
                
  19858099.718   106041156.35808  19858098.954    82476446.72706  19858100.385  
                                                                                
                
  26707169.672   140347109.07008                                                
  26707172.815   104804662.59309  26707168.665   107538684.49109  26707170.392  
 106171673.42208
  24214317.583   127247101.18109                                                
  24214317.064    95022181.58109  24214313.336    97501009.76909  24214314.514  
  96261591.55108
  24837449.947   130521671.83108                                                
  24837451.583    97467479.78308  24837447.737   100010099.74409  24837448.874  
  98738788.14608
 18 04 04 08 34 30.0000000  0 14G05G07G13G15G20G28G30R02R03R12R13E07
                                E19E30
  21436308.128   112648551.13509  21436302.939    87778064.02947  21436303.614  
                                                                                
                
  23587017.769   123950602.48108  23587013.203    96584854.56845  23587012.713  
                                                                                
                
  20599177.252   108249408.03309  20599171.324    84350163.43048                
                                                                                
                
  22533620.768   118414986.14608  22533615.581    92271392.11746  22533616.185  
                                                                                
                
  22774104.886   119678724.55107  22774099.006    93256110.01346                
                                                                                
                
  21227440.657   111550957.63008  21227434.585    86922808.05147                
                                                                                
                
  21544086.310   113214936.33909  21544083.321    88219412.26348  21544084.082  
                                                                                
                
  19813352.570   105727840.61109  19813351.766    82232758.87508  19813352.722  
                                                                                
                
  19644230.866   105157108.22008  19644228.094    81788848.90108  19644228.840  
                                                                                
                
  20013189.329   106906863.59408                                                
                                                                                
                
  19846143.427   105977310.47208  19846142.659    82426788.82806  19846144.081  
                                                                                
                
  26722740.399   140428933.58808                                                
  26722743.542   104865765.26509  26722739.439   107601381.14609  26722741.127  
 106233573.08208
  24205329.250   127199867.23709                                                
  24205328.737    94986909.47909  24205325.028    97464817.52609  24205326.196  
  96225859.37608
  24852704.904   130601836.96808                                                
  24852706.504    97527343.33208  24852702.666   100071524.93209  24852703.807  
  98799432.51108
 18 04 04 08 35  0.0000000  0 14G05G07G13G15G20G28G30R02R03R12R13E07
                                E19E30
  21449557.883   112718179.04509  21449552.698    87832319.52548  21449553.376  
                                                                                
                
  23603903.676   124039338.07308  23603899.083    96653999.14246  23603898.584  
                                                                                
                
  20591150.294   108207226.06309  20591144.358    84317294.37048                
                                                                                
                
  22517219.000   118328794.44308  22517213.807    92204229.79446  22517214.412  
                                                                                
                
  22761259.028   119611219.07907  22761253.129    93203508.34745                
                                                                                
                
  21224672.451   111536410.62409  21224666.388    86911472.72448                
                                                                                
                
  21557253.296   113284129.27709  21557250.313    88273328.82948  21557251.064  
                                                                                
                
  19826352.328   105797209.72809  19826351.530    82286712.61508  19826352.485  
                                                                                
                
  19633813.253   105101341.90408  19633810.486    81745475.10408  19633811.224  
                                                                                
                
  20027033.909   106980819.08008                                                
                                                                                
                
  19834297.397   105914053.48108  19834296.613    82377588.96507  19834298.036  
                                                                                
                
  26738337.061   140510894.47508                                                
  26738340.212   104926969.79409  26738336.165   107664182.32209  26738337.793  
 106295575.93908
  24196387.566   127152878.49308                                                
  24196387.057    94951820.49809  24196383.357    97428813.17809  24196384.522  
  96190312.71608
  24867985.081   130682134.63108                                                
  24867986.658    97587305.84908  24867982.807   100133051.70109  24867983.957  
  98860177.15708
 18 04 04 08 35 30.0000000  0 15G05G07G13G15G20G28G30R02R03R04R12R13
                                E07E19E30
  21462894.045   112788261.03209  21462888.860    87886928.85448  21462889.540  
                                                                                
                
  23620807.186   124128166.06308  23620802.578    96723215.66446  23620802.092  
                                                                                
                
  20583186.545   108165376.27409  20583180.610    84284684.15348                
                                                                                
                
  22500855.390   118242803.00609  22500850.191    92137223.46646  22500850.793  
                                                                                
                
  22748501.569   119544178.30007  22748495.641    93151268.79746                
                                                                                
                
  21222009.969   111522419.20709  21222003.922    86900570.33247                
                                                                                
                
  21570469.369   113353580.10609  21570466.382    88327446.34748  21570467.126  
                                                                                
                
  19839464.899   105867180.91409  19839464.100    82341134.64408  19839465.054  
                                                                                
                
  19623506.263   105046167.74308  19623503.506    81702561.86408  19623504.243  
                                                                                
                
  23540970.687   126060832.07015  23540966.932    98047293.43615  23540970.258  
                                                                                
                
  20040967.414   107055249.72908                                                
                                                                                
                
  19822561.563   105851384.80607  19822560.795    82328846.67906  19822562.202  
                                                                                
                
  26753959.259   140592989.59008                                                
  26753962.424   104988274.56709  26753958.421   107727086.34709  26753959.992  
 106357680.33508
  24187492.526   127106134.84809                                                
  24187492.036    94916914.54209  24187488.326    97392996.62709  24187489.490  
  96154951.46108
  24883289.927   130762561.93808                                                
  24883291.498    97647365.18008  24883287.607   100194677.80009  24883288.775  
  98921019.86908
 18 04 04 08 36  0.0000000  0 15G05G07G13G15G20G28G30R02R03R04R12R13
                                E07E19E30
  21476315.988   112858793.71809  21476310.800    87941889.36348  21476311.487  
                                                                                
                
  23637727.865   124217084.51308  23637723.226    96792502.71246  23637722.774  
                                                                                
                
  20575286.130   108123859.31209  20575280.203    84252333.27548                
                                                                                
                
  22484530.197   118157013.56208  22484524.972    92070374.56246  22484525.579  
                                                                                
                
  22735832.897   119477604.10107  22735826.960    93099392.81846                
                                                                                
                
  21219453.129   111508982.90908  21219447.091    86890100.49447                
                                                                                
                
  21583734.096   113423286.52709  21583731.089    88381763.01348  21583731.836  
                                                                                
                
  19852689.854   105937751.68209  19852689.090    82396022.97108  19852690.026  
                                                                                
                
  19613310.257   104991587.73809  19613307.505    81660110.75308  19613308.246  
                                                                                
                
  23517564.338   125935492.63805  23517560.872    97949807.24905  23517563.657  
                                                                                
                
  20054989.122   107130151.29008                                                
                                                                                
                
  19810935.976   105789305.11407  19810935.235    82280562.52106  19810936.627  
                                                                                
                
  26769606.756   140675217.49208                                                
  26769609.921   105049678.46609  26769605.964   107790092.08709  26769607.487  
 106419885.15108
  24178644.261   127059636.90309                                                
  24178643.788    94882192.04209  24178640.079    97357368.33609  24178641.233  
  96119776.06708
  24898619.027   130843116.67808                                                
  24898620.606    97707519.65709  24898616.665   100256401.53609  24898617.860  
  98981958.97408
 18 04 04 08 36 30.0000000  0 15G05G07G13G15G20G28G30R02R03R04R12R13
                                E07E19E30
  21489824.250   112929780.06209  21489819.048    87997203.39548  21489819.741  
                                                                                
                
  23654666.449   124306097.13908  23654661.763    96861863.15546  23654661.369  
                                                                                
                
  20567450.207   108082681.22209  20567444.282    84220246.44748                
                                                                                
                
  22468244.515   118071431.96708  22468239.292    92003687.64847  22468239.898  
                                                                                
                
  22723254.299   119411503.25507  22723248.379    93047885.66946                
                                                                                
                
  21217002.859   111496106.72108  21216996.820    86880067.12247                
                                                                                
                
  21597048.056   113493251.76109  21597045.027    88436281.36448  21597045.783  
                                                                                
                
  19866027.829   106008925.60709  19866027.079    82451380.45408  19866028.009  
                                                                                
                
  19603226.752   104937610.01009  19603224.013    81618128.07408  19603224.756  
                                                                                
                
  23494170.574   125810221.01206  23494167.663    97852373.78106  23494169.787  
                                                                                
                
  20069099.386   107205525.56108                                                
                                                                                
                
  19799421.892   105727820.57208  19799421.180    82232741.20306  19799422.562  
                                                                                
                
  26785280.302   140757582.24908                                                
  26785283.465   105111184.56309  26785279.542   107853202.70709  26785281.029  
 106482193.51508
  24169843.919   127013390.77909                                                
  24169843.449    94847657.59809  24169839.746    97321932.98109  24169840.889  
  96084791.16608
  24913973.001   130923802.18108                                                
  24913974.588    97767771.78109  24913970.600   100318225.45309  24913971.830  
  99042996.99508
 18 04 04 08 37  0.0000000  0 15G05G07G13G15G20G28G30R02R03R04R12R13
                                E07E19E30
  21503417.038   113001210.49809  21503411.826    88052863.45148  21503412.524  
                                                                                
                
  23671621.291   124395195.17108  23671616.539    96931290.13946  23671616.217  
                                                                                
                
  20559677.584   108041835.76509  20559671.653    84188418.81548                
                                                                                
                
  22451997.357   117986052.54308  22451992.138    91937158.20846  22451992.750  
                                                                                
                
  22710764.839   119345870.75708  22710758.955    92996743.42845                
                                                                                
                
  21214657.815   111483783.45109  21214651.784    86870464.58048                
                                                                                
                
  21610409.556   113563466.77509  21610406.501    88490994.34548  21610407.263  
                                                                                
                
  19879477.101   106080693.42409  19879476.371    82507199.84608  19879477.294  
                                                                                
                
  19593254.906   104884230.04609  19593252.192    81576610.32908  19593252.931  
                                                                                
                
  23470788.694   125685012.28606  23470786.395    97754989.24906  23470787.918  
                                                                                
                
  20083296.038   107281361.44108                                                
                                                                                
                
  19788017.997   105666924.37008  19788017.270    82185377.47606  19788018.650  
                                                                                
                
  26800978.340   140840075.68308                                                
  26800981.511   105172786.75109  26800977.591   107916411.91709  26800979.056  
 106544599.21308
  24161090.334   126967390.30809                                                
  24161089.856    94813306.59109  24161086.167    97286685.87609  24161087.301  
  96049992.11208
  24929350.142   131004609.44308                                                
  24929351.741    97828114.80809  24929347.732   100380142.67309  24929348.996  
  99104127.11708
 18 04 04 08 37 30.0000000  0 15G05G07G13G15G20G28G30R02R03R04R12R13
                                E07E19E30
  21517095.747   113073092.50909  21517090.532    88108875.39248  21517091.233  
                                                                                
                
  23688593.982   124484387.09708  23688589.152    97000790.30245  23688588.904  
                                                                                
                
  20551970.323   108001333.83709  20551964.376    84156858.87948                
                                                                                
                
  22435790.883   117900886.97509  22435785.641    91870795.43547  22435786.266  
                                                                                
                
  22698366.654   119280718.17507  22698360.775    92945975.23146                
                                                                                
                
  21212419.858   111472022.87209  21212413.838    86861300.49048                
                                                                                
                
  21623820.065   113633939.37509  21623816.994    88545908.04448  21623817.762  
                                                                                
                
  19893039.212   106153063.37609  19893038.500    82563487.56708  19893039.419  
                                                                                
                
  19583397.103   104831460.50009  19583394.424    81535567.33408  19583395.161  
                                                                                
                
  23447420.926   125559879.14906  23447419.059    97657663.49806  23447420.212  
                                                                                
                
  20097580.308   107357665.31708                                                
                                                                                
                
  19776726.055   105606626.09907  19776725.300    82138478.84607  19776726.674  
                                                                                
                
  26816702.501   140922706.42308                                                
  26816705.676   105234491.47109  26816701.754   107979726.33409  26816703.211  
 106607108.78308
  24152385.522   126921646.18309                                                
  24152385.040    94779147.01809  24152381.338    97251635.17509  24152382.484  
  96015386.97408
  24944751.937   131085546.36008                                                
  24944753.540    97888554.66409  24944749.529   100442159.23309  24944750.830  
  99165355.33108
 18 04 04 08 38  0.0000000  0 15G05G07G13G15G20G28G30R02R03R04R12R13
                                E07E19E30
  21530858.071   113145413.92909  21530852.851    88165229.73248  21530853.556  
                                                                                
                
  23705582.357   124573661.47208  23705577.453    97070354.70045  23705577.288  
                                                                                
                
  20544326.720   107961166.32809  20544320.754    84125559.50948                
                                                                                
                
  22419623.433   117815926.48208  22419618.155    91804592.47047  22419618.792  
                                                                                
                
  22686058.360   119216037.77708  22686052.494    92895574.92446                
                                                                                
                
  21210287.119   111460815.21608  21210281.114    86852567.25847                
                                                                                
                
  21637277.393   113704658.09109  21637274.310    88601013.52548  21637275.082  
                                                                                
                
  19906711.940   106226023.61709  19906711.241    82620234.39708  19906712.165  
                                                                                
                
  19573651.915   104779293.71809  19573649.254    81494993.16308  19573649.996  
                                                                                
                
  23424065.913   125434814.72606  23424064.453    97560391.20807  23424065.318  
                                                                                
                
  20111949.712   107434423.69708                                                
                                                                                
                
  19765544.589   105546917.84807  19765543.848    82092039.13207  19765545.203  
                                                                                
                
  26832450.732   141005463.80708                                                
  26832453.907   105296290.78609  26832449.982   108043137.80609  26832451.445  
 106669714.17608
  24143727.843   126876149.84708                                                
  24143727.361    94745172.50009  24143723.629    97216774.36309  24143724.802  
  95980969.30808
  24960176.253   131166601.63108                                                
  24960177.856    97949082.89909  24960173.855   100504266.47109  24960175.187  
  99226673.06608
 18 04 04 08 38 30.0000000  0 15G05G07G13G15G20G28G30R02R03R04R12R13
                                E07E19E30
  21544704.477   113218177.14609  21544699.255    88221928.31748  21544699.964  
                                                                                
                
  23722587.122   124663022.06508  23722582.149    97139986.28745  23722582.068  
                                                                                
                
  20536747.868   107921339.17109  20536741.880    84094525.36448                
                                                                                
                
  22403496.209   117731177.35609  22403490.907    91738554.20347  22403491.558  
                                                                                
                
  22673841.213   119151836.17208  22673835.346    92845547.67646                
                                                                                
                
  21208260.477   111450165.16508  21208254.492    86844268.52947                
                                                                                
                
  21650782.097   113775625.73309  21650779.027    88656312.97048  21650779.784  
                                                                                
                
  19920495.872   106299577.23709  19920495.184    82677442.75108  19920496.115  
                                                                                
                
  19564020.820   104727737.69509  19564018.141    81454894.03508  19564018.900  
                                                                                
                
  23400724.958   125309826.24106  23400723.912    97463177.96307  23400724.579  
                                                                                
                
  20126404.413   107511637.90808                                                
                                                                                
                
  19754474.586   105487804.76908  19754473.879    82046062.30406  19754475.226  
                                                                                
                
  26848223.762   141088351.52208                                                
  26848226.942   105358187.41409  26848223.009   108106649.12809  26848224.491  
 106732418.14808
  24135118.409   126830906.99009                                                
  24135117.928    94711387.24909  24135114.163    97182107.74809  24135115.370  
  95946743.37608
  24975623.646   131247778.15008                                                
  24975625.248    98009701.67709  24975621.265   100566466.61009  24975622.615  
  99288082.52408
 18 04 04 08 39  0.0000000  0 16G05G07G13G15G20G28G30R02R03R04R12R13
                                R14E07E19E30
  21558634.595   113291380.29309  21558629.380    88278969.70248  21558630.087  
                                                                                
                
  23739608.077   124752467.69308  23739603.070    97209684.10645  23739603.069  
                                                                                
                
  20529234.138   107881854.20309  20529228.148    84063757.84848                
                                                                                
                
  22387409.658   117646641.98808  22387404.345    91672682.50947  22387404.998  
                                                                                
                
  22661715.611   119088115.89307  22661709.729    92795895.56746                
                                                                                
                
  21206340.026   111440073.15509  21206334.051    86836404.63247                
                                                                                
                
  21664333.965   113846841.16809  21664330.896    88711805.50248  21664331.638  
                                                                                
                
  19934390.752   106373722.94809  19934390.097    82735111.60708  19934391.021  
                                                                                
                
  19554504.437   104676795.77708  19554501.729    81415272.55608  19554502.508  
                                                                                
                
  23377398.876   125184917.35207  23377398.090    97366026.60806  23377398.688  
                                                                                
                
  20140943.839   107589304.99508                                                
                                                                                
                
  19743516.344   105429288.39908  19743515.647    82000549.57106  19743516.993  
                                                                                
                
  23462972.275   125070836.27315                                  23462975.099  
                                                                                
                
  26864021.514   141171369.17008                                                
  26864024.702   105420181.06909  26864020.761   108170260.01009  26864022.263  
 106795220.41708
  24126557.532   126785919.27009                                                
  24126557.048    94677792.51609  24126553.263    97147636.63909  24126554.496  
  95912710.45208
  24991093.893   131329074.73408                                                
  24991095.507    98070410.10709  24991091.558   100628758.75109  24991092.899  
  99349582.80608
 18 04 04 08 39 30.0000000  0 15G05G07G13G15G20G28G30R02R03R04R12R13
                                E07E19E30
  21572647.641   113365019.25109  21572642.436    88336350.68148  21572643.144  
                                                                                
                
  23756644.683   124841995.68908  23756639.681    97279446.11645  23756639.734  
                                                                                
                
  20521785.369   107842710.66609  20521779.391    84033256.39248                
                                                                                
                
  22371363.727   117562320.08409  22371358.414    91606977.14647  22371359.060  
                                                                                
                
  22649681.754   119024877.43408  22649675.868    92746618.83445                
                                                                                
                
  21204525.424   111430537.41308  21204519.463    86828974.19348                
                                                                                
                
  21677932.324   113918300.92209  21677929.258    88767488.41248  21677929.987  
                                                                                
                
  19948395.905   106448457.07709  19948395.292    82793238.12408  19948396.217  
                                                                                
                
  19545102.911   104626468.68208  19545100.200    81376129.25408  19545100.992  
                                                                                
                
  23354087.869   125060089.01706  23354087.200    97268937.90907  23354087.826  
                                                                                
                
  20155567.074   107667419.66108                                                
                                                                                
                
  19732669.672   105371367.63807  19732668.954    81955500.08106  19732670.308  
                                                                                
                
  26879843.508   141254514.16008                                                
  26879846.712   105482269.80409  26879842.758   108233968.45909  26879844.280  
 106858119.00708
  24118045.103   126741186.17709                                                
  24118044.613    94644387.93409  24118040.819    97113360.63109  24118042.070  
  95878870.16008
  25006586.358   131410488.12008                                                
  25006587.995    98131205.76609  25006584.095   100691140.38809  25006585.403  
  99411171.46208
 18 04 04 08 40  0.0000000  0 16G05G07G13G15G20G28G30R02R03R04R12R13
                                R14E07E19E30
  21586743.882   113439095.48209  21586738.685    88394072.41047  21586739.396  
                                                                                
                
  23773697.420   124931608.49608  23773692.464    97349274.21045  23773692.552  
                                                                                
                
  20514402.477   107803913.38409  20514396.517    84003024.75548                
                                                                                
                
  22355359.368   117478216.63708  22355354.058    91541442.00447  22355354.702  
                                                                                
                
  22637740.654   118962126.41308  22637734.746    92697721.92446                
                                                                                
                
  21202817.454   111421561.98809  21202811.500    86821980.36347                
                                                                                
                
  21691577.588   113990007.10509  21691574.522    88823363.33248  21691575.239  
                                                                                
                
  19962511.759   106523781.99309  19962511.179    82851824.14608  19962512.117  
                                                                                
                
  19535817.475   104576763.12308  19535814.780    81337469.38408  19535815.571  
                                                                                
                
  23330793.252   124935348.11306  23330792.625    97171917.20807  23330793.286  
                                                                                
                
  20170274.178   107745982.45208                                                
                                                                                
                
  19721935.332   105314047.00008  19721934.564    81910917.39206  19721935.947  
                                                                                
                
  23417711.709   124829566.52414                                                
                                                                                
                
  26895690.273   141337789.34208                                                
  26895693.496   105544455.77409  26895689.514   108297776.68109  26895691.061  
 106921116.10608
  24109582.041   126696712.60509                                                
  24109581.550    94611177.17109  24109577.745    97079283.49609  24109579.011  
  95845226.21408
  25022101.474   131492020.48408                                                
  25022103.141    98192090.26509  25022099.306   100753613.19209  25022100.552  
  99472850.10708
 18 04 04 08 40 30.0000000  0 15G05G07G13G15G20G28G30R02R03R04R12R13
                                E07E19E30
  21600923.832   113513611.58509  21600918.647    88452136.88847  21600919.357  
                                                                                
                
  23790766.894   125021309.35908  23790762.023    97419170.93845  23790762.118  
                                                                                
                
  20507086.601   107765468.22709  20507080.660    83973067.49348                
                                                                                
                
  22339397.873   117394338.48509  22339392.572    91476082.41346  22339393.223  
                                                                                
                
  22625893.625   118899869.84308  22625887.699    92649210.33346                
                                                                                
                
  21201216.979   111413151.48209  21201211.021    86815426.73747                
                                                                                
                
  21705270.350   114061962.77209  21705267.280    88879432.65048  21705267.981  
                                                                                
                
  19976738.838   106599700.46109  19976738.283    82910871.81608  19976739.241  
                                                                                
                
  19526649.633   104527686.97008  19526646.962    81299299.04008  19526647.751  
                                                                                
                
  23307516.395   124810701.99606  23307515.730    97074970.23507  23307516.395  
                                                                                
                
  20185065.393   107824994.60908                                                
                                                                                
                
  19711314.326   105257331.61408  19711313.557    81866805.46606  19711314.947  
                                                                                
                
  26911562.558   141421198.57108                                                
  26911565.817   105606741.82609  26911561.808   108361687.59809  26911563.366  
 106984214.59308
  24101169.515   126652504.54409                                                
  24101169.042    94578164.65609  24101165.205    97045409.78009  24101166.494  
  95811783.09808
  25037639.818   131573674.91208                                                
  25037641.508    98253065.93509  25037637.729   100816179.53709  25037638.914  
  99534621.11708
 18 04 04 08 41  0.0000000  0 15G05G07G13G15G20G28G30R02R03R04R12R13
                                E07E19E30
  21615182.435   113588541.02809  21615177.273    88510523.44048  21615177.988  
                                                                                
                
  23807848.344   125111073.21707  23807843.595    97489116.75846  23807843.674  
                                                                                
                
  20499833.367   107727352.19409  20499827.440    83943366.68148                
                                                                                
                
  22323474.950   117310662.93608  22323469.640    91410880.68047  22323470.297  
                                                                                
                
  22614136.442   118838085.29107  22614130.515    92601066.52246                
                                                                                
                
  21199719.405   111405281.72308  21199713.452    86809294.46448                
                                                                                
                
  21719005.649   114134142.09709  21719002.576    88935676.27048  21719003.259  
                                                                                
                
  19991072.240   106676186.16409  19991071.742    82970360.66808  19991072.701  
                                                                                
                
  19517595.267   104479218.28609  19517592.616    81261601.17308  19517593.405  
                                                                                
                
  23284253.333   124686129.61306  23284252.571    96978080.61207  23284253.229  
                                                                                
                
  20199935.540   107904428.10908                                                
                                                                                
                
  19700802.336   105201198.16508  19700801.579    81823146.10906  19700802.968  
                                                                                
                
  26927455.576   141504716.81408                                                
  26927458.883   105669109.28709  26927454.861   108425682.04309  26927456.412  
 107047395.54708
  24092803.125   126608538.92109                                                
  24092802.665    94545333.18609  24092798.795    97011721.84109  24092800.112  
  95778523.39708
  25053196.532   131655425.75908                                                
  25053198.254    98314113.58109  25053194.499   100878819.73209  25053195.643  
  99596465.03508
 18 04 04 08 41 30.0000000  0 15G05G07G13G15G20G28G30R02R03R04R12R13
                                E07E19E30
  21629526.874   113663921.51709  21629521.751    88569261.44248  21629522.466  
                                                                                
                
  23824949.217   125200939.18207  23824944.603    97559142.12845  23824944.671  
                                                                                
                
  20492650.637   107689606.71009  20492644.714    83913954.62548                
                                                                                
                
  22307598.524   117227231.85608  22307593.194    91345869.46847  22307593.860  
                                                                                
                
  22602477.114   118776815.01508  22602471.187    92553323.44846                
                                                                                
                
  21198332.429   111397993.13309  21198326.472    86803615.05147                
                                                                                
                
  21732790.892   114206583.84109  21732787.820    88992124.35048  21732788.497  
                                                                                
                
  20005519.284   106753278.40409  20005518.818    83030321.28508  20005519.783  
                                                                                
                
  19508662.620   104431401.14309  19508660.012    81224410.05608  19508660.790  
                                                                                
                
  23261012.255   124561674.97606  23261011.342    96881282.60507  23261012.015  
                                                                                
                
  20214891.661   107984320.64508                                                
                                                                                
                
  19690407.044   105145687.89508  19690406.265    81779971.46706  19690407.656  
                                                                                
                
  26943376.869   141588383.57408                                                
  26943380.221   105731587.65009  26943376.197   108489790.28809  26943377.725  
 107110688.85008
  24084490.799   126564857.39909                                                
  24084490.334    94512713.87809  24084486.453    96978251.59109  24084487.781  
  95745478.61308
  25068778.979   131737311.86008                                                
  25068780.741    98375262.23309  25068776.968   100941563.57709  25068778.109  
  99658411.28908
 18 04 04 08 42  0.0000000  0 15G05G07G13G15G20G28G30R02R03R04R12R13
                                E07E19E30
  21643949.494   113739712.91609  21643944.407    88628319.64947  21643945.123  
                                                                                
                
  23842062.000   125290867.94406  23842057.506    97629216.45046  23842057.589  
                                                                                
                
  20485531.432   107652195.00809  20485525.511    83884802.65648                
                                                                                
                
  22291761.702   117144008.91209  22291756.366    91281020.43947  22291757.038  
                                                                                
                
  22590908.896   118716023.60408  22590902.966    92505953.53046                
                                                                                
                
  21197048.757   111391247.45409  21197042.779    86798358.69947                
                                                                                
                
  21746618.457   114279248.22809  21746615.382    89048745.96647  21746616.052  
                                                                                
                
  20020072.381   106830936.44109  20020071.967    83090721.94808  20020072.931  
                                                                                
                
  19499844.883   104384199.19509  19499842.307    81187697.42908  19499843.075  
                                                                                
                
  23237786.428   124437302.21106  23237785.425    96784548.29507  23237786.122  
                                                                                
                
  20229925.806   108064630.15608                                                
                                                                                
                
  19680121.419   105090763.24908  19680120.619    81737252.32006  19680122.010  
                                                                                
                
  26959319.004   141672159.92808                                                
  26959322.387   105794147.88509  26959318.359   108553982.52209  26959319.861  
 107174065.08508
  24076225.538   126521423.13309                                                
  24076225.065    94480279.18709  24076221.196    96944970.79109  24076222.526  
  95712620.86808
  25084379.606   131819293.54308                                                
  25084381.412    98436482.26609  25084377.584   101004380.65909  25084378.756  
  99720429.84908
 18 04 04 08 42 30.0000000  0 16G05G07G13G15G20G28G30R02R03R04R12R13
                                R14E07E19E30
  21658450.869   113815918.21309  21658445.800    88687700.39547  21658446.512  
                                                                                
                
  23859187.507   125380863.38506  23859183.113    97699342.67746  23859183.237  
                                                                                
                
  20478476.971   107615123.49609  20478471.038    83855915.76548                
                                                                                
                
  22275965.711   117061000.52508  22275960.375    91216338.59847  22275961.046  
                                                                                
                
  22579433.100   118655717.90508  22579427.183    92458962.08346                
                                                                                
                
  21195869.373   111385049.76808  21195863.379    86793529.33948                
                                                                                
                
  21760489.085   114352138.79209  21760485.997    89105543.78648  21760486.682  
                                                                                
                
  20034732.177   106909163.90509  20034731.795    83151565.51908  20034732.767  
                                                                                
                
  19491143.601   104337620.58009  19491141.026    81151469.62708  19491141.788  
                                                                                
                
  23214577.392   124313019.51106  23214576.415    96687884.02607  23214577.115  
                                                                                
                
  20245038.268   108145358.31308                                                
                                                                                
                
  19669946.544   105036430.03308  19669945.732    81694993.17106  19669947.122  
                                                                                
                
  23305201.104   124229842.49713                                                
                                                                                
                
  26975282.814   141756050.08408                                                
  26975286.239   105856793.07209  26975282.208   108618261.94609  26975283.681  
 107237527.38608
  24068008.491   126478242.33709                                                
  24068007.994    94448033.80909  24068004.147    96911884.22109  24068005.473  
  95679954.89208
  25099999.075   131901374.28508                                                
  25100000.920    98497776.28609  25099997.022   101067273.66009  25099998.240  
  99782523.35008
 18 04 04 08 43  0.0000000  0 15G05G07G13G15G20G28G30R02R03R04R12R13
                                E07E19E30
  21673034.905   113892557.74809  21673029.852    88747419.48047  21673030.562  
                                                                                
                
  23876329.894   125470947.49307  23876325.555    97769538.01245  23876325.725  
                                                                                
                
  20471491.824   107578416.20409  20471485.873    83827312.67348                
                                                                                
                
  22260215.446   116978232.18809  22260210.121    91151843.75447  22260210.791  
                                                                                
                
  22568054.484   118595922.81408  22568048.585    92412368.49246                
                                                                                
                
  21194798.599   111379422.89408  21194792.597    86789144.77947                
                                                                                
                
  21774406.780   114425276.76809  21774403.696    89162534.39148  21774404.393  
                                                                                
                
  20049502.612   106987981.72209  20049502.276    83212868.23808  20049503.237  
                                                                                
                
  19482563.644   104291691.27509  19482561.059    81115746.83608  19482561.819  
                                                                                
                
  23191390.170   124188853.45506  23191389.273    96591310.43208  23191389.950  
                                                                                
                
  20260232.891   108226525.07208                                                
                                                                                
                
  19659886.970   104982712.51508  19659886.154    81653212.89606  19659887.538  
                                                                                
                
  26991272.475   141840076.11408                                                
  26991275.950   105919539.71909  26991271.914   108682645.46709  26991273.359  
 107301092.47108
  24059844.306   126435339.23309                                                
  24059843.787    94415995.77709  24059839.957    96879010.40409  24059841.282  
  95647498.96808
  25115641.500   131983575.62408                                                
  25115643.371    98559160.36009  25115639.413   101130259.05709  25115640.678  
  99844708.08908
 18 04 04 08 43 30.0000000  0 15G05G07G13G15G20G28G30R02R03R04R12R13
                                E07E19E30
  21687697.890   113969612.15609  21687692.853    88807461.84347  21687693.561  
                                                                                
                
  23893485.815   125561102.72207  23893481.490    97839788.80445  23893481.704  
                                                                                
                
  20464572.985   107542057.47108  20464567.019    83798981.20148                
                                                                                
                
  22244507.809   116895688.32708  22244502.484    91087523.94047  22244503.148  
                                                                                
                
  22556770.151   118536623.32007  22556764.270    92366161.09946                
                                                                                
                
  21193833.271   111374350.12509  21193827.262    86785191.98247                
                                                                                
                
  21788368.081   114498644.01909  21788364.993    89219703.67348  21788365.705  
                                                                                
                
  20064380.247   107067371.58509  20064379.945    83274615.88908  20064380.900  
                                                                                
                
  19474102.348   104246397.21908  19474099.757    81080518.12308  19474100.512  
                                                                                
                
  23168222.107   124064790.06706  23168221.323    96494816.73008  23168221.959  
                                                                                
                
  20275505.813   108308110.42908                                                
                                                                                
                
  19649939.595   104929594.12508  19649938.784    81611898.60806  19649940.158  
                                                                                
                
  27007284.649   141924220.55308                                                
  27007288.164   105982374.81809  27007284.117   108747119.74709  27007285.545  
 107364747.15808
  24051730.036   126392698.39509                                                
  24051729.496    94384153.59409  24051725.672    96846337.55609  24051726.998  
  95615241.44908
  25131303.419   132065879.36608                                                
  25131305.304    98620620.90009  25131301.317   101193322.92509  25131302.606  
  99906970.29408
 18 04 04 08 44  0.0000000  0 16G05G07G13G15G20G28G30R02R03R04R12R13
                                R14E07E19E30
  21702439.241   114047078.44209  21702434.214    88867825.16947  21702434.919  
                                                                                
                
  23910654.677   125651325.77508  23910650.334    97910092.44245  23910650.599  
                                                                                
                
  20457720.433   107506047.09409  20457714.467    83770921.16348                
                                                                                
                
  22228843.062   116813369.46608  22228837.777    91023379.33347  22228838.443  
                                                                                
                
  22545580.337   118477820.54808  22545574.462    92320340.75846                
                                                                                
                
  21192973.114   111369829.97308  21192967.103    86781669.78348                
                                                                                
                
  21802372.472   114572237.50408  21802369.409    89277049.19748  21802370.123  
                                                                                
                
  20079364.433   107147329.94909  20079364.163    83336805.70308  20079365.114  
                                                                                
                
  19465759.952   104201739.66409  19465757.374    81045784.46608  19465758.113  
                                                                                
                
  23145073.588   123940831.20106  23145072.930    96398404.31007  23145073.526  
                                                                                
                
  20290856.143   108390109.34608                                                
                                                                                
                
  19640104.291   104877074.14208  19640103.492    81571049.73706  19640104.845  
                                                                                
                
  23238145.370   123872404.84415                                  23238147.357  
                                                                                
                
  27023318.946   142008481.16608                                                
  27023322.488   106045296.65208  27023318.430   108811683.02509  27023319.856  
 107428489.71808
  24043665.654   126350319.69409                                                
  24043665.105    94352507.15809  24043661.264    96813865.55609  24043662.600  
  95583182.23508
  25146984.300   132148282.69608                                                
  25146986.191    98682155.79609  25146982.202   101256463.07909  25146983.492  
  99969307.81708
 18 04 04 08 44 30.0000000  0 16G05G07G13G15G20G28G30R02R03R04R12R13
                                R14E07E19E30
  21717260.197   114124963.02909  21717255.174    88928514.43947  21717255.878  
                                                                                
                
  23927838.091   125741625.13808  23927833.700    97980455.52845  23927834.034  
                                                                                
                
  20450936.181   107470395.70309  20450930.213    83743140.86848                
                                                                                
                
  22213223.173   116731286.49009  22213217.898    90959418.58247  22213218.566  
                                                                                
                
  22534487.160   118419525.56808  22534481.272    92274916.10446                
                                                                                
                
  21192219.807   111365871.48708  21192213.802    86778585.27747                
                                                                                
                
  21816421.347   114646065.00509  21816418.307    89334577.12047  21816419.026  
                                                                                
                
  20094456.613   107227864.66509  20094456.354    83399443.79908  20094457.310  
                                                                                
                
  19457538.745   104157730.89509  19457536.175    81011555.43108  19457536.904  
                                                                                
                
  23121946.970   123816989.47506  23121946.379    96302082.99407  23121946.959  
                                                                                
                
  20306285.050   108472527.89708                                                
                                                                                
                
  19630382.855   104825162.27408  19630382.043    81530673.85906  19630383.392  
                                                                                
                
  23215872.209   123753672.73904  23215882.323    96252844.24112                
                                                                                
                
  27039376.955   142092866.34508                                                
  27039380.481   106108311.51208  27039376.438   108876341.75709  27039377.863  
 107492326.51507
  24035653.146   126308213.60709                                                
  24035652.590    94321064.29809  24035648.735    96781602.45309  24035650.077  
  95551329.25208
  25162685.592   132230793.29409                                                
  25162687.471    98743770.81109  25162683.499   101319685.45109  25162684.777  
 100031726.51308
 18 04 04 08 45  0.0000000  0 16G05G07G13G15G20G28G30R02R03R04R12R13
                                R14E07E19E30
  21732159.547   114203259.54609  21732154.529    88989524.69048  21732155.232  
                                                                                
                
  23945035.028   125831995.46408  23945030.561    98050873.90245  23945030.980  
                                                                                
                
  20444219.647   107435100.11509  20444213.684    83715637.80848                
                                                                                
                
  22197647.667   116649436.73709  22197642.417    90895639.56547  22197643.072  
                                                                                
                
  22523490.210   118361736.23808  22523484.304    92229885.46446                
                                                                                
                
  21191572.565   111362470.36608  21191566.564    86775935.07347                
                                                                                
                
  21830513.645   114720120.50608  21830510.593    89392282.68248  21830511.327  
                                                                                
                
  20109655.549   107308968.96409  20109655.309    83462524.88608  20109656.264  
                                                                                
                
  19449438.409   104114369.12509  19449435.850    80977829.60808  19449436.574  
                                                                                
                
  23098841.984   123693263.42106  23098841.385    96205851.66607  23098841.983  
                                                                                
                
  20321791.123   108555358.47908                                                
                                                                                
                
  19620774.567   104773854.71408  19620773.739    81490768.01106  19620775.092  
                                                                                
                
  23193639.079   123635151.54304                                                
                                                                                
                
  27055457.692   142177370.92208                                                
  27055461.169   106171415.54508  27055457.154   108941091.99308  27055458.584  
 107556253.65507
  24027691.932   126266377.06409                                                
  24027691.365    94289822.71909  24027687.506    96749545.87809  24027688.850  
  95519680.17608
  25178406.226   132313405.46908                                                
  25178408.081    98805461.67509  25178404.124   101382985.64409  25178405.394  
 100094222.03808
 18 04 04 08 45 30.0000000  0 16G05G07G13G15G20G28G30R02R03R04R12R13
                                R14E07E19E30
  21747137.096   114281966.98409  21747132.079    89050855.13947  21747132.779  
                                                                                
                
  23962245.595   125922437.35908  23962241.038    98121348.04745  23962241.545  
                                                                                
                
  20437571.398   107400163.35109  20437565.443    83688414.35048                
                                                                                
                
  22182117.259   116567823.94209  22182112.021    90832045.19147  22182112.667  
                                                                                
                
  22512590.160   118304456.07708  22512584.230    92185251.58146                
                                                                                
                
  21191031.709   111359628.28509  21191025.717    86773720.47947                
                                                                                
                
  21844649.370   114794404.21309  21844646.331    89450166.06047  21844647.070  
                                                                                
                
  20124961.232   107390642.93409  20124960.998    83526049.06008  20124961.959  
                                                                                
                
  19441459.726   104071658.63109  19441457.184    80944610.33508  19441457.901  
                                                                                
                
  23075759.533   123569657.95906  23075758.912    96109714.11507  23075759.546  
                                                                                
                
  20337373.990   108638599.22308                                                
                                                                                
                
  19611280.101   104723154.81508  19611279.276    81451334.76406  19611280.626  
                                                                                
                
  23171445.379   123516844.87205                                  23171445.250  
                                                                                
                
  27071561.336   142261995.81408                                                
  27071564.785   106234609.39408  27071560.783   109005934.37308  27071562.220  
 107620271.75907
  24019782.564   126224813.01709                                                
  24019781.995    94258784.62709  24019778.143    96717698.10309  24019779.478  
  95488237.24208
  25194146.231   132396119.39208                                                
  25194148.055    98867228.51308  25194144.097   101446363.79509  25194145.377  
 100156794.53008
 18 04 04 08 46  0.0000000  0 16G05G07G13G15G20G28G30R02R03R04R12R13
                                R14E07E19E30
  21762191.925   114361080.44609  21762186.900    89112501.95947  21762187.594  
                                                                                
                
  23979468.977   126012946.63308  23979464.345    98191874.70145  23979464.928  
                                                                                
                
  20430991.038   107365583.40509  20430985.088    83661468.94548                
                                                                                
                
  22166631.664   116486446.59809  22166626.431    90768634.27747  22166627.080  
                                                                                
                
  22501786.805   118247684.01908  22501780.836    92141013.61945                
                                                                                
                
  21190596.585   111357341.74509  21190590.594    86771938.76447                
                                                                                
                
  21858827.664   114868911.57808  21858824.599    89508223.72948  21858825.348  
                                                                                
                
  20140372.697   107472881.35609  20140372.467    83590012.25208  20140373.434  
                                                                                
                
  19433602.680   104029599.24609  19433600.149    80911897.46308  19433600.869  
                                                                                
                
  23052699.642   123446173.24906  23052699.053    96013670.44807  23052699.705  
                                                                                
                
  20353032.472   108722243.76508                                                
                                                                                
                
  19601898.774   104673059.02208  19601897.931    81412371.37306  19601899.293  
                                                                                
                
  23149292.014   123398751.92105  23149293.399    95976816.78913  23149292.288  
                                                                                
                
  27087687.098   142346737.08408                                                
  27087690.527   106297890.16308  27087686.548   109070865.96008  27087687.996  
 107684377.95307
  24011924.701   126183519.69609                                                
  24011924.143    94227948.70509  24011920.305    96686057.76809  24011921.623  
  95456999.11908
  25209904.724   132478930.56208                                                
  25209906.509    98929067.99208  25209902.534   101509816.47609  25209903.847  
 100219440.61108
 18 04 04 08 46 30.0000000  0 16G05G07G13G15G20G28G30R02R03R04R12R13
                                R14E07E19E30
  21777324.346   114440601.71409  21777319.312    89174466.56447  21777320.005  
                                                                                
                
  23996705.859   126103526.80708  23996701.180    98262456.58246  23996701.824  
                                                                                
                
  20424479.698   107331366.10809  20424473.754    83634806.11548                
                                                                                
                
  22151192.052   116405310.88708  22151186.823    90705411.65147  22151187.477  
                                                                                
                
  22491081.374   118191426.57208  22491075.347    92097176.66846                
                                                                                
                
  21190268.033   111355615.23709  21190262.033    86770593.45147                
                                                                                
                
  21873049.101   114943645.53009  21873046.048    89566457.93047  21873046.792  
                                                                                
                
  20155890.441   107555686.89409  20155890.226    83654416.52608  20155891.191  
                                                                                
                
  19425868.557   103988197.98309  19425866.022    80879696.49008  19425866.749  
                                                                                
                
  23029663.808   123322817.46607  23029663.290    95917727.05807  23029663.932  
                                                                                
                
  20368766.802   108806293.72408                                                
                                                                                
                
  19592631.546   104623572.68908  19592630.669    81373882.03506  19592632.048  
                                                                                
                
  23127179.137   123280879.20804  23127178.056    95885105.07114  23127178.915  
                                                                                
                
  27103835.699   142431598.47908                                                
  27103839.113   106361260.64208  27103835.155   109135889.57508  27103836.616  
 107748574.99507
  24004119.454   126142502.88009                                                
  24004118.912    94197319.26909  24004115.086    96654629.30409  24004116.379  
  95425970.16208
  25225682.324   132561842.15108                                                
  25225684.082    98990982.44508  25225680.074   101573346.09609  25225681.439  
 100282162.64808
 18 04 04 08 47  0.0000000  0 15G05G07G13G15G20G28G30R02R03R04R12R13
                                E07E19E30
  21792534.511   114520531.51309  21792529.470    89236749.49847  21792530.164  
                                                                                
                
  24013956.641   126194180.06508  24013951.931    98333095.41546  24013952.621  
                                                                                
                
  20418038.224   107297515.99409  20418032.288    83608429.41248                
                                                                                
                
  22135799.389   116324421.94309  22135794.157    90642381.32147  22135794.819  
                                                                                
                
  22480474.879   118135689.03507  22480468.840    92053744.81646                
                                                                                
                
  21190046.620   111354451.71308  21190040.600    86769686.82047                
                                                                                
                
  21887313.967   115018607.88309  21887310.887    89624870.17647  21887311.620  
                                                                                
                
  20171514.719   107639061.00709  20171514.537    83719263.04308  20171515.481  
                                                                                
                
  19418258.507   103947460.73809  19418255.970    80848011.95808  19418256.708  
                                                                                
                
  23006653.189   123199596.69207  23006652.697    95821888.68307  23006653.321  
                                                                                
                
  20384576.916   108890748.69808                                                
                                                                                
                
  19583479.245   104574699.90308  19583478.362    81335869.88506  19583479.741  
                                                                                
                
  27120007.587   142516582.38408                                                
  27120010.999   106424722.62708  27120007.062   109201007.08108  27120008.529  
 107812864.74106
  23996367.690   126101767.10009                                                
  23996367.157    94166899.69809  23996363.338    96623416.17909  23996364.616  
  95395153.81908
  25241479.339   132644855.89308                                                
  25241481.082    99052973.19208  25241477.037   101636953.99309  25241478.459  
 100344961.97508
 18 04 04 08 47 30.0000000  0 16G05G07G13G15G20G28G30R02R03R04R12R13
                                R14E07E19E30
  21807817.808   114600845.64209  21807812.751    89299331.91347  21807813.447  
                                                                                
                
  24031216.955   126284883.44308  24031212.239    98403773.31546  24031212.951  
                                                                                
                
  20411662.646   107264012.13809  20411656.724    83582322.51048                
                                                                                
                
  22120449.830   116243759.48809  22120444.584    90579527.48047  22120445.245  
                                                                                
                
  22469963.452   118080451.23308  22469957.424    92010702.36946                
                                                                                
                
  21189928.147   111353829.18808  21189922.103    86769201.74747                
                                                                                
                
  21901617.831   115093774.95609  21901614.760    89683441.88448  21901615.475  
                                                                                
                
  20187240.947   107722979.07809  20187240.796    83784532.62308  20187241.726  
                                                                                
                
  19410768.869   103907368.06409  19410766.318    80816828.76208  19410767.067  
                                                                                
                
  22983664.263   123076491.88807  22983663.721    95726140.50807  22983664.332  
                                                                                
                
  20400458.095   108975583.07308                                                
                                                                                
                
  19574437.630   104526418.11808  19574436.737    81298317.37906  19574438.122  
                                                                                
                
  23083076.602   123045789.00814                                                
                                                                                
                
  27136198.467   142601665.97707                                                
  27136201.915   106488259.00308  27136197.996   109266200.92708  27136199.453  
 107877229.84106
  23988665.456   126061291.56009                                                
  23988664.925    94136674.45809  23988661.103    96592402.45209  23988662.376  
  95364534.33408
  25257291.325   132727948.34408                                                
  25257293.065    99115022.71108  25257288.992   101700622.19709  25257290.457  
 100407820.83507
 18 04 04 08 48  0.0000000  0 15G05G07G13G15G20G28G30R02R03R04R12R13
                                E07E19E30
  21823179.980   114681574.31309  21823174.906    89362237.35747  21823175.610  
                                                                                
                
  24048492.835   126375668.60508  24048488.145    98474514.93546  24048488.850  
                                                                                
                
  20405359.371   107230888.23709  20405353.455    83556511.68348                
                                                                                
                
  22105149.905   116163357.79208  22105144.648    90516876.80347  22105145.310  
                                                                                
                
  22459553.603   118025747.40208  22459547.573    91968076.04545                
                                                                                
                
  21189918.743   111353779.86108  21189912.693    86769163.31347                
                                                                                
                
  21915966.564   115169177.83209  21915963.529    89742197.32847  21915964.219  
                                                                                
                
  20203074.968   107807472.35809  20203074.866    83850249.57908  20203075.772  
                                                                                
                
  19403406.258   103867955.36309  19403403.696    80786174.42708  19403404.448  
                                                                                
                
  22960703.851   122953539.53807  22960703.199    95630510.92307  22960703.801  
                                                                                
                
  20416415.911   109060826.37708                                                
                                                                                
                
  19565513.080   104478761.58208  19565512.175    81261251.20406  19565513.564  
                                                                                
                
  27152414.280   142686880.70307                                                
  27152417.770   106551893.34508  27152413.847   109331495.31508  27152415.299  
 107941694.20606
  23981019.151   126021109.90809                                                
  23981018.622    94106668.67509  23981014.790    96561613.91409  23981016.067  
  95334137.17208
  25273124.177   132811150.51008                                                
  25273125.921    99177154.17008  25273121.834   101764374.46209  25273123.319  
 100470762.68807
 18 04 04 08 48 30.0000000  0 15G05G07G13G15G20G28G30R02R03R04R12R13
                                E07E19E30
  21838616.089   114762691.50909  21838611.013    89425445.53947  21838611.713  
                                                                                
                
  24065779.473   126466510.40108  24065774.829    98545300.69845  24065775.521  
                                                                                
                
  20399124.189   107198122.06409  20399118.271    83530979.59348                
                                                                                
                
  22089895.468   116083195.30809  22089890.200    90454412.55247  22089890.873  
                                                                                
                
  22449241.347   117971556.25008  22449235.338    91925849.16646                
                                                                                
                
  21190013.897   111354280.07208  21190007.836    86769553.10347                
                                                                                
                
  21930355.328   115244791.38209  21930352.284    89801117.01748  21930352.955  
                                                                                
                
  20219011.853   107892514.70709  20219011.774    83916393.62508  20219012.667  
                                                                                
                
  19396166.703   103829201.46409  19396164.115    80756032.51308  19396164.876  
                                                                                
                
  22937767.977   122830718.72707  22937767.164    95534983.68207  22937767.770  
                                                                                
                
  20432445.258   109146451.84908                                                
                                                                                
                
  19556701.215   104431706.70508  19556700.313    81224652.96807  19556701.696  
                                                                                
                
  27168650.489   142772202.46007                                                
  27168654.016   106615607.62107  27168650.034   109396871.68808  27168651.500  
 108006239.53406
  23973424.568   125981200.06909                                                
  23973424.041    94076865.87009  23973420.199    96531033.64309  23973421.483  
  95303945.63708
  25288973.208   132894437.63608                                                
  25288974.978    99239349.04308  25288970.897   101828191.82808  25288972.381  
 100533768.81407
 18 04 04 08 49  0.0000000  0 15G05G07G13G15G20G28G30R02R03R04R12R13
                                E07E19E30
  21854126.512   114844199.33409  21854121.446    89488958.11947  21854122.145  
                                                                                
                
  24083077.608   126557412.59208  24083073.015    98616133.50945  24083073.695  
                                                                                
                
  20392958.133   107165719.08909  20392952.194    83505730.51548                
                                                                                
                
  22074687.689   116003278.05409  22074682.426    90392139.39347  22074683.095  
                                                                                
                
  22439027.808   117917883.81107  22439021.810    91884026.48146                
                                                                                
                
  21190214.305   111355333.41409  21190208.241    86770373.90847                
                                                                                
                
  21944784.863   115320618.68609  21944781.869    89860203.13047  21944782.527  
                                                                                
                
  20235052.041   107978108.09609  20235051.986    83982966.23608  20235052.868  
                                                                                
                
  19389051.536   103791113.43709  19389048.917    80726408.50908  19389049.692  
                                                                                
                
  22914858.145   122708037.34407  22914857.170    95439564.87907  22914857.791  
                                                                                
                
  20448546.210   109232460.39708                                                
                                                                                
                
  19548002.898   104385258.29508  19548001.997    81188526.45006  19548003.371  
                                                                                
                
  27184907.786   142857634.72807                                                
  27184911.358   106679404.36307  27184907.307   109462332.71307  27184908.786  
 108070868.42706
  23965882.765   125941567.61909                                                
  23965882.237    94047270.21309  23965878.388    96500665.92709  23965879.678  
  95273963.95008
  25304838.939   132977812.63008                                                
  25304840.750    99301609.54508  25304836.685   101892076.51608  25304838.147  
 100596841.40507
 18 04 04 08 49 30.0000000  0 15G05G07G13G15G20G28G30R02R03R04R12R13
                                E07E19E30
  21869711.184   114926097.29509  21869706.143    89552774.68347  21869706.839  
                                                                                
                
  24100387.425   126648376.07208  24100382.888    98687014.06445  24100383.543  
                                                                                
                
  20386861.808   107133682.51309  20386855.839    83480766.93948                
                                                                                
                
  22059527.280   115923609.68009  22059522.038    90330060.15147  22059522.697  
                                                                                
                
  22428913.734   117864733.96608  22428907.755    91842611.00246                
                                                                                
                
  21190520.394   111356941.98608  21190514.338    86771627.33547                
                                                                                
                
  21959255.010   115396660.05708  21959251.971    89919456.23147  21959252.635  
                                                                                
                
  20251195.677   108064253.48509  20251195.627    84049968.16908  20251196.511  
                                                                                
                
  19382061.661   103753696.00909  19382059.029    80697306.05808  19382059.820  
                                                                                
                
  22891975.380   122585500.88506  22891974.289    95344258.74707  22891974.930  
                                                                                
                
  20464718.614   109318850.99008                                                
                                                                                
                
  19539418.669   104339418.94308  19539417.783    81152873.62506  19539419.144  
                                                                                
                
  27201186.312   142943178.68507                                                
  27201189.899   106743284.54907  27201185.797   109527879.35907  27201187.291  
 108135581.84006
  23958394.387   125902215.85609                                                
  23958393.853    94017884.14709  23958390.005    96470513.27309  23958391.297  
  95244194.58908
  25320721.507   133061276.07808                                                
  25320723.360    99363936.08908  25320719.328   101956028.97608  25320720.759  
 100659980.90807
 18 04 04 08 50  0.0000000  0 15G05G07G13G15G20G28G30R02R03R04R12R13
                                E07E19E30
  21885369.528   115008382.40509  21885364.506    89616892.92447  21885365.198  
                                                                                
                
  24117708.634   126739399.36308  24117704.142    98757941.23845  24117704.757  
                                                                                
                
  20380835.336   107102013.10909  20380829.352    83456089.48248                
                                                                                
                
  22044414.569   115844191.87709  22044409.335    90268176.15147  22044409.994  
                                                                                
                
  22418899.414   117812108.34308  22418893.451    91801604.01946                
                                                                                
                
  21190931.923   111359104.76109  21190925.878    86773312.63548                
                                                                                
                
  21973765.689   115472913.69309  21973762.709    89978874.51047  21973763.368  
                                                                                
                
  20267442.142   108150947.60509  20267442.092    84117396.89708  20267442.975  
                                                                                
                
  19375197.377   103716950.92609  19375194.761    80668726.54008  19375195.548  
                                                                                
                
  22869120.138   122463111.97807  22869118.967    95249067.38707  22869119.619  
                                                                                
                
  20480961.831   109405619.62008                                                
                                                                                
                
  19530948.433   104294188.42308  19530947.560    81117694.34106  19530948.911  
                                                                                
                
  27217485.856   143028833.00206                                                
  27217489.447   106807247.10707  27217485.292   109593510.49207  27217486.830  
 108200378.68806
  23950959.563   125863145.51909                                                
  23950959.007    93988708.24509  23950955.169    96440576.25809  23950956.461  
  95214638.13108
  25336620.538   133144826.04808                                                
  25336622.414    99426327.25108  25336618.429   102020047.74708  25336619.829  
 100723185.87407
 18 04 04 08 50 30.0000000  0 15G05G07G13G15G20G28G30R02R03R04R12R13
                                E07E19E30
  21901100.742   115091050.42209  21901095.731    89681309.53647  21901096.424  
                                                                                
                
  24135040.633   126830479.30608  24135036.155    98828912.58045  24135036.728  
                                                                                
                
  20374878.627   107070710.39709  20374872.635    83431697.77248                
                                                                                
                
  22029349.381   115765023.75709  22029344.160    90206486.70047  22029344.805  
                                                                                
                
  22408984.752   117760006.44508  22408978.808    91761005.13046                
                                                                                
                
  21191448.517   111361819.53608  21191442.487    86775428.04447                
                                                                                
                
  21988315.852   115549375.80008  21988312.840    90038455.49747  21988313.493  
                                                                                
                
  20283790.678   108238186.37209  20283790.614    84185249.25008  20283791.502  
                                                                                
                
  19368458.736   103680878.44409  19368456.136    80640670.16308  19368456.916  
                                                                                
                
  22846292.707   122340872.09907  22846291.477    95153991.93807  22846292.118  
                                                                                
                
  20497274.894   109492760.95308                                                
                                                                                
                
  19522591.828   104249564.71808  19522590.954    81082987.02706  19522592.299  
                                                                                
                
  27233805.775   143114594.65506                                                
  27233809.355   106871289.87707  27233805.154   109659223.94907  27233806.744  
 108265256.79606
  23943578.118   125824355.77009                                                
  23943577.542    93959741.89009  23943573.707    96410854.24909  23943575.004  
  95185293.94708
  25352535.392   133228459.10708                                                
  25352537.263    99488780.46008  25352533.326   102084130.18108  25352534.713  
 100786453.69807
 18 04 04 08 51  0.0000000  0 15G05G07G13G15G20G28G30R02R03R04R12R13
                                E07E19E30
  21916905.142   115174102.99109  21916900.136    89746025.79347  21916900.829  
                                                                                
                
  24152384.110   126921619.39208  24152379.598    98899930.78144  24152380.143  
                                                                                
                
  20368992.694   107039779.52109  20368986.701    83407595.78348                
                                                                                
                
  22014333.008   115686112.19909  22014327.783    90144997.18747  22014328.429  
                                                                                
                
  22399170.952   117708434.69008  22399165.005    91720819.37946                
                                                                                
                
  21192070.881   111365090.18109  21192064.854    86777976.61748                
                                                                                
                
  22002906.426   115626049.51609  22002903.460    90098201.13448  22002904.118  
                                                                                
                
  20300241.767   108325972.33409  20300241.681    84253527.19308  20300242.580  
                                                                                
                
  19361847.105   103645485.82209  19361844.518    80613142.55808  19361845.289  
                                                                                
                
  22823494.552   122218788.84707  22823493.269    95059038.31007  22823493.883  
                                                                                
                
  20513657.939   109580276.27808                                                
                                                                                
                
  19514349.843   104205553.01007  19514348.980    81048755.70506  19514350.317  
                                                                                
                
  27250146.818   143200467.19706                                                
  27250150.411   106935415.41707  27250146.149   109725022.33207  27250147.792  
 108330218.75306
  23936251.129   125785852.21609                                                
  23936250.542    93930989.24609  23936246.716    96381351.53709  23936248.013  
  95156166.26808
  25368466.644   133312178.27308                                                
  25368468.482    99551297.96908  25368464.587   102148278.58509  25368465.985  
 100849786.65807
 18 04 04 08 51 30.0000000  0 15G05G07G13G15G20G28G30R02R03R04R12R13
                                E07E19E30
  21932781.760   115257535.05509  21932776.762    89811037.75847  21932777.457  
                                                                                
                
  24169738.313   127012815.71108  24169733.727    98970992.79344  24169734.271  
                                                                                
                
  20363177.182   107009218.73909  20363171.176    83383782.19248                
                                                                                
                
  21999365.183   115607455.87909  21999359.951    90083706.58247  21999360.597  
                                                                                
                
  22389457.885   117657392.03908  22389451.925    91681045.87346                
                                                                                
                
  21192798.460   111368913.63709  21192792.438    86780955.94048                
                                                                                
                
  22017536.349   115702930.42008  22017533.396    90158108.34946  22017534.056  
                                                                                
                
  20316794.406   108414300.19009  20316794.285    84322226.59508  20316795.206  
                                                                                
                
  19355362.398   103610772.68909  19355359.829    80586143.45108  19355360.591  
                                                                                
                
  22800725.738   122096862.78807  22800724.372    94964206.96307  22800724.975  
                                                                                
                
  20530109.841   109668159.52708                                                
                                                                                
                
  19506221.943   104162150.59008  19506221.094    81014998.28806  19506222.429  
                                                                                
                
  27266508.312   143286447.17706                                                
  27266511.924   106999621.17207  27266507.627   109790903.02907  27266509.303  
 108395261.98806
  23928978.350   125747633.50609                                                
  23928977.758    93902449.29309  23928973.950    96352067.06509  23928975.241  
  95127254.05508
  25384413.518   133395979.43208                                                
  25384415.314    99613876.68309  25384411.454   102212489.80209  25384412.881  
 100913181.62208
 18 04 04 08 52  0.0000000  0 15G05G07G13G15G20G28G30R02R03R04R12R13
                                E07E19E30
  21948730.555   115341346.45709  21948725.564    89876345.32047  21948726.262  
                                                                                
                
  24187103.531   127104069.85708  24187098.860    99042099.85744  24187099.414  
                                                                                
                
  20357432.864   106979032.07809  20357426.839    83360260.11748                
                                                                                
                
  21984446.788   115529059.12209  21984441.558    90022618.19347  21984442.206  
                                                                                
                
  22379846.295   117606882.71908  22379840.322    91641687.96346                
                                                                                
                
  21193631.634   111373291.94009  21193625.606    86784367.60548                
                                                                                
                
  22032205.917   115780019.62809  22032202.974    90218177.84548  22032203.646  
                                                                                
                
  20333448.675   108503170.47009  20333448.533    84391347.91908  20333449.447  
                                                                                
                
  19349005.510   103576743.73009  19349002.970    80559676.47208  19349003.718  
                                                                                
                
  22777987.370   121975099.90507  22777985.901    94869502.51807  22777986.520  
                                                                                
                
  20546630.408   109756409.54408                                                
                                                                                
                
  19498208.749   104119360.64608  19498207.917    80981717.22106  19498209.251  
                                                                                
                
  27282890.513   143372535.98905                                                
  27282894.106   107063908.21907  27282889.815   109856867.12907  27282891.501  
 108460387.56006
  23921760.446   125709703.17609                                                
  23921759.836    93874124.70209  23921756.059    96323003.57709  23921757.336  
  95098560.01608
  25400376.192   133479863.59808                                                
  25400377.940    99676517.38309  25400374.105   102276764.61209  25400375.573  
 100976639.37608
 18 04 04 08 52 30.0000000  0 15G05G07G13G15G20G28G30R02R03R04R12R13
                                R14E19E30
  21964751.243   115425535.77709  21964746.254    89941947.39147  21964746.953  
                                                                                
                
  24204479.768   127195381.99108  24204475.020    99113252.11344  24204475.579  
                                                                                
                
  20351760.156   106949221.86909  20351754.117    83337031.39448                
                                                                                
                
  21969578.333   115450924.76009  21969573.089    89961734.27447  21969573.739  
                                                                                
                
  22370336.703   117556909.52308  22370330.718    91602747.82546                
                                                                                
                
  21194570.505   111378225.76808  21194564.468    86788212.17048                
                                                                                
                
  22046915.070   115857316.60708  22046912.137    90278409.21947  22046912.817  
                                                                                
                
  20350204.309   108592581.50009  20350204.160    84460889.78608  20350205.063  
                                                                                
                
  19342777.070   103543402.47309  19342774.533    80533744.40508  19342775.276  
                                                                                
                
  22755280.289   121853504.65007  22755278.732    94774928.47407  22755279.362  
                                                                                
                
  20563219.252   109845024.41808                                                
                                                                                
                
  19490310.375   104077183.89208  19490309.555    80948913.10706  19490310.890  
                                                                                
                
  22865143.490   121884065.83914                                                
                                                                                
                
  23914597.868   125672063.58809                                                
  23914597.243    93846017.22809  23914593.492    96294162.86009  23914594.753  
  95070085.92308
  25416354.599   133563830.45408                                                
  25416356.306    99739219.84309  25416352.488   102341102.80209  25416353.991  
 101040159.69908
