     2.11           OBSERVATION DATA    M (MIXED)           RINEX VERSION / TYPE
teqc  2016Nov7                          20180405 05:03:57UTCPGM / RUN BY / DATE
Linux 2.4.21-27.ELsmp|Opteron|gcc|Linux x86_64|=+           COMMENT
teqc  2016Nov7                          20180405 05:03:57UTCCOMMENT
teqc  2016Nov7      IGN-RGP             20180404 08:14:25UTCCOMMENT
teqc  2016Nov7                          20180404 08:14:25UTCCOMMENT
teqc  2016Nov7      IGN-RGP             20180404 08:14:23UTCCOMMENT
teqc  2016Nov7      IGN-RGP             20180404 08:14:22UTCCOMMENT
BIT 2 OF LLI FLAGS DATA COLLECTED UNDER A/S CONDITION       COMMENT
MRON                                                        MARKER NAME
19666M001                                                   MARKER NUMBER
Automatic           OSU THETA                               OBSERVER / AGENCY
5245K53169          TRIMBLE NETR9       4.81                REC # / TYPE / VERS
5000114707          TRM57971.00     TZGD                    ANT # / TYPE
  4352245.9460   484521.6220  4623551.6420                  APPROX POSITION XYZ
        0.0000        0.0000        0.0000                  ANTENNA: DELTA H/E/N
     1     1                                                WAVELENGTH FACT L1/2
    21    L1    L2    C1    P1    P2    D1    D2    S1    S2# / TYPES OF OBSERV
          L5    C5    D5    S5    L7    C7    D7    S7    L8# / TYPES OF OBSERV
          C8    D8    S8                                    # / TYPES OF OBSERV
    30.0000                                                 INTERVAL
    18                                                      LEAP SECONDS
 SNR is mapped to RINEX snr flag value [0-9]                COMMENT
  L1 & L2: min(max(int(snr_dBHz/6), 0), 9)                  COMMENT
Forced Modulo Decimation to 30 seconds                      COMMENT
  2018     4     4     7     0    0.0000000     GPS         TIME OF FIRST OBS
                                                            END OF HEADER
 18  4  4  7  0  0.0000000  0 21G13R11R12G09G28R13G02G06G30R03G07R01
                                R02G05R18E07E30E12E19E20S20
 120876427.223 7  94189425.70844  23002016.992                    23002019.395
                                        45.900          28.800



 107707339.790 8  83772387.474 7  20155958.945    20155959.406    20155961.758
                                        49.200          47.500



 104497325.714 7                  19562119.375    19562118.273
                                        47.100



 119758405.552 7  93318302.326 7  22789280.617                    22789287.102
                                        45.700          45.100    89430045.350 7
  22789286.543                          47.600


 122822844.923 6  95706150.57644  23372413.000                    23372418.188
                                        41.300          26.100



 126234387.076 5  98182500.882 4  23639688.766    23639687.609    23639692.637
                                        34.300          28.700



 122859485.900 7  95734713.30044  23379400.789                    23379402.480
                                        42.400          28.100



 132498409.581 6 103245555.741 6  25213623.680                    25213630.707
                                        38.600          37.500    98943658.440 6
  25213631.734                          41.100


 106618922.112 8  83079774.790 8  20288922.469                    20288927.977
                                        50.000          52.000    79618116.437 9
  20288927.707                          55.800


 122697239.555 7  95431192.564 7  22920874.625    22920874.090    22920878.477
                                        43.300          42.900



 110540599.989 8  86135576.888 7  21035182.852                    21035185.895
                                        50.900          47.900



 111192001.274 7  86482967.417 6  20800831.625    20800830.434    20800836.246
                                        44.800          40.900



 103768193.436 8  80708623.062 8  19446115.242    19446113.688    19446117.160
                                        49.400          48.400



 109103642.767 8  85015831.785 8  20761729.641                    20761733.000
                                        49.100          48.700



 124617370.673 6  96924635.894 6  23345036.242    23345035.637    23345039.172
                                        39.300          38.400



 128014273.359 8                  24360306.172
                                        48.200                    95595084.994 8
  24360310.211                          50.600    98088868.715 8  24360309.695
                        51.500    96841980.959 9  24360310.828
        56.900
 119628344.500 8                  22764515.664
                                        50.600                    89332844.911 8
  22764518.777                          50.800    91663267.111 8  22764517.793
                        51.300    90498040.618 9  22764519.039
        56.700
 138769830.231 6                  26407021.844
                                        38.000                   103626816.900 6
  26407021.926                          38.500   106330128.203 6  26407021.738
                        40.100   104978476.655 7  26407022.660
        44.700
 139118313.455 6                  26473330.070
                                        39.800                   103887043.130 7
  26473332.930                          42.200   106597134.657 6  26473331.617
                        41.100   105242096.000 7  26473332.973
        47.000
  63295606.771 7                  12044752.602
                                        43.200



 202520934.770 6                  38538457.359
                                        40.900



 18  4  4  7  0 30.0000000  0 21G13R11R12G09G28R13G02G06G30R03G07R01
                                R02G05R18E07E30E12E19E20S20
 120791289.851 7  94123084.90144  22985815.305                    22985818.313
      2835.619        2209.574          45.400          28.600



 107768832.872 8  83820215.407 7  20167467.820    20167467.930    20167470.195
     -2060.491       -1602.594          49.400          47.000



 104440676.645 7                  19551515.164    19551513.359
      1876.381                          46.700



 119841815.781 7  93383297.304 7  22805153.539                    22805159.504
     -2782.758       -2168.377          46.100          44.900    89492332.167 7
  22805158.301       -2078.038          47.500


 122730469.677 6  95634169.87743  23354834.430                    23354838.641
      3076.164        2396.997          40.900          23.900



 126098601.276 5  98076889.717 5  23614262.016    23614259.566    23614264.477
      4524.335        3518.902          34.200          30.600



 122935732.180 6  95794125.95244  23393910.234                    23393911.324
     -2545.812       -1983.742          41.600          27.400



 132604667.566 6 103328354.134 5  25233843.797                    25233851.309
     -3540.397       -2758.751          38.200          35.800    99023006.882 6
  25233852.164       -2643.804          40.500


 106611679.931 8  83074131.530 8  20287544.445                    20287549.992
       233.097         181.634          50.000          51.500    79612708.316 9
  20287550.195         174.062          55.700


 122585870.713 7  95344572.391 7  22900070.609    22900069.488    22900073.117
      3711.688        2886.861          44.200          43.700



 110584624.562 8  86169881.729 7  21043560.797                    21043563.551
     -1473.881       -1148.479          49.800          47.300



 111270878.694 7  86544316.474 6  20815586.922    20815586.551    20815592.297
     -2635.913       -2050.145          45.000          41.500



 103725251.955 8  80675224.128 7  19438068.063    19438067.211    19438070.527
      1424.012        1107.568          48.800          47.900



 109070021.327 8  84989633.264 8  20755332.070                    20755335.152
      1112.415         866.813          49.100          48.200



 124682908.068 6  96975609.439 6  23357314.461    23357313.148    23357316.367
     -2194.058       -1706.502          40.000          38.600



 128061545.410 7                  24369302.203
     -1579.073                          47.800                    95630385.535 8
  24369305.734       -1179.175          50.700    98125090.138 8  24369305.453
     -1209.938          51.300    96877741.941 9  24369306.426       -1194.556
        56.900
 119655622.673 8                  22769706.719
      -915.986                          50.900                    89353214.978 8
  22769709.586        -684.017          50.800    91684168.572 8  22769708.555
      -701.861          50.900    90518676.378 9  22769709.941        -692.941
        56.600
 138794559.085 6                  26411727.914
      -830.864                          37.700                   103645283.283 6
  26411727.719        -620.455          39.400   106349076.305 6  26411727.438
      -636.631          39.500   104997183.897 7  26411728.520        -628.543
        44.900
 139045830.811 6                  26459537.680
      2415.375                          39.600                   103832916.503 7
  26459540.086        1803.686          42.000   106541596.011 6  26459539.102
      1850.743          40.100   105187263.361 7  26459539.883        1827.219
        46.800
  63269033.756 7                  12039695.672
       882.387                          43.200



 202523583.015 6                  38538956.203
       -88.287                          40.600



 18  4  4  7  1  0.0000000  0 21G13R11R12G09G28R13G02G06G30R03G07R01
                                R02G05R18E07E30E12E19E20S20
 120706293.449 7  94056853.95744  22969641.609                    22969644.332
      2830.943        2205.928          45.300          27.300



 107830988.877 8  83868558.973 8  20179098.602    20179098.828    20179101.883
     -2082.513       -1619.745          49.300          48.000



 104384766.246 7                  19541048.016    19541046.211
      1851.764                          47.400



 119925376.812 7  93448409.754 7  22821053.453                    22821059.238
     -2787.793       -2172.305          46.600          43.200    89554731.596 7
  22821060.793       -2081.789          47.400


 122638280.277 6  95562334.03743  23337291.359                    23337295.695
      3069.938        2392.166          41.900          23.500



 125962930.975 5  97971368.453 4  23588854.641    23588852.895    23588857.461
      4520.503        3515.885          33.800          29.000



 123012242.946 7  95853744.68544  23408470.289                    23408471.059
     -2554.590       -1990.585          43.000          27.800



 132710829.291 6 103411077.600 5  25254045.320                    25254052.660
     -3537.185       -2756.251          38.500          35.700    99102283.512 6
  25254053.688       -2641.403          41.100


 106604951.643 8  83068888.699 8  20286264.141                    20286269.988
       216.016         168.328          53.100          51.900    79607683.947 9
  20286269.957         161.308          55.700


 122474540.257 7  95257982.054 7  22879273.648    22879271.941    22879274.641
      3710.422        2885.863          44.100          42.600



 110629044.631 8  86204494.754 7  21052013.414                    21052016.500
     -1487.014       -1158.708          51.700          47.700



 111350167.091 7  86605985.206 6  20830418.898    20830418.293    20830424.199
     -2649.560       -2060.777          44.900          41.200



 103682768.387 8  80642181.350 8  19430107.422    19430106.219    19430109.387
      1408.801        1095.730          49.900          48.300



 109036914.667 8  84963835.857 7  20749032.031                    20749035.137
      1095.260         853.448          50.800          47.800



 124749032.128 6  97027039.239 6  23369701.422    23369699.055    23369703.688
     -2213.552       -1721.642          38.800          39.700



 128109023.782 8                  24378337.227
     -1585.932                          48.900                    95665840.142 8
  24378340.402       -1184.300          50.600    98161469.651 8  24378340.402
     -1215.194          51.400    96913658.998 9  24378341.320       -1199.742
        56.800
 119683315.691 8                  22774976.391
      -929.762                          50.300                    89373894.827 8
  22774979.270        -694.301          50.800    91705387.900 8  22774978.848
      -712.413          50.700    90539625.971 9  22774979.727        -703.364
        56.500
 138819693.553 6                  26416510.930
      -844.365                          37.900                   103664052.511 6
  26416510.273        -630.526          39.000   106368335.161 6  26416509.008
      -646.975          38.100   105016197.944 7  26416511.328        -638.755
        43.900
 138973392.877 6                  26445753.563
      2413.899                          39.800                   103778823.265 6
  26445754.984        1802.588          41.300   106486091.623 6  26445754.422
      1849.609          39.400   105132464.544 7  26445755.250        1826.105
        45.800
  63242673.685 7                  12034679.367
       875.270                          43.700



 202526229.598 6                  38539458.047
       -88.004                          39.900



 18  4  4  7  1 30.0000000  0 21G13R11R12G09G28R13G02G06G30R03G07R01
                                R02G05R18E07E30E12E19E20S20
 120621438.882 7  93990733.52944  22953493.070                    22953496.477
      2826.184        2202.228          44.500          27.400



 107893804.704 8  83917415.710 8  20190854.891    20190853.355    20190855.977
     -2104.439       -1636.781          49.300          48.300



 104329596.476 7                  19530720.438    19530719.219
      1827.032                          47.600



 120009087.807 7  93513639.076 7  22836983.641                    22836988.863
     -2792.759       -2176.183          47.600          42.300    89617243.048 7
  22836991.000       -2085.499          47.000


 122546280.041 7  95490645.57643  23319784.703                    23319787.797
      3063.608        2387.229          42.000          23.900



 125827379.533 5  97865939.609 5  23563470.820    23563468.254    23563473.742
      4516.439        3512.782          34.500          30.900



 123089015.207 7  95913567.20044  23423078.023                    23423080.387
     -2563.257       -1997.334          42.800          25.800



 132816892.368 6 103493724.066 6  25274228.789                    25274236.633
     -3533.802       -2753.606          37.400          38.100    99181486.370 7
  25274237.605       -2638.875          42.000


 106598736.786 8  83064045.953 8  20285081.320                    20285087.281
       198.905         154.995          52.400          52.100    79603042.979 9
  20285086.664         148.536          55.600


 122363249.969 7  95171422.917 7  22858484.094    22858482.270    22858485.629
      3708.984        2884.755          43.000          43.200



 110673858.496 8  86239414.649 7  21060540.867                    21060544.285
     -1500.125       -1168.926          51.300          47.700



 111429865.492 7  86667972.839 6  20845328.750    20845327.559    20845333.891
     -2663.202       -2071.390          44.900          41.800



 103640744.820 8  80609496.354 8  19422231.203    19422230.703    19422233.820
      1393.343        1083.704          49.300          48.600



 109004323.927 8  84938440.470 8  20742829.867                    20742833.332
      1078.044         840.033          50.000          48.200



 124815739.394 6  97078922.624 6  23382197.180    23382196.574    23382201.211
     -2232.935       -1736.711          39.600          39.200



 128156708.421 8                  24387411.211
     -1592.807                          49.100                    95701448.783 8
  24387414.184       -1189.433          49.900    98198007.211 8  24387414.371
     -1220.467          51.500    96949732.101 9  24387415.293       -1204.951
        56.700
 119711422.524 8                  22780325.117
      -943.543                          50.800                    89394883.689 8
  22780327.902        -704.597          50.400    91726924.296 8  22780327.293
      -722.971          51.200    90560888.600 9  22780328.324        -713.788
        56.600
 138845232.665 6                  26421370.352
      -857.848                          36.700                   103683123.907 6
  26421370.617        -640.604          38.900   106387904.068 6  26421370.008
      -657.312          38.900   105035518.095 7  26421371.336        -648.963
        44.200
 138901000.385 6                  26431977.438
      2412.346                          39.900                   103724763.957 6
  26431979.750        1801.426          41.400   106430622.031 6  26431977.594
      1848.416          38.300   105077700.101 7  26431978.914        1824.922
        45.600
  63216527.385 7                  12029704.023
       868.087                          43.600



 202528874.769 6                  38539964.563
       -88.220                          40.800



 18  4  4  7  2  0.0000000  0 21G13R11R12G09G28R13G02G06G30R03G07R01
                                R02G05R18E07E30E12E19E20S20
 120536726.860 7  93924724.17244  22937372.742                    22937376.598
      2821.427        2198.513          44.600          27.800



 107957276.790 8  83966782.887 8  20202731.508    20202731.500    20202734.641
     -2126.244       -1653.758          49.100          48.200



 104275168.630 7                  19520530.828    19520529.844
      1802.297                          47.700



 120092948.086 8  93578984.711 7  22852943.164                    22852948.520
     -2797.761       -2180.071          48.100          44.100    89679865.962 7
  22852948.137       -2089.241          47.400


 122454471.992 7  95419106.87543  23302314.258                    23302316.875
      3057.125        2382.183          42.500          23.000



 125691950.431 5  97760605.829 4  23538108.922    23538105.770    23538111.871
      4512.277        3509.549          32.200          29.800



 123166046.023 6  95973591.17744  23437737.180                    23437738.730
     -2571.860       -2004.044          41.500          27.500



 132922853.781 6 103576291.359 6  25294393.203                    25294400.664
     -3530.394       -2750.944          37.000          38.400    99260613.328 7
  25294400.992       -2636.323          42.500


 106593034.818 8  83059602.875 8  20283996.016                    20284002.230
       181.800         141.655          51.200          51.300    79598785.019 9
  20284002.078         135.762          55.800


 122252001.661 6  95084896.499 6  22837700.727    22837699.957    22837703.090
      3707.599        2883.683          41.600          41.600



 110719064.326 8  86274639.985 7  21069143.328                    21069146.695
     -1513.162       -1179.085          51.300          47.200



 111509973.149 7  86730278.730 6  20860314.547    20860313.941    20860319.758
     -2676.848       -2081.989          44.500          40.900



 103599183.593 8  80577170.937 8  19414443.094    19414442.242    19414445.203
      1377.879        1071.687          50.000          49.000



 108972250.968 8  84913448.547 8  20736726.844                    20736730.266
      1060.730         826.543          50.800          48.500



 124883026.141 6  97131256.759 6  23394803.039    23394801.609    23394806.090
     -2252.126       -1751.683          40.500          40.200



 128204599.182 8                  24396524.313
     -1599.682                          48.800                    95737211.347 8
  24396527.824       -1194.571          49.700    98234702.703 8  24396527.684
     -1225.728          51.300    96985961.130 9  24396528.668       -1210.147
        56.600
 119739942.044 8                  22785752.438
      -957.280                          51.100                    89416180.735 8
  22785754.750        -714.853          49.900    91748776.915 8  22785754.469
      -733.503          51.000    90582463.426 9  22785755.344        -724.172
        56.400
 138871175.226 6                  26426307.781
      -871.238                          38.500                   103702496.551 6
  26426307.828        -650.597          40.900   106407782.117 6  26426307.641
      -667.571          40.100   105055143.440 7  26426308.137        -659.087
        45.500
 138828653.772 6                  26418210.211
      2410.842                          40.200                   103670738.902 6
  26418211.672        1800.304          40.000   106375187.628 6  26418211.250
      1847.269          39.400   105022970.372 7  26418211.668        1823.784
        45.100
  63190595.447 7                  12024769.172
       860.958                          43.000



 202531518.858 6                  38540464.391
       -87.885                          40.400



 18  4  4  7  2 30.0000000  0 21G13R11R12G09G28R13G02G06G30R03G07R01
                                R02G05R18E07E30E12E19E20S20
 120452158.211 7  93858826.53044  22921280.016                    22921284.313
      2816.630        2194.774          44.700          27.100



 108021402.026 8  84016658.051 8  20214732.242    20214732.117    20214734.594
     -2148.047       -1670.691          49.500          48.300



 104221484.646 7                  19510481.453    19510479.766
      1777.468                          47.800



 120176956.973 7  93644446.159 7  22868929.477                    22868934.867
     -2802.717       -2183.934          47.600          43.400    89742599.843 7
  22868934.605       -2092.940          47.800


 122362858.323 6  95347719.62043  23284879.094                    23284884.031
      3050.578        2377.070          39.400          22.300



 125556646.151 5  97655369.193 5  23512769.469    23512767.137    23512773.395
      4508.023        3506.292          32.000          30.600



 123243332.947 7  96033814.69844  23452444.633                    23452445.957
     -2580.365       -2010.669          42.900          27.600



 133028711.124 6 103658777.530 6  25314535.586                    25314544.449
     -3526.867       -2748.206          37.400          39.100    99339662.569 6
  25314544.895       -2633.699          40.700


 106587845.269 8  83055559.071 8  20283008.695                    20283014.254
       164.690         128.328          51.800          50.700    79594909.714 9
  20283014.457         122.978          55.600


 122140797.387 6  94998404.290 6  22816927.719    22816927.066    22816930.414
      3706.089        2882.486          40.500          41.700



 110764660.527 8  86310169.480 7  21077819.945                    21077823.238
     -1526.181       -1189.231          51.400          47.300



 111590488.617 7  86792901.827 6  20875376.477    20875376.223    20875381.988
     -2690.441       -2092.552          44.300          41.100



 103558086.986 8  80545206.910 8  19406741.828    19406740.625    19406743.766
      1362.368        1059.612          50.100          48.500



 108940697.346 8  84888861.305 8  20730722.688                    20730726.184
      1043.389         813.030          50.300          49.200



 124950888.642 6  97184038.703 6  23407516.102    23407514.320    23407518.512
     -2271.329       -1766.581          40.800          39.300



 128252696.043 8                  24405676.484
     -1606.569                          48.500                    95773127.813 8
  24405680.441       -1199.708          49.500    98271556.127 8  24405680.160
     -1231.005          51.300    97022346.075 9  24405681.121       -1215.361
        56.500
 119768873.243 8                  22791257.578
      -971.030                          50.700                    89437785.201 8
  22791260.316        -725.121          50.300    91770944.968 8  22791259.566
      -744.031          50.800    90604349.691 9  22791260.660        -734.577
        56.400
 138897520.436 6                  26431320.680
      -884.666                          37.100                   103722169.899 6
  26431320.074        -660.623          37.900   106427968.648 6  26431319.793
      -677.856          39.400   105075073.383 7  26431321.246        -669.245
        44.400
 138756353.949 6                  26404451.609
      2409.192                          41.100                   103616748.772 6
  26404453.078        1799.076          39.400   106319789.041 6  26404452.938
      1846.007          39.300   104968276.011 7  26404453.152        1822.540
        44.800
  63164878.797 7                  12019875.602
       853.790                          44.000



 202534162.368 6                  38540968.281
       -88.197                          38.800



 18  4  4  7  3  0.0000000  0 21G13R11R12G09G28R13G02G06G30R03G07R01
                                R02G05R18E07E30E12E19E20S20
 120367733.321 7  93793040.92544  22905214.523                    22905218.316
      2811.835        2191.034          45.000          28.100



 108086177.480 8  84067038.940 8  20226854.133    20226854.125    20226856.820
     -2169.653       -1687.502          49.200          48.000



 104168546.071 7                  19500571.672    19500570.219
      1752.598                          47.300



 120261114.103 7  93710023.140 7  22884943.398                    22884948.813
     -2807.627       -2187.761          46.700          42.100    89805444.397 8
  22884950.074       -2096.599          48.000


 122271442.774 6  95276486.76843  23267483.938                    23267487.836
      3043.978        2371.932          38.800          22.500



 125421470.043 5  97550232.275 5  23487455.742    23487454.703    23487460.168
      4503.712        3502.921          33.900          32.400



 123320873.050 7  96094235.51944  23467199.406                    23467200.766
     -2588.750       -2017.201          42.700          26.000



 133134462.246 6 103741180.954 6  25334659.695                    25334668.934
     -3523.315       -2745.437          36.300          38.500    99418632.535 6
  25334668.734       -2631.040          40.800


 106583167.904 8  83051914.367 8  20282118.930                    20282124.348
       147.646         115.051          51.000          51.500    79591416.876 9
  20282123.961         110.263          55.600


 122029639.636 6  94911948.272 6  22796161.242    22796160.004    22796164.277
      3704.479        2881.235          39.000          41.000



 110810645.919 8  86346002.241 7  21086570.984                    21086574.340
     -1539.134       -1199.328          52.300          47.300



 111671411.609 7  86855841.913 6  20890515.297    20890514.340    20890519.719
     -2703.992       -2103.104          44.900          40.900



 103517457.447 8  80513606.150 8  19399127.930    19399126.492    19399129.711
      1346.746        1047.472          49.500          48.500



 108909664.408 8  84864679.790 8  20724817.016                    20724820.277
      1026.003         799.484          48.800          48.600



 125019323.496 6  97237265.790 6  23420336.359    23420334.930    23420338.043
     -2290.379       -1781.412          41.500          39.300



 128300999.261 8                  24414868.289
     -1613.444                          48.700                    95809198.374 8
  24414872.512       -1204.845          49.900    98308567.658 8  24414871.902
     -1236.272          51.200    97058887.123 9  24414872.945       -1220.560
        56.500
 119798215.312 8                  22796840.945
      -984.703                          50.800                    89459696.478 8
  22796843.582        -735.331          50.600    91793427.847 8  22796842.926
      -754.512          51.100    90626546.770 9  22796844.168        -744.925
        56.200
 138924267.463 6                  26436410.672
      -898.036                          38.800                   103742143.324 6
  26436410.887        -670.611          38.700   106448463.133 6  26436410.746
      -688.102          39.500   105095307.333 7  26436411.141        -679.357
        44.600
 138684101.744 6                  26390702.508
      2407.629                          40.200                   103562794.194 6
  26390704.344        1797.907          38.900   106264426.961 6  26390703.500
      1844.807          39.900   104913617.679 7  26390704.516        1821.357
        44.800
  63139378.289 7                  12015023.055
       846.534                          43.600



 202536802.301 6                  38541473.266
       -87.806                          40.800



 18  4  4  7  3 30.0000000  0 21G13R11R12G09G28R13G02G06G30R03G07R01
                                R02G05R18E07E30E12E19E20S20
 120283453.104 7  93727368.03244  22889176.766                    22889180.566
      2807.013        2187.271          44.600          27.600



 108151599.726 8  84117922.904 7  20239096.891    20239097.000    20239099.426
     -2191.119       -1704.201          49.400          47.900



 104116354.439 7                  19490801.195    19490799.035
      1727.690                          47.500



 120345418.617 7  93775714.918 6  22900985.859                    22900990.543
     -2812.515       -2191.575          46.200          41.400    89868399.028 8
  22900992.211       -2100.250          48.400


 122180228.098 6  95205410.49043  23250127.281                    23250130.141
      3037.229        2366.655          39.600          22.500



 125286425.868 5  97445197.983 5  23462167.938    23462165.254    23462170.863
      4499.384        3499.515          34.400          34.200



 123398663.472 7  96154851.40044  23482002.172                    23482004.254
     -2596.994       -2023.629          42.100          26.400



 133240104.284 5 103823499.363 6  25354762.680                    25354771.129
     -3519.556       -2742.515          35.700          36.500    99497520.995 6
  25354771.223       -2628.248          39.800


 106579002.072 8  83048668.272 8  20281326.023                    20281331.871
       130.641         101.798          51.100          51.700    79588306.031 9
  20281331.488          97.561          55.700


 121918529.919 6  94825529.612 6  22775403.859    22775404.148    22775407.633
      3702.878        2880.022          40.500          40.300



 110857018.492 8  86382136.712 7  21095395.125                    21095398.625
     -1551.959       -1209.316          51.300          47.200



 111752740.794 7  86919097.896 6  20905728.945    20905728.457    20905734.543
     -2717.510       -2113.615          44.400          40.900



 103477297.566 8  80482370.681 8  19391602.063    19391601.211    19391604.398
      1331.075        1035.296          49.400          48.500



 108879153.234 8  84840904.846 8  20719011.242                    20719014.195
      1008.610         785.926          50.300          49.700



 125088327.234 6  97290935.345 6  23433262.273    23433261.551    23433264.766
     -2309.217       -1796.075          40.300          39.400



 128349508.615 8                  24424099.680
     -1620.285                          48.400                    95845422.867 8
  24424103.797       -1209.951          49.700    98345737.136 8  24424103.000
     -1241.515          51.000    97095584.108 9  24424104.176       -1225.734
        56.500
 119827967.023 8                  22802502.445
      -998.306                          50.800                    89481913.665 8
  22802505.336        -745.484          49.800    91816224.608 8  22802504.820
      -764.934          50.900    90649053.740 9  22802505.848        -755.212
        56.200
 138951415.256 6                  26441576.742
      -911.368                          38.500                   103762416.004 6
  26441576.406        -680.570          38.500   106469264.659 6  26441576.219
      -698.321          39.100   105115844.435 7  26441577.023        -689.442
        44.200
 138611897.772 6                  26376963.016
      2406.004                          40.700                   103508875.633 6
  26376963.375        1796.689          38.500   106209101.838 6  26376964.453
      1843.558          40.800   104858995.836 7  26376964.340        1820.130
        45.300
  63114094.662 7                  12010211.688
       839.301                          43.000



 202539440.384 6                  38541981.391
       -87.949                          40.900



 18  4  4  7  4  0.0000000  0 21G13R11R12G09G28R13G02G06G30R03G07R01
                                R02G05R18E07E30E12E19E20S20
 120199318.518 7  93661808.64144  22873165.898                    22873170.234
      2802.129        2183.470          44.700          28.100



 108217665.339 8  84169307.266 7  20251460.891    20251460.293    20251462.801
     -2212.515       -1720.822          49.600          47.700



 104064911.341 7                  19481169.688    19481169.055
      1702.695                          47.200



 120429869.839 7  93841520.988 6  22917056.828                    22917061.672
     -2817.387       -2195.370          45.800          41.800    89931463.199 7
  22917061.113       -2103.892          47.800


 122089216.997 6  95134492.75044  23232807.477                    23232812.238
      3030.415        2361.358          40.100          24.000



 125151516.036 5  97340268.213 5  23436901.695    23436901.359    23436906.895
      4494.806        3495.919          34.000          35.300



 123476701.248 7  96215660.03544  23496853.438                    23496854.113
     -2605.226       -2030.044          42.200          26.000



 133345634.975 5 103905731.018 5  25374844.289                    25374853.637
     -3515.867       -2739.629          32.400          33.200    99576326.323 6
  25374853.785       -2625.484          36.800


 106575347.287 8  83045820.392 8  20280630.352                    20280636.055
       113.604          88.525          50.300          51.300    79585576.808 9
  20280635.496          84.832          55.600


 121807470.710 7  94739150.257 6  22754659.438    22754658.785    22754661.684
      3701.127        2878.677          43.200          39.800



 110903776.621 8  86418571.610 7  21104293.250                    21104296.426
     -1564.815       -1219.334          52.600          47.400



 111834475.277 7  86982669.143 6  20921020.227    20921018.918    20921024.660
     -2730.985       -2124.116          44.300          40.000



 103437609.014 8  80451501.800 8  19384164.469    19384163.148    19384166.566
      1315.332        1023.061          49.900          49.000



 108849166.041 8  84817538.199 8  20713304.438                    20713307.895
       991.120         772.302          50.300          48.100



 125157895.936 7  97345044.272 6  23446295.836    23446294.523    23446298.227
     -2328.071       -1810.693          42.100          40.400



 128398224.123 8                  24433369.906
     -1627.166                          48.600                    95881801.312 8
  24433373.648       -1215.094          50.100    98383064.586 8  24433372.992
     -1246.791          51.200    97132437.053 9  24433374.156       -1230.938
        56.400
 119858127.337 8                  22808242.094
     -1011.922                          50.600                    89504435.983 8
  22808244.695        -755.657          50.000    91839334.456 8  22808243.988
      -775.368          50.100    90671869.823 9  22808245.043        -765.513
        56.000
 138978962.706 6                  26446818.695
      -924.676                          38.600                   103782987.134 6
  26446819.172        -690.503          38.900   106490372.432 6  26446818.563
      -708.522          39.300   105136683.887 7  26446819.246        -699.510
        44.300
 138539742.723 6                  26363232.203
      2404.371                          40.700                   103454993.606 6
  26363233.516        1795.472          38.900   106153814.200 6  26363233.656
      1842.318          41.600   104804411.007 7  26363233.957        1818.892
        45.500
  63089028.660 7                  12005441.883
       832.002                          43.500



 202542079.151 6                  38542479.625
       -88.030                          40.300



 18  4  4  7  4 30.0000000  0 21G13R11R12G09G28R13G02G06G30R03G07R01
                                R02G05R18E07E30E12E19E20S20
 120115330.125 7  93596363.15844  22857183.859                    22857187.945
      2797.243        2179.672          44.200          28.500



 108284370.712 8  84221189.223 7  20263942.734    20263943.195    20263945.766
     -2233.805       -1737.407          49.500          47.200



 104014217.835 7                  19471680.336    19471679.352
      1677.672                          47.900



 120514466.669 7  93907440.581 6  22933154.156                    22933160.039
     -2822.250       -2199.155          45.800          41.700    89994636.107 7
  22933159.949       -2107.522          47.900


 121998411.829 6  95063735.48343  23215528.586                    23215532.453
      3023.480        2355.957          41.700          22.800



 125016743.767 5  97235445.345 5  23411663.648    23411661.668    23411667.273
      4490.133        3492.327          35.900          32.700



 123554983.092 7  96276658.83344  23511749.398                    23511750.645
     -2613.327       -2036.347          43.000          25.300



 133451051.145 5 103987873.446 5  25394906.656
     -3512.021       -2736.650          30.500          30.600    99655046.157 5
  25394913.113       -2622.619          33.600


 106572202.514 8  83043369.914 8  20280032.016                    20280037.223
        96.597          75.269          51.500          51.700    79583228.438 9
  20280037.012          72.135          55.500


 121696463.534 7  94652811.322 6  22733922.313    22733921.309    22733924.848
      3699.370        2877.285          44.600          40.500



 110950918.237 8  86455305.325 7  21113263.992                    21113266.945
     -1577.568       -1229.267          52.300          47.600



 111916613.493 7  87046554.374 6  20936384.719    20936383.996    20936389.535
     -2744.438       -2134.548          44.500          40.200



 103398393.749 8  80421001.042 8  19376815.883    19376814.328    19376818.035
      1299.500        1010.717          49.200          49.200



 108819703.158 8  84794580.107 8  20707698.102                    20707701.445
       973.621         758.667          50.900          49.200



 125228025.376 6  97399589.397 6  23459433.477    23459431.461    23459434.992
     -2346.594       -1825.148          41.300          40.000



 128447145.232 8                  24442679.219
     -1634.029                          48.400                    95918333.287 8
  24442683.203       -1220.216          50.100    98420549.576 8  24442682.500
     -1252.047          50.200    97169445.535 9  24442683.652       -1236.128
        56.400
 119888694.702 8                  22814058.836
     -1025.487                          51.600                    89527262.255 8
  22814061.613        -765.784          49.900    91862756.200 8  22814060.723
      -785.762          50.500    90694993.834 9  22814061.816        -775.774
        56.100
 139006908.333 6                  26452136.625
      -937.959                          38.600                   103803855.578 6
  26452135.871        -700.422          38.300   106511785.293 6  26452136.668
      -718.694          39.100   105157824.538 7  26452137.457        -709.556
        44.100
 138467636.938 6                  26349510.852
      2402.687                          40.200                   103401148.379 6
  26349512.813        1794.211          39.600   106098564.326 6  26349512.063
      1841.020          41.000   104749863.454 7  26349512.746        1817.615
        46.100
  63064180.719 7                  12000713.344
       824.704                          43.500



 202544714.370 6                  38542978.813
       -88.028                          40.900



 18  4  4  7  5  0.0000000  0 21G13R11R12G09G28R13G02G06G30R03G07R01
                                R02G05R18E07E30E12E19E20S20
 120031488.586 7  93531032.11245  22841229.633                    22841232.859
      2792.373        2175.873          45.000          30.100



 108351712.924 8  84273566.503 7  20276545.094    20276545.203    20276547.703
     -2254.951       -1753.839          49.500          47.300



 103964275.430 7                  19462331.305    19462330.438
      1652.638                          47.200



 120599208.778 7  93973473.397 7  22949281.117                    22949285.680
     -2827.062       -2202.909          47.400          43.000    90057917.521 8
  22949287.352       -2111.119          48.800


 121907816.332 7  94993141.61044  23198288.969                    23198292.672
      3016.458        2350.487          42.000          26.200



 124882112.276 6  97130732.048 5  23386452.688    23386450.707    23386455.469
      4485.479        3488.628          36.200          32.800



 123633506.394 7  96337845.76544  23526691.844                    23526693.781
     -2621.295       -2042.564          42.300          26.700



 133556350.607 4 104069924.948 4  25414942.227
     -3508.065       -2733.557          27.300          28.200    99733678.833 5
  25414951.203       -2619.662          31.900


 106569567.572 8  83041316.706 8  20279530.188                    20279536.410
        79.626          62.041          50.000          50.700    79581260.777 9
  20279536.316          59.461          55.600


 121585510.679 7  94566514.647 6  22713194.563    22713194.027    22713197.117
      3697.543        2875.855          43.800          40.700



 110998442.176 8  86492336.955 7  21122307.523                    21122310.500
     -1590.279       -1239.179          52.600          47.000



 111999154.867 7  87110753.178 6  20951825.102    20951825.199    20951831.043
     -2757.857       -2145.005          44.200          40.200



 103359654.425 8  80390870.460 8  19369555.680    19369554.477    19369558.125
      1283.659         998.390          49.500          49.300



 108790766.624 8  84772032.153 8  20702191.750                    20702195.031
       956.061         744.984          50.700          48.600



 125298712.364 7  97454568.120 6  23472673.344    23472673.910    23472677.684
     -2365.195       -1839.591          42.100          40.100



 128496272.325 8                  24452027.852
     -1640.887                          48.800                    95955019.086 8
  24452031.613       -1225.335          50.500    98458192.396 8  24452031.004
     -1257.303          50.700    97206609.846 9  24452032.168       -1241.318
        56.400
 119919668.398 8                  22819952.859
     -1038.984                          50.200                    89550391.961 8
  22819956.023        -775.864          50.500    91886489.297 8  22819954.992
      -796.107          50.500    90718425.233 9  22819956.098        -785.982
        56.200
 139035251.529 6                  26457529.938
      -951.154                          38.300                   103825020.943 6
  26457530.027        -710.274          37.300   106533502.760 6  26457529.418
      -728.807          38.600   105179265.953 7  26457530.359        -719.541
        43.700
 138395581.433 6                  26335798.570
      2401.016                          40.600                   103347340.690 6
  26335800.590        1792.963          39.300   106043352.982 6  26335799.980
      1839.734          41.500   104695353.937 7  26335801.293        1816.358
        46.200
  63039551.910 7                  11996026.688
       817.411                          43.400



 202547345.182 6                  38543486.750
       -87.647                          40.000



 18  4  4  7  5 30.0000000  0 20G13R11R12G09G28R13G02G30R03G07R01R02
                                G05R18E07E30E12E19E20S20
 119947794.766 7  93465816.15445  22825303.336                    22825306.715
      2787.390        2171.992          45.300          30.400



 108419689.048 8  84326436.807 7  20289267.008    20289266.410    20289268.582
     -2276.051       -1770.253          49.900          47.300



 103915086.426 7                  19453122.227    19453121.125
      1627.475                          46.800



 120684096.040 7  94039619.273 6  22965434.305                    22965438.559
     -2831.892       -2206.676          47.200          41.300    90121307.321 8
  22965440.641       -2114.722          49.000


 121817433.594 7  94922713.53244  23181090.453                    23181092.891
      3009.284        2344.900          42.600          27.100



 124747625.395 5  97026131.141 5  23361267.195    23361265.098    23361269.676
      4480.521        3484.839          34.800          31.900



 123712269.123 7  96399219.28544  23541679.820                    23541681.719
     -2629.225       -2048.740          43.400          28.000



 106567442.385 8  83039660.712 8  20279126.063                    20279131.969
        62.646          48.825          51.200          51.800    79579673.793 9
  20279131.410          46.780          55.600


 121474615.144 7  94480262.560 7  22692478.195    22692477.543    22692481.039
      3695.566        2874.316          43.900          42.100



 111046347.105 8  86529665.469 7  21131423.578                    21131426.523
     -1602.960       -1249.059          52.300          47.600



 112082098.756 7  87175265.075 6  20967343.492    20967342.418    20967347.465
     -2771.253       -2155.457          44.100          39.800



 103321393.854 8  80361112.229 8  19362385.805    19362384.484    19362388.035
      1267.626         985.931          49.300          49.500



 108762358.062 8  84749895.606 8  20696785.633                    20696788.898
       938.434         731.246          50.800          48.900



 125369953.504 7  97509977.853 6  23486020.117    23486019.863    23486023.406
     -2383.594       -1853.892          42.900          40.700



 128545605.777 8                  24461415.813
     -1647.775                          48.300                    95991858.986 8
  24461419.805       -1230.480          50.200    98495993.334 8  24461419.148
     -1262.581          51.500    97243930.266 9  24461420.152       -1246.531
        56.400
 119951047.819 8                  22825924.313
     -1052.509                          51.100                    89573824.638 8
  22825927.492        -785.963          50.600    91910533.264 8  22825926.320
      -806.470          49.800    90742163.555 9  22825927.457        -796.213
        56.200
 139063991.759 6                  26462998.719
      -964.386                          37.100                   103846482.758 6
  26462999.109        -720.160          37.700   106555524.469 6  26462999.203
      -738.941          40.100   105201007.717 7  26462999.797        -729.547
        44.200
 138323577.445 6                  26322097.523
      2399.313                          40.100                   103293571.498 6
  26322098.105        1791.699          40.200   105988181.132 6  26322099.090
      1838.434          41.900   104640883.415 7  26322099.457        1815.066
        46.800
  63015143.609 7                  11991382.031
       810.008                          43.900



 202549974.728 6                  38543981.953
       -87.546                          39.100



 18  4  4  7  6  0.0000000  0 20G13R11R12G09G28R13G02G30R03G07R01R02
                                G05R18E07E30E12E19E20S20
 119864249.483 7  93400715.95545  22809404.883                    22809409.000
      2782.428        2168.125          44.800          30.400



 108488294.933 8  84379796.919 7  20302104.836    20302104.945    20302107.473
     -2296.967       -1786.543          48.800          47.600



 103866651.438 7                  19444055.188    19444054.086
      1602.335                          46.900



 120769126.861 7  94105876.984 6  22981615.195                    22981620.074
     -2836.678       -2210.399          46.400          41.700    90184804.286 8
  22981621.332       -2118.298          48.700


 121727265.805 6  94852452.96544  23163930.984                    23163935.020
      3002.088        2339.290          41.700          25.600



 124613285.584 5  96921644.614 5  23336108.516    23336106.066    23336112.281
      4475.540        3481.013          33.100          30.400



 123791267.461 7  96460776.39944  23556712.867                    23556715.008
     -2637.050       -2054.841          43.000          27.500



 106565825.472 8  83038400.792 8  20278818.195                    20278824.613
        45.694          35.612          51.800          51.600    79578466.361 9
  20278823.875          34.120          55.500


 121363777.650 7  94394055.611 7  22671772.844    22671771.957    22671775.813
      3693.589        2872.793          43.000          42.900



 111094630.396 8  86567288.812 7  21140611.680                    21140614.758
     -1615.524       -1258.858          52.700          47.600



 112165443.233 7  87240088.503 6  20982932.945    20982932.691    20982938.285
     -2784.637       -2165.817          44.200          40.600



 103283613.512 8  80331727.504 8  19355305.789    19355304.586    19355308.199
      1251.523         973.428          50.000          49.300



 108734478.160 8  84728171.004 8  20691480.695                    20691483.305
       920.780         717.489          51.200          49.400



 125441744.192 7  97565815.070 6  23499469.859    23499468.902    23499472.629
     -2401.862       -1868.107          42.600          41.200



 128595144.664 8                  24470842.492
     -1654.624                          48.700                    96028852.291 8
  24470846.602       -1235.592          50.500    98533951.683 8  24470846.133
     -1267.824          50.800    97281406.092 9  24470846.934       -1251.709
        56.400
 119982830.974 8                  22831972.430
     -1065.945                          50.800                    89597558.812 8
  22831975.438        -795.999          50.600    91934886.595 8  22831974.688
      -816.767          50.400    90766207.308 9  22831975.734        -806.384
        56.200
 139093126.943 6                  26468543.195
      -977.547                          36.900                   103868239.556 6
  26468543.652        -729.990          38.200   106577848.830 6  26468542.195
      -749.030          38.800   105223048.300 7  26468544.043        -739.510
        44.200
 138251624.857 6                  26308405.313
      2397.585                          41.000                   103239840.704 6
  26308406.570        1790.405          41.300   105933048.647 6  26308406.242
      1837.109          41.500   104586451.776 7  26308407.121        1813.757
        47.000
  62990955.575 7                  11986779.211
       802.655                          43.500



 202552604.668 6                  38544482.031
       -87.626                          39.000



 18  4  4  7  6 30.0000000  0 20G13R11R12G09G28R13G02G30R03G07R01R02
                                G05R18E07E30E12E19E20S20
 119780853.470 7  93335732.07444  22793536.188                    22793538.605
      2777.470        2164.259          46.400          29.600



 108557527.499 8  84433644.439 8  20315060.820    20315060.578    20315063.453
     -2317.817       -1802.735          49.100          48.000



 103818971.869 7                  19435130.063    19435128.375
      1577.127                          47.300



 120854301.010 7  94172246.442 7  22997822.570                    22997829.656
     -2841.435       -2214.089          46.400          43.600    90248408.330 8
  22997830.328       -2121.847          48.900


 121637315.977 6  94782362.19344  23146813.516                    23146818.164
      2994.784        2333.603          41.000          24.400



 124479096.243 5  96817275.137 5  23310977.836    23310977.500    23310982.629
      4470.559        3477.067          33.000          30.500



 123870498.671 7  96522514.96744  23571790.148                    23571792.211
     -2644.766       -2060.849          42.800          26.200



 106564716.643 8  83037536.768 8  20278607.500                    20278613.699
        28.792          22.436          50.500          51.800    79577638.332 9
  20278613.020          21.503          55.900


 121253001.168 7  94307896.128 7  22651080.586    22651079.465    22651081.973
      3691.532        2871.212          43.700          43.100



 111143290.973 8  86605206.126 7  21149871.109                    21149874.484
     -1628.081       -1268.635          52.600          46.600



 112249187.984 7  87305223.276 6  20998599.836    20998598.879    20998604.805
     -2797.924       -2176.161          43.800          40.900



 103246315.884 8  80302718.258 8  19348316.328    19348314.656    19348318.285
      1235.485         960.929          48.900          48.300



 108707128.648 8  84706859.688 8  20686275.430                    20686278.965
       903.111         703.726          49.100          48.900



 125514081.108 6  97622077.079 6  23513020.414    23513019.574    23513024.082
     -2419.970       -1882.191          40.700          40.800



 128644889.372 8                  24480308.898
     -1661.452                          48.700                    96065999.288 8
  24480312.914       -1240.691          50.500    98572067.737 8  24480312.258
     -1273.057          51.200    97319037.617 9  24480313.070       -1256.875
        56.500
 120015017.114 8                  22838097.055
     -1079.345                          50.300                    89621593.920 8
  22838100.000        -806.008          50.100    91959548.706 8  22838098.922
      -827.025          50.200    90790555.916 9  22838100.348        -816.513
        56.200
 139122656.492 6                  26474163.000
      -990.649                          37.100                   103890290.835 6
  26474163.488        -739.761          38.700   106600475.367 6  26474161.609
      -759.063          38.600   105245387.211 7  26474163.418        -749.415
        43.900
 138179724.761 6                  26294723.055
      2395.834                          41.500                   103186149.078 6
  26294724.742        1789.094          41.200   105877956.370 6  26294723.617
      1835.772          40.900   104532059.829 7  26294725.133        1812.436
        47.000
  62966988.988 7                  11982218.313
       795.290                          43.700



 202555232.134 6                  38544984.250
       -87.932                          39.900



 18  4  4  7  7  0.0000000  0 20G13R11R12G09G28R13G02G30R03G07R01R02
                                G05R18E07E30E12E19E20S20
 119697607.427 7  93270865.02944  22777694.852                    22777698.090
      2772.437        2160.341          45.500          29.900



 108627383.273 8  84487976.715 8  20328133.445    20328133.789    20328136.340
     -2338.565       -1818.885          49.000          48.000



 103772048.743 7                  19426346.281    19426344.945
      1551.880                          47.600



 120939617.744 7  94238727.005 7  23014057.875                    23014064.000
     -2846.217       -2217.820          45.800          43.000    90312118.850 8
  23014065.316       -2125.415          48.800


 121547586.907 6  94712443.48743  23129738.320                    23129741.371
      2987.386        2327.815          39.400          22.300



 124345060.265 5  96713025.054 5  23285877.367    23285875.977    23285881.852
      4465.407        3473.034          33.100          30.100



 123949959.874 7  96584432.76544  23586910.922                    23586913.488
     -2652.390       -2066.785          42.200          27.900



 106564115.194 8  83037068.101 8  20278492.719                    20278498.844
        11.874           9.251          51.300          51.700    79577189.194 9
  20278498.633           8.867          55.600


 121142287.173 7  94221785.320 7  22630396.125    22630395.707    22630399.621
      3689.440        2869.571          42.400          43.900



 111192326.913 8  86643415.934 7  21159202.359                    21159205.598
     -1640.581       -1278.372          52.800          47.200



 112333331.390 7  87370668.104 6  21014340.680    21014340.074    21014345.520
     -2811.200       -2186.486          44.500          40.400



 103209503.156 8  80274086.125 8  19341417.352    19341416.383    19341419.789
      1219.221         948.277          50.100          49.100



 108680310.552 8  84685962.466 8  20681172.500                    20681175.801
       885.343         689.877          50.800          48.700



 125586960.381 7  97678760.924 6  23526673.883    23526672.453    23526677.156
     -2437.995       -1896.225          42.200          41.100



 128694839.752 8                  24489813.742
     -1668.338                          48.800                    96103299.873 8
  24489818.426       -1245.839          50.500    98610341.387 8  24489817.391
     -1278.338          51.000    97356824.733 9  24489818.402       -1262.087
        56.500
 120047605.039 8                  22844298.422
     -1092.739                          50.600                    89645929.064 8
  22844301.227        -816.005          50.600    91984518.683 8  22844300.148
      -837.290          50.100    90815208.478 9  22844301.711        -826.644
        56.300
 139152579.237 6                  26479857.070
     -1003.760                          38.000                   103912635.738 6
  26479856.492        -749.557          37.400   106623403.188 6  26479856.445
      -769.110          38.200   105268023.567 7  26479857.500        -759.338
        43.400
 138107877.836 7                  26281051.398
      2394.012                          42.200                   103132497.160 6
  26281052.563        1787.733          41.600   105822904.837 6  26281051.625
      1834.377          41.500   104477708.106 7  26281053.109        1811.055
        47.000
  62943244.743 7                  11977699.930
       787.870                          43.100



 202557855.393 6                  38545484.156
       -87.622                          39.500



 18  4  4  7  7 30.0000000  0 20G13R11R12G09G28R13G02G30R03G07R01R02
                                G05R18E07E30E12E19E20S20
 119614512.112 7  93206115.44344  22761881.727                    22761884.945
      2767.403        2156.421          45.600          29.800



 108697859.276 8  84542791.385 7  20341321.844    20341321.602    20341324.863
     -2359.149       -1834.892          49.000          47.800



 103725884.592 7                  19417703.914    19417702.930
      1526.609                          47.000



 121025076.805 7  94305318.415 6  23030320.039                    23030325.234
     -2850.925       -2221.501          46.600          41.600    90375935.628 7
  23030325.848       -2128.929          47.000


 121458082.022 6  94642699.41743  23112706.656                    23112710.945
      2979.861        2321.969          40.900          22.600



 124211181.163 5  96608896.856 5  23260806.867    23260805.945    23260810.414
      4460.096        3468.963          35.200          32.400



 124029648.662 7  96646527.88344  23602075.727                    23602078.137
     -2659.930       -2072.669          43.800          27.500



 106564020.940 8  83036994.647 8  20278474.828                    20278480.762
        -5.014          -3.902          51.800          50.800    79577118.807 9
  20278480.785          -3.745          55.400


 121031638.671 7  94135725.372 7  22609726.391    22609725.270    22609729.336
      3687.212        2867.849          42.400          43.600



 111241736.609 8  86681916.990 7  21168604.695                    21168607.824
     -1652.969       -1288.022          51.900          47.200



 112417872.969 7  87436422.643 6  21030156.008    21030154.934    21030160.973
     -2824.416       -2196.762          44.600          40.000



 103173178.223 8  80245833.398 8  19334609.836    19334609.457    19334612.930
      1202.990         935.659          49.500          49.200



 108654025.983 8  84665480.984 8  20676170.203                    20676174.301
       867.539         676.003          50.500          49.200



 125660378.651 6  97735864.009 6  23540426.828    23540426.574    23540430.566
     -2455.888       -1910.141          40.500          41.500



 128744996.197 8                  24499358.680
     -1675.205                          48.900                    96140754.332 8
  24499362.563       -1250.967          50.600    98648772.922 8  24499361.438
     -1283.596          50.500    97394767.734 9  24499362.777       -1267.283
        56.400
 120080594.096 8                  22850576.172
     -1106.080                          50.700                    89670563.743 8
  22850578.914        -825.968          50.700    92009796.007 8  22850577.879
      -847.518          50.900    90840164.481 9  22850579.297        -836.746
        56.400
 139182894.501 6                  26485625.055
     -1016.787                          36.200                   103935273.719 6
  26485625.586        -759.286          38.100   106646631.754 6  26485625.914
      -779.101          38.300   105290956.837 7  26485626.547        -769.187
        43.800
 138036085.295 7                  26267389.719
      2392.211                          42.300                   103078885.857 6
  26267389.984        1786.392          41.000   105767894.971 6  26267390.406
      1832.996          41.200   104423397.515 7  26267391.207        1809.696
        46.900
  62919723.862 7                  11973223.977
       780.447                          43.300



 202560475.032 6                  38545984.719
       -87.366                          40.000



 18  4  4  7  8  0.0000000  0 20G13R11R12G09G28R13G02G30R03G07R01R02
                                G05R18E07E30E12E19E20S20
 119531568.458 7  93141484.02444  22746097.984                    22746101.715
      2762.304        2152.444          45.300          29.900



 108768951.643 8  84598085.452 7  20354626.023    20354625.664    20354628.688
     -2379.637       -1850.838          49.300          47.800



 103680479.433 7                  19409203.813    19409202.828
      1501.234                          47.200



 121110677.053 7  94372019.886 7  23046609.625                    23046616.180
     -2855.639       -2225.172          47.300          44.100    90439857.854 8
  23046616.035       -2132.456          48.300


 121368803.782 6  94573131.94444  23095717.141                    23095721.551
      2972.246        2316.029          40.900          24.800



 124077462.024 5  96504893.111 5  23235766.703    23235764.488    23235769.945
      4454.666        3464.783          35.300          33.800



 124109561.607 7  96708797.69044  23617282.867                    23617284.598
     -2667.351       -2078.466          43.800          27.300



 106564432.672 8  83037315.482 8  20278553.680                    20278559.148
       -21.890         -17.054          53.300          51.300    79577426.279 9
  20278558.879         -16.343          55.500


 120921057.327 7  94049717.702 7  22589068.773    22589067.887    22589072.297
      3684.958        2866.046          42.600          42.400



 111291518.180 8  86720707.817 7  21178077.727                    21178080.883
     -1665.374       -1297.695          51.400          47.400



 112502811.163 7  87502485.671 6  21046045.539    21046045.168    21046050.145
     -2837.660       -2207.083          44.400          39.300



 103137342.146 8  80217960.904 8  19327894.109    19327893.258    19327896.609
      1186.594         922.907          50.300          48.600



 108628275.540 8  84645415.698 8  20671270.781                    20671273.746
       849.703         662.103          50.000          49.000



 125734331.609 6  97793382.916 6  23554280.609    23554280.121    23554284.840
     -2473.675       -1923.986          39.800          41.900



 128795358.065 8                  24508941.930
     -1682.076                          48.700                    96178362.192 8
  24508946.277       -1256.093          50.500    98687361.864 8  24508945.105
     -1288.860          50.100    97432866.133 9  24508946.590       -1272.474
        56.200
 120113982.585 8                  22856929.586
     -1119.386                          50.500                    89695496.702 8
  22856932.926        -835.909          50.800    92035379.389 8  22856931.754
      -857.708          50.900    90865422.653 9  22856933.055        -846.809
        56.500
 139213600.682 6                  26491468.258
     -1029.812                          36.400                   103958203.638 6
  26491468.855        -769.015          37.600   106670159.827 6  26491470.168
      -789.078          39.100   105314185.838 7  26491469.563        -779.050
        43.700
 137964347.356 7                  26253738.828
      2390.347                          43.200                   103025315.321 7
  26253739.898        1784.998          42.200   105712926.926 6  26253739.477
      1831.567          41.900   104369128.227 7  26253740.000        1808.283
        47.200
  62896426.807 7                  11968790.938
       772.924                          43.800



 202563090.124 6                  38546486.063
       -87.521                          39.300



 18  4  4  7  8 30.0000000  0 20G13R11R12G09G28R13G02G30R03G07R01R02
                                G05R18E07E30E12E19E20S20
 119448777.174 7  93076971.35644  22730343.047                    22730346.746
      2757.201        2148.478          43.200          29.800



 108840657.564 8  84653856.668 7  20368044.961    20368045.188    20368047.980
     -2400.078       -1866.708          49.600          47.800



 103635835.341 7                  19400846.625    19400844.699
      1475.837                          47.200



 121196418.453 8  94438831.347 7  23062926.578                    23062932.402
     -2860.325       -2228.825          48.000          44.600    90503885.502 7
  23062931.668       -2135.964          47.400


 121279755.448 7  94503743.64243  23078772.453                    23078776.758
      2964.520        2310.013          42.300          22.800



 123943906.705 5  96401016.824 5  23210753.789    23210752.281    23210758.742
      4449.204        3460.459          33.500          33.600



 124189696.532 7  96771240.44944  23632532.148                    23632533.523
     -2674.713       -2084.192          43.800          27.100



 106565350.453 9  83038030.636 8  20278728.547                    20278733.828
       -38.747         -30.190          54.000          51.400    79578111.638 9
  20278733.387         -28.934          55.200


 120810545.892 7  93963764.367 7  22568422.953    22568422.891    22568427.223
      3682.557        2864.205          42.600          43.300



 111341670.520 8  86759787.545 7  21187621.570                    21187624.949
     -1677.716       -1307.314          51.600          47.800



 112588145.469 7  87568856.764 6  21062009.313    21062007.535    21062013.355
     -2850.853       -2217.328          43.800          39.400



 103101998.499 8  80190471.390 8  19321271.297    19321270.094    19321273.273
      1170.165         910.130          50.200          48.700



 108603061.411 8  84625768.317 8  20666472.211                    20666475.859
       831.817         648.164          50.200          48.900



 125808815.859 6  97851315.096 6  23568232.875    23568232.504    23568237.055
     -2491.335       -1937.700          39.500          40.600



 128845925.946 8                  24518565.078
     -1688.927                          48.300                    96216123.894 8
  24518569.082       -1261.211          50.200    98726108.664 8  24518568.051
     -1294.113          50.000    97471120.384 9  24518569.555       -1277.660
        56.200
 120147769.939 8                  22863359.102
     -1132.678                          49.300                    89720727.514 8
  22863362.449        -845.829          50.700    92061268.405 8  22863361.137
      -867.896          50.800    90890982.569 9  22863362.465        -856.868
        56.400
 139244697.248 5                  26497386.594
     -1042.870                          35.600                   103981425.096 6
  26497386.430        -778.774          37.800   106693987.059 6  26497386.570
      -799.082          38.300   105337710.183 7  26497387.199        -788.928
        43.300
 137892665.409 7                  26240098.133
      2388.460                          42.200                   102971786.588 7
  26240099.516        1783.586          42.000   105658001.808 6  26240097.875
      1830.118          41.700   104314901.306 7  26240099.473        1806.848
        46.900
  62873354.842 7                  11964400.289
       765.387                          43.800



 202565702.269 6                  38546972.578
       -86.874                          38.800



 18  4  4  7  9  0.0000000  0 20G13R11R12G09G28R13G02G30R03G07R01R02
                                G05R18E07E30E12E19E20S20
 119366138.626 7  93012577.70044  22714617.508                    22714621.496
      2752.136        2144.522          44.700          29.300



 108912973.183 8  84710102.154 7  20381578.391    20381578.266    20381580.445
     -2420.311       -1882.463          49.200          47.700



 103591952.875 7                  19392631.484    19392629.914
      1450.473                          47.400



 121282299.877 7  94505751.882 7  23079269.578                    23079274.219
     -2864.976       -2232.447          47.500          43.600    90568017.684 7
  23079273.309       -2139.427          46.700


 121190939.810 7  94434536.63544  23061871.133                    23061875.832
      2956.724        2303.942          42.700          26.100



 123810517.353 5  96297269.559 5  23185776.203    23185774.457    23185779.055
      4443.584        3456.116          34.600          32.000



 124270050.034 7  96833853.52144  23647822.406                    23647824.328
     -2681.956       -2089.832          43.800          25.700



 106566773.036 8  83039139.158 8  20278999.367                    20279004.691
       -55.530         -43.276          52.900          51.400    79579173.958 9
  20279004.070         -41.470          56.000


 120700106.100 7  93877866.732 7  22547793.922    22547793.270    22547796.477
      3680.145        2862.320          44.100          42.700



 111392191.606 8  86799154.605 7  21197235.445                    21197239.172
     -1689.961       -1316.854          51.900          47.100



 112673874.409 7  87635534.781 6  21078047.797    21078045.668    21078051.496
     -2863.977       -2227.533          43.600          39.900



 103067148.733 8  80163366.029 8  19314740.773    19314739.336    19314742.266
      1153.658         897.283          49.900          48.600



 108578383.310 8  84606538.617 8  20661776.516                    20661780.004
       813.931         634.235          51.300          48.800



 125883827.008 6  97909657.078 6  23582286.031    23582284.602    23582289.156
     -2508.828       -1951.316          39.000          40.000



 128896699.346 8                  24528226.695
     -1695.763                          48.300                    96254039.071 8
  24528230.598       -1266.316          50.300    98765012.938 8  24528229.848
     -1299.351          51.000    97509530.108 9  24528231.207       -1282.831
        56.100
 120181954.555 8                  22869864.047
     -1145.880                          50.100                    89746254.984 8
  22869867.395        -855.694          50.400    92087461.803 8  22869866.363
      -878.008          51.000    90916842.999 9  22869867.570        -866.849
        56.400
 139276182.531 6                  26503378.281
     -1055.734                          38.000                   104004936.824 6
  26503377.598        -788.377          37.100   106718112.139 6  26503377.270
      -808.936          38.100   105361528.584 7  26503378.609        -798.657
        42.900
 137821039.728 7                  26226467.797
      2386.619                          42.200                   102918299.865 7
  26226469.090        1782.215          42.100   105603119.791 7  26226468.477
      1828.710          42.100   104260716.933 7  26226469.594        1805.462
        47.200
  62850508.357 7                  11960053.234
       757.881                          43.000



 202568311.179 6                  38547471.000
       -86.792                          40.200



 18  4  4  7  9 30.0000000  0 20G13R11R12G09G28R13G02G30R03G07R01R02
                                G05R18E07E30E12E19E20S20
 119283654.086 7  92948304.04944  22698921.125                    22698924.379
      2747.000        2140.523          45.000          29.400



 108985894.581 8  84766818.789 7  20395224.133    20395224.359    20395226.738
     -2440.491       -1898.147          49.300          47.700



 103548832.910 7                  19384559.375    19384557.922
      1424.986                          46.700



 121368320.450 7  94572780.827 7  23095638.258                    23095644.926
     -2869.609       -2236.059          47.700          44.600    90632253.760 7
  23095644.488       -2142.885          47.600


 121102359.527 7  94365513.05544  23045015.445                    23045019.285
      2948.806        2297.764          43.300          27.600



 123677297.089 6  96193653.832 5  23160829.594    23160827.027    23160830.996
      4437.890        3451.704          36.200          32.200



 124350619.091 7  96896634.59744  23663153.945                    23663156.641
     -2689.092       -2095.407          42.100          26.000



 106568699.591 8  83040640.379 8  20279365.703                    20279371.063
       -72.352         -56.377          51.600          51.100    79580612.623 9
  20279370.563         -54.029          55.500


 120589739.708 7  93792026.208 7  22527177.516    22527176.043    22527179.387
      3677.608        2860.353          44.500          42.700



 111443079.379 8  86838807.411 7  21206919.289                    21206922.449
     -1702.172       -1326.365          52.500          47.600



 112759996.498 7  87702518.608 6  21094157.633    21094157.145    21094163.043
     -2877.073       -2237.739          43.700          40.900



 103032794.802 8  80136646.282 8  19308302.453    19308301.836    19308305.238
      1137.099         884.432          49.600          49.000



 108554243.750 8  84587728.565 8  20657182.820                    20657186.098
       795.932         620.203          51.300          48.800



 125959361.121 6  97968405.765 6  23596436.867    23596434.852    23596439.148
     -2526.171       -1964.814          39.300          39.800



 128947677.935 8                  24537927.547
     -1702.605                          48.300                    96292107.470 8
  24537931.688       -1271.425          49.700    98804074.424 8  24537931.031
     -1304.589          50.700    97548095.050 9  24537932.328       -1288.006
        56.000
 120216535.092 8                  22876444.398
     -1159.098                          50.000                    89772078.103 8
  22876447.738        -865.559          50.500    92113958.567 8  22876446.848
      -888.138          50.800    90943002.939 9  22876448.027        -876.846
        56.200
 139308055.301 6                  26509443.117
     -1068.652                          37.900                   104028737.894 6
  26509441.492        -798.016          36.600   106742534.126 6  26509443.555
      -818.841          39.300   105385640.109 7  26509443.695        -808.422
        43.600
 137749470.928 6                  26212849.188
      2384.672                          41.200                   102864855.631 6
  26212849.824        1780.759          41.800   105548281.366 6  26212850.059
      1827.212          41.900   104206575.602 7  26212850.711        1803.985
        47.400
  62827887.961 7                  11955748.648
       750.336                          43.400



 202570916.958 6                  38547964.813
       -86.746                          40.500



 18  4  4  7 10  0.0000000  0 20G13R11R12G09G28R13G02G30R03G07R01R02
                                G05R18E07E30E12E19E20S20
 119201323.998 7  92884150.74344  22683253.891                    22683257.934
      2741.832        2136.497          45.700          28.700



 109059418.557 8  84824004.122 7  20408983.469    20408982.285    20408984.848
     -2460.454       -1913.695          49.000          46.800



 103506476.864 7                  19376630.117    19376629.133
      1399.551                          47.500



 121454479.640 7  94639917.824 7  23112033.703                    23112040.488
     -2874.187       -2239.618          46.700          44.900    90696593.412 7
  23112039.406       -2146.305          46.400


 121014017.506 7  94296675.10144  23028205.070                    23028207.402
      2940.887        2291.600          43.700          26.500



 123544249.308 5  96090172.272 5  23135912.852    23135909.816    23135915.063
      4432.111        3447.186          34.100          32.600



 124431400.954 7  96959581.44344  23678526.961                    23678528.344
     -2696.087       -2100.837          43.000          25.700



 106571129.490 8  83042533.812 8  20279827.883                    20279833.637
       -89.085         -69.421          53.100          51.600    79582427.164 9
  20279833.195         -66.527          55.600


 120479449.127 7  93706244.626 7  22506574.539    22506573.184    22506575.770
      3675.125        2858.429          45.000          43.500



 111494332.505 8  86878744.908 7  21216672.547                    21216674.922
     -1714.272       -1335.804          52.200          47.000



 112846510.871 7  87769807.500 6  21110342.219    21110340.910    21110346.785
     -2890.090       -2247.849          44.100          39.700



 102998938.718 8  80110313.781 8  19301957.469    19301956.734    19301960.164
      1120.492         871.495          49.400          48.900



 108530643.657 8  84569338.872 8  20652691.758                    20652694.641
       777.976         606.220          51.300          48.900



 126035414.457 6  98027558.346 6  23610684.523    23610682.859    23610686.781
     -2543.423       -1978.201          39.500          40.800



 128998861.815 8                  24547667.602
     -1709.422                          48.200                    96330329.173 8
  24547671.566       -1276.516          50.000    98843293.221 8  24547670.863
     -1309.816          50.100    97586815.303 9  24547672.152       -1293.166
        56.000
 120251510.376 8                  22883100.117
     -1172.176                          50.300                    89798196.003 8
  22883102.973        -875.327          50.800    92140757.810 8  22883102.645
      -898.164          50.500    90969461.509 9  22883103.645        -886.744
        56.300
 139340314.487 6                  26515581.977
     -1081.505                          38.300                   104052827.533 6
  26515581.078        -807.616          36.800   106767252.172 6  26515581.453
      -828.681          37.300   105410043.951 7  26515582.484        -818.148
        42.800
 137677959.812 6                  26199240.836
      2382.735                          41.300                   102811454.470 7
  26199241.855        1779.319          42.600   105493487.121 6  26199241.105
      1825.732          41.200   104152477.900 7  26199242.410        1802.528
        47.400
  62805494.526 7                  11951487.031
       742.759                          43.600



 202573516.814 6                  38548457.375
       -86.515                          40.200



 18  4  4  7 10 30.0000000  0 20G13R11R12G09G28R13G02G30R03G07R01R02
                                G05R18E07E30E12E19E20S20
 119119149.357 7  92820118.56744  22667616.969                    22667620.352
      2736.647        2132.453          46.600          29.600



 109133541.591 8  84881655.372 7  20422853.195    20422853.188    20422856.023
     -2480.347       -1929.149          48.600          47.100



 103464885.759 7                  19368843.961    19368843.211
      1374.005                          47.500



 121540776.819 7  94707162.328 7  23128455.102                    23128461.078
     -2878.808       -2243.221          45.200          43.800    90761036.031 7
  23128461.105       -2149.754          46.500


 120925916.276 7  94228024.80944  23011440.000                    23011442.836
      2932.774        2285.290          43.500          27.300



 123411377.559 5  95986827.593 5  23111032.086    23111029.168    23111032.535
      4426.175        3442.602          35.300          32.500



 124512392.593 7  97022691.76944  23693938.617                    23693940.461
     -2703.084       -2106.297          42.700          24.800



 106574062.101 8  83044818.947 8  20280385.969                    20280391.539
      -105.847         -82.474          51.700          51.900    79584617.099 9
  20280391.152         -79.043          55.600


 120369236.942 7  93620524.052 7  22485984.031    22485984.203    22485987.328
      3672.457        2856.352          44.200          44.400



 111545949.098 8  86918965.606 7  21226494.406                    21226497.840
     -1726.384       -1345.229          52.000          47.200



 112933415.942 7  87837400.297 6  21126598.906    21126598.535    21126603.777
     -2903.145       -2257.977          43.900          39.200



 102965583.399 8  80084370.733 8  19295706.773    19295705.570    19295708.793
      1103.742         858.478          49.600          48.600



 108507583.887 8  84551370.217 8  20648303.844                    20648306.961
       759.941         592.161          50.300          49.300



 126111983.012 6  98087111.622 6  23625027.320    23625027.184    23625031.023
     -2560.516       -1991.521          39.200          39.500



 129050250.876 8                  24557446.883
     -1716.281                          48.700                    96368704.096 8
  24557450.738       -1281.639          50.200    98882669.232 8  24557449.754
     -1315.072          49.900    97625690.766 9  24557451.160       -1298.354
        56.000
 120286879.314 8                  22889830.625
     -1185.307                          50.500                    89824607.873 8
  22889833.371        -885.129          50.000    92167858.685 8  22889833.090
      -908.225          50.600    90996217.883 9  22889834.078        -896.678
        56.300
 139372958.910 6                  26521793.719
     -1094.339                          38.700                   104077204.836 6
  26521793.258        -817.202          36.400   106792265.375 6  26521793.211
      -838.514          37.400   105434739.211 7  26521794.105        -827.857
        42.300
 137606507.238 6                  26185643.586
      2380.781                          41.000                   102758097.041 7
  26185645.332        1777.859          42.500   105438737.765 6  26185643.973
      1824.239          41.100   104098424.507 7  26185645.563        1801.052
        47.400
  62783328.928 7                  11947268.797
       735.159                          43.800



 202576111.983 6                  38548951.969
       -86.116                          40.800



 18  4  4  7 11  0.0000000  0 20G13R11R12G09G28R13G02G30R03G07R01R02
                                G05R18E07E30E12E19E20S20
 119037130.991 7  92756208.14444  22652009.617                    22652012.750
      2731.427        2128.384          46.000          29.700



 109208260.493 8  84939770.057 7  20436836.977    20436836.262    20436839.176
     -2500.215       -1944.609          48.400          47.400



 103424060.616 8                  19361202.711    19361200.906
      1348.464                          48.100



 121627211.554 7  94774514.051 7  23144902.586                    23144909.965
     -2883.384       -2246.786          45.200          43.800    90825581.432 7
  23144910.113       -2153.176          47.300


 120838059.445 7  94159564.95944  22994720.820                    22994725.531
      2924.561        2278.878          42.500          26.600



 123278684.515 5  95883621.942 5  23086182.328    23086179.410    23086183.715
      4420.164        3437.907          35.400          31.400



 124593591.384 7  97085963.51344  23709390.375                    23709392.246
     -2709.943       -2111.640          42.600          26.100



 106577496.872 8  83047495.386 8  20281039.375                    20281045.582
      -122.596         -95.528          51.400          52.000    79587182.027 9
  20281044.668         -91.551          55.400


 120259105.598 7  93534866.367 7  22465410.336    22465410.039    22465413.055
      3669.705        2854.234          42.500          43.400



 111597927.436 8  86959468.193 7  21236385.445                    21236388.730
     -1738.446       -1354.630          51.300          46.800



 113020711.334 7  87905296.712 6  21142929.961    21142929.121    21142934.793
     -2916.151       -2268.131          44.100          39.200



 102932730.739 8  80058818.672 8  19289550.164    19289549.313    19289552.477
      1086.912         845.380          49.600          49.200



 108485066.040 8  84533823.835 8  20644018.453                    20644022.125
       741.813         578.034          50.700          49.000



 126189063.199 6  98147062.794 6  23639467.680    23639467.191    23639470.082
     -2577.594       -2004.771          40.500          39.300



 129101845.349 8                  24567265.227
     -1723.162                          48.800                    96407232.411 8
  24567269.016       -1286.777          50.100    98922202.635 8  24567267.938
     -1320.343          50.300    97664721.630 9  24567269.379       -1303.561
        56.000
 120322640.976 8                  22896636.297
     -1198.396                          50.300                    89851313.014 8
  22896638.547        -894.909          50.000    92195260.471 8  22896638.219
      -918.255          50.900    91023271.346 9  22896639.219        -906.582
        56.100
 139405987.690 6                  26528079.242
     -1107.188                          39.100                   104101869.162 6
  26528079.238        -826.796          37.600   106817573.133 6  26528077.551
      -848.363          36.000   105459725.255 7  26528079.465        -837.576
        42.100
 137535114.310 6                  26172056.953
      2378.772                          39.300                   102704784.167 7
  26172059.652        1776.354          42.300   105384034.102 6  26172058.574
      1822.698          41.100   104044416.241 7  26172059.598        1799.527
        47.300
  62761392.217 7                  11943094.688
       727.456                          43.000



 202578704.719 6                  38549446.969
       -86.374                          40.900



 18  4  4  7 11 30.0000000  0 20G13R11R12G09G28R13G02G30R03G07R01R02
                                G05R18E07E30E12E19E20S20
 118955269.427 7  92692419.92745  22636432.188                    22636435.145
      2726.176        2124.302          45.300          30.200



 109283571.613 8  84998345.360 7  20450929.641    20450930.102    20450932.855
     -2519.885       -1959.899          49.100          47.600



 103384002.734 7                  19353702.914    19353701.344
      1322.896                          47.400



 121713783.056 7  94841972.349 7  23161377.766                    23161383.074
     -2887.909       -2250.317          46.000          42.900    90890228.940 7
  23161382.633       -2156.553          45.700


 120750449.160 6  94091297.22044  22978048.898                    22978053.008
      2916.350        2272.477          40.900          27.000



 123146173.641 6  95780557.897 5  23061366.313    23061363.746    23061368.637
      4414.080        3433.188          36.200          31.900



 124674994.191 7  97149394.22244  23724880.781                    23724882.953
     -2716.709       -2116.914          42.000          26.200



 106581432.875 8  83050562.408 8  20281788.398                    20281794.715
      -139.275        -108.528          50.800          52.200    79590121.250 9
  20281793.684        -104.008          55.400


 120149056.486 6  93449272.658 7  22444852.828    22444852.059    22444855.000
      3666.931        2852.056          41.600          43.200



 111650266.043 8  87000251.522 7  21246345.539                    21246348.613
     -1750.410       -1363.958          52.400          47.500



 113108395.590 7  87973495.542 6  21159332.344    21159332.090    21159337.441
     -2929.055       -2278.138          43.500          39.800



 102900382.950 8  80033659.280 8  19283488.578    19283487.727    19283490.887
      1070.150         832.348          49.200          48.800



 108463091.216 8  84516700.591 8  20639837.164                    20639840.297
       723.734         563.954          50.100          48.700



 126266650.865 6  98207408.719 6  23654005.031    23654002.547    23654005.582
     -2594.336       -2017.844          41.300          39.500



 129153644.881 8                  24577122.055
     -1729.955                          48.600                    96445913.848 8
  24577126.277       -1291.850          50.200    98961893.159 8  24577125.387
     -1325.551          50.000    97703907.607 9  24577126.602       -1308.697
        56.000
 120358793.850 8                  22903515.719
     -1211.380                          50.700                    89878310.285 8
  22903518.480        -904.600          50.200    92222962.018 8  22903518.480
      -928.198          51.100    91050620.758 9  22903519.102        -916.402
        56.200
 139439399.344 6                  26534437.266
     -1119.875                          39.100                   104126819.393 6
  26534437.059        -836.273          36.200   106843174.249 6  26534435.934
      -858.089          36.600   105485000.927 6  26534437.555        -847.182
        41.500
 137463781.456 6                  26158482.844
      2376.783                          39.600                   102651516.153 7
  26158486.195        1774.870          42.400   105329376.474 6  26158484.695
      1821.168          41.200   103990453.419 7  26158485.605        1798.017
        47.100
  62739684.779 7                  11938963.664
       719.865                          43.500



 202581293.748 6                  38549939.391
       -85.984                          40.800



 18  4  4  7 12  0.0000000  0 20G13R11R12G09G28R13G02G30R03G07R01R02
                                G05R18E07E30E12E19E20S20
 118873565.726 7  92628754.71144  22620884.570                    22620887.293
      2720.905        2120.189          44.700          29.700



 109359471.381 8  85057378.480 7  20465133.930    20465133.570    20465136.215
     -2539.453       -1975.127          48.600          47.100



 103344712.506 7                  19346348.328    19346346.641
      1297.297                          47.900



 121800490.677 7  94909536.655 6  23177878.125                    23177882.359
     -2892.427       -2253.841          46.800          41.800    90954978.056 7
  23177883.855       -2159.927          46.200


 120663088.575 7  94023224.05744  22961425.375                    22961428.293
      2907.997        2265.975          42.200          25.800



 123013848.163 6  95677638.138 5  23036585.945    23036583.262    23036586.805
      4407.827        3428.351          36.700          32.800



 124756598.174 7  97212981.70344  23740410.242                    23740411.719
     -2723.341       -2122.084          42.400          26.500



 106585869.386 8  83054019.434 8  20282632.727                    20282638.645
      -155.931        -121.500          51.800          51.700    79593434.229 9
  20282638.199        -116.439          55.600


 120039092.945 7  93363745.508 7  22424309.914    22424310.086    22424313.898
      3664.042        2849.814          43.200          44.500



 111702962.947 8  87041314.018 7  21256373.539                    21256376.883
     -1762.304       -1373.221          52.200          47.300



 113196467.262 7  88041995.661 6  21175808.625    21175808.371    21175813.969
     -2941.933       -2288.158          43.400          40.200



 102868542.073 8  80008894.146 8  19277521.086    19277520.000    19277523.410
      1053.142         819.101          49.200          48.300



 108441660.523 8  84500001.353 8  20635758.781                    20635762.367
       705.603         549.820          50.500          49.200



 126344741.993 6  98268146.200 6  23668632.875    23668630.977    23668634.602
     -2611.076       -2030.815          40.700          39.800



 129205649.478 8                  24587018.344
     -1736.775                          48.600                    96484748.410 8
  24587022.523       -1296.942          50.100    99001740.801 8  24587021.680
     -1330.774          50.200    97743248.709 9  24587022.711       -1313.858
        56.200
 120395336.853 8                  22910469.547
     -1224.351                          50.000                    89905598.890 8
  22910472.293        -914.291          50.100    92250962.498 8  22910472.246
      -938.140          50.700    91078265.300 9  22910472.891        -926.218
        56.100
 139473192.804 6                  26540867.867
     -1132.562                          39.200                   104152054.753 6
  26540867.789        -845.748          36.600   106869067.924 6  26540867.695
      -867.808          36.600   105510565.441 7  26540868.324        -856.774
        42.000
 137392509.587 6                  26144920.305
      2374.752                          40.200                   102598293.677 7
  26144922.523        1773.359          42.000   105274765.578 6  26144921.117
      1819.615          41.100   103936536.734 7  26144922.574        1796.488
        46.800
  62718207.653 7                  11934876.992
       712.188                          43.000



 202583877.814 6                  38550424.438
       -85.955                          39.200



 18  4  4  7 12 30.0000000  0 20G13R11R12G09G28R13G02G30R03G07R01R02
                                G05R18E07E30E12E19E20S20
 118792020.537 7  92565213.02044  22605366.086                    22605369.551
      2715.615        2116.067          44.700          29.700



 109435956.024 8  85116866.511 7  20479446.523    20479447.219    20479449.613
     -2558.860       -1990.207          49.600          47.400



 103306191.180 7                  19339136.664    19339135.563
      1271.667                          47.300



 121887333.727 7  94977206.498 7  23194402.773                    23194410.211
     -2896.914       -2257.329          45.000          43.800    91019828.365 7
  23194410.297       -2163.272          46.400


 120575980.456 7  93955347.59744  22944848.883                    22944853.141
      2899.537        2259.376          42.400          26.100



 122881710.864 6  95574864.750 5  23011839.547    23011838.625    23011842.922
      4401.547        3423.433          36.400          32.600



 124838400.464 7  97276723.70544  23755977.000                    23755977.984
     -2729.857       -2127.156          42.600          24.700



 106590805.528 8  83057865.780 8  20283572.125                    20283577.781
      -172.569        -134.472          52.100          51.500    79597120.306 9
  20283577.633        -128.865          55.500


 119929216.855 7  93278286.364 7  22403785.547    22403784.191    22403787.430
      3661.172        2847.540          44.000          43.500



 111756016.275 8  87082654.262 7  21266469.195                    21266471.746
     -1774.145       -1382.445          52.300          46.700



 113284925.430 7  88110796.426 6  21192355.875    21192355.738    21192361.777
     -2954.820       -2298.165          43.800          40.400



 102837210.451 8  79984525.094 8  19271649.883    19271648.914    19271652.055
      1036.160         805.901          49.500          48.700



 108420774.948 8  84483726.872 8  20631784.563                    20631787.992
       687.408         535.640          51.800          49.100



 126423332.583 6  98329272.229 6  23683354.633    23683352.734    23683356.754
     -2627.689       -2043.742          41.000          38.400



 129257858.950 7                  24596953.453
     -1743.582                          47.900                    96523735.972 8
  24596957.711       -1302.025          50.300    99041745.435 8  24596956.820
     -1335.990          50.000    97782744.811 9  24596957.918       -1319.012
        56.200
 120432268.604 8                  22917497.633
     -1237.302                          50.600                    89933177.790 8
  22917500.344        -923.961          50.200    92279260.848 8  22917499.496
      -948.063          50.300    91106203.925 9  22917500.719        -936.015
        56.000
 139507366.752 6                  26547371.102
     -1145.249                          38.500                   104177574.228 6
  26547371.348        -855.215          38.000   106895253.162 6  26547370.457
      -877.527          37.000   105536417.805 7  26547371.711        -866.374
        43.100
 137321299.429 6                  26131369.984
      2372.656                          41.200                   102545117.266 6
  26131371.309        1771.792          41.500   105220201.959 7  26131370.652
      1818.012          42.100   103882666.716 7  26131371.855        1794.899
        47.000
  62696961.525 7                  11930833.969
       704.512                          43.000



 202586457.058 6                  38550918.281
       -85.626                          40.400



 18  4  4  7 13  0.0000000  0 20G13R11R12G09G28R13G02G30R03G07R01R02
                                G05R18E07E30E12E19E20S20
 118710634.793 7  92501795.56544  22589878.969                    22589882.004
      2710.312        2111.926          44.600          29.400



 109513022.206 8  85176806.863 7  20493868.773    20493868.648    20493870.969
     -2578.167       -2005.231          48.900          47.500



 103268439.320 7                  19332068.672    19332067.336
      1246.002                          46.700



 121974311.561 7  95044981.382 6  23210954.750                    23210958.715
     -2901.397       -2260.838          43.900          40.500    91084779.249 7
  23210960.563       -2166.627          46.300


 120489127.538 7  93887669.98644  22928320.773                    22928325.336
      2890.980        2252.710          42.500          26.400



 122749765.517 5  95472240.591 5  22987130.891    22987129.145    22987134.039
      4395.089        3418.389          34.600          34.700



 124920398.155 6  97340617.98944  23771580.156                    23771581.563
     -2736.336       -2132.214          41.700          26.400



 106596240.557 8  83062100.856 8  20284606.633                    20284612.055
      -189.161        -147.402          51.900          51.600    79601178.928 9
  20284611.961        -141.255          55.400


 119819429.918 7  93192896.484 7  22383276.664    22383275.895    22383278.152
      3658.124        2845.214          45.600          43.200



 111809424.321 8  87124270.925 7  21276632.414                    21276635.270
     -1785.954       -1391.655          51.300          46.500



 113373768.643 7  88179896.670 6  21208975.891    21208975.168    21208982.121
     -2967.608       -2308.130          42.700          41.000



 102806389.802 8  79960553.468 8  19265874.305    19265873.453    19265876.402
      1019.109         792.647          49.800          48.700



 108400435.914 8  84467878.262 8  20627914.688                    20627917.473
       669.190         521.444          52.100          48.400



 126502418.598 6  98390783.498 6  23698170.539    23698169.344    23698172.543
     -2644.116       -2056.524          41.900          36.900



 129310273.258 8                  24606927.852
     -1750.433                          48.900                    96562876.492 8
  24606931.977       -1307.138          50.500    99081907.021 8  24606930.898
     -1341.235          50.200    97822395.864 9  24606932.008       -1324.189
        56.300
 120469587.948 8                  22924599.031
     -1250.196                          50.400                    89961046.121 8
  22924601.840        -933.586          50.300    92307856.181 8  22924601.320
      -957.939          50.500    91134435.757 9  22924602.367        -945.765
        56.000
 139541919.967 6                  26553946.133
     -1157.849                          38.800                   104203376.945 6
  26553946.836        -864.623          39.000   106921728.965 6  26553945.992
      -887.176          37.000   105562557.062 7  26553946.820        -875.903
        43.500
 137250151.797 6                  26117831.359
      2370.611                          41.400                   102491987.541 6
  26117832.891        1770.260          41.900   105165686.242 6  26117832.750
      1816.439          41.900   103828843.991 7  26117833.008        1793.354
        47.300
  62675947.161 7                  11926835.039
       696.791                          43.600



 202589033.320 6                  38551409.406
       -85.961                          38.900



 18  4  4  7 13 30.0000000  0 20G13R11R12G09G28R13G02G30R03G07R01R02
                                G05R18E07E30E12E19E20S20
 118629409.167 7  92438502.87145  22574422.609                    22574425.672
      2704.926        2107.739          43.200          30.400



 109590666.466 8  85237196.840 7  20508398.703    20508399.047    20508401.879
     -2597.429       -2020.217          48.900          47.400



 103231458.292 7                  19325145.203    19325144.805
      1220.267                          46.400



 122061423.666 7  95112860.875 7  23227530.219                    23227538.500
     -2905.896       -2264.327          43.000          42.800    91149830.493 8
  23227539.816       -2169.977          48.600


 120402533.053 6  93820193.76544  22911842.094                    22911845.582
      2882.302        2245.960          41.200          25.700



 122618014.795 5  95369767.887 6  22962458.711    22962457.555    22962461.867
      4388.533        3413.274          35.700          36.400



 125002588.473 6  97404662.31244  23787220.102                    23787222.332
     -2742.758       -2137.206          40.200          25.600



 106602173.879 8  83066724.230 8  20285735.633                    20285741.180
      -205.795        -160.362          52.400          52.200    79605609.658 9
  20285740.793        -153.679          55.400


 119709735.322 7  93107578.476 6  22362785.070    22362783.480    22362785.742
      3654.981        2842.750          46.200          41.800



 111863185.850 8  87166163.011 7  21286863.055                    21286866.094
     -1797.715       -1400.816          51.500          47.100



 113462995.898 7  88249295.607 6  21225668.508    21225667.434    21225674.277
     -2980.404       -2318.102          42.900          41.000



 102776082.872 8  79936981.409 8  19260194.508    19260192.953    19260196.523
      1001.918         779.266          50.100          48.900



 108380644.742 8  84452456.551 8  20624148.227                    20624151.719
       650.873         507.174          51.900          49.500



 126581996.175 6  98452677.127 6  23713077.359    23713076.164    23713081.023
     -2660.481       -2069.219          39.800          38.000



 129362892.427 8                  24616940.891
     -1757.258                          48.700                    96602169.999 8
  24616944.984       -1312.237          50.800    99122225.581 8  24616943.953
     -1346.470          50.000    97862201.895 9  24616945.051       -1329.353
        56.300
 120507293.839 8                  22931774.172
     -1263.068                          50.800                    89989203.111 8
  22931777.516        -943.202          50.600    92336747.706 8  22931776.578
      -967.805          50.400    91162960.016 9  22931777.598        -955.502
        56.100
 139576851.445 6                  26560593.617
     -1170.459                          39.100                   104229462.111 6
  26560593.570        -874.046          38.100   106948494.637 6  26560592.773
      -896.844          37.000   105588982.480 7  26560594.195        -885.446
        43.200
 137179067.738 7                  26104304.469
      2368.439                          42.100                   102438905.276 6
  26104306.402        1768.637          41.900   105111219.233 7  26104305.180
      1814.773          42.600   103775069.355 7  26104306.301        1791.711
        47.700
  62655165.624 7                  11922880.531
       688.989                          43.000



 202591608.055 6                  38551906.297
       -85.779                          40.800



 18  4  4  7 14  0.0000000  0 20G13R11R12G09G28R13G02G30R03G07R01R02
                                G05R18E07E30E12E19E20S20
 118548344.484 7  92375335.60245  22558996.297                    22558999.605
      2699.573        2103.565          43.900          31.300



 109668885.187 8  85298033.635 7  20523036.438    20523035.961    20523038.840
     -2616.482       -2035.063          49.000          47.600



 103195248.721 7                  19318367.109    19318366.242
      1194.575                          47.000



 122148669.412 7  95180844.620 7  23244132.531                    23244140.891
     -2910.331       -2267.786          44.900          43.900    91214981.533 7
  23244138.340       -2173.304          45.500


 120316199.998 6  93752921.27244  22895414.086                    22895417.555
      2873.547        2239.131          41.700          26.900



 122486462.205 6  95267449.376 5  22937823.609    22937821.512    22937826.129
      4381.870        3408.081          36.200          35.000



 125084968.582 6  97468854.56144  23802896.070                    23802898.590
     -2749.021       -2142.099          40.700          25.000



 106608604.664 8  83071735.231 8  20286959.031                    20286964.711
      -222.345        -173.257          51.800          51.400    79610411.872 9
  20286964.441        -166.039          55.500


 119600135.019 7  93022333.766 6  22342309.633    22342309.570    22342312.023
      3651.789        2840.293          45.300          41.800



 111917298.810 8  87208328.938 7  21297159.914                    21297163.184
     -1809.384       -1409.910          51.900          47.000



 113552606.020 7  88318992.312 6  21242430.773    21242431.105    21242437.727
     -2993.136       -2327.994          43.100          39.900



 102746291.818 8  79913810.577 8  19254611.750    19254610.781    19254613.988
       984.719         765.902          49.800          49.000



 108361402.569 8  84437462.642 8  20620486.539                    20620489.801
       632.572         492.915          51.000          49.300



 126662061.346 6  98514950.077 6  23728076.281    23728074.969    23728078.789
     -2676.643       -2081.841          40.400          37.000



 129415716.441 8                  24626992.992
     -1764.073                          49.100                    96641616.464 8
  24626997.199       -1317.327          51.100    99162701.093 8  24626995.840
     -1351.691          50.500    97902162.885 9  24626997.137       -1334.508
        56.300
 120545384.988 8                  22939022.719
     -1275.878                          51.300                    90017647.790 8
  22939026.230        -952.768          50.600    92365934.422 8  22939024.918
      -977.623          50.000    91191775.711 9  22939026.148        -965.196
        56.100
 139612159.926 6                  26567312.367
     -1183.000                          38.800                   104255828.788 6
  26567311.746        -883.405          36.800   106975549.132 6  26567312.262
      -906.454          37.900   105615693.058 7  26567312.922        -894.928
        42.600
 137108048.017 7                  26090790.164
      2366.306                          42.400                   102385871.066 6
  26090790.965        1767.042          41.500   105056801.535 7  26090790.684
      1813.136          42.300   103721343.401 7  26090791.891        1790.096
        47.600
  62634617.654 7                  11918970.313
       681.233                          44.100



 202594184.119 6                  38552397.625
       -86.047                          39.800



 18  4  4  7 14 30.0000000  0 20G13R11R12G09G28R13G02G30R03G07R01R02
                                G05R18E07E30E12E19E20S20
 118467441.395 7  92312294.26545  22543601.195                    22543604.336
      2694.149        2099.338          45.200          31.300



 109747674.713 8  85359314.342 7  20537781.430    20537781.188    20537783.789
     -2635.482       -2049.811          48.800          47.800



 103159811.147 7                  19311733.656    19311732.320
      1168.794                          46.800



 122236047.892 7  95248931.746 6  23260761.641                    23260765.074
     -2914.735       -2271.231          44.100          38.700    91280231.607 7
  23260768.563       -2176.581          47.500


 120230130.790 7  93685854.39444  22879036.063                    22879039.402
      2864.706        2232.232          43.100          27.000



 122355111.012 5  95165287.429 5  22913223.820    22913222.430    22913228.852
      4375.077        3402.795          34.300          33.000



 125167535.349 7  97533192.25843  23818608.438                    23818610.539
     -2755.177       -2146.896          42.000          23.900



 106615531.772 8  83077132.973 8  20288277.023                    20288283.039
      -238.886        -186.142          52.500          51.300    79615584.709 9
  20288282.711        -178.394          55.600


 119490631.450 7  92937164.312 6  22321853.977    22321853.797    22321854.953
      3648.510        2837.720          44.200          40.900



 111971761.443 8  87250767.344 7  21307523.945                    21307527.012
     -1821.023       -1418.981          51.400          46.600



 113642597.662 7  88388985.758 6  21259267.570    21259266.145    21259271.914
     -3005.851       -2337.890          43.700          39.800



 102717018.291 8  79891042.276 8  19249125.703    19249124.852    19249128.270
       967.450         752.454          49.100          48.500



 108342709.894 8  84422896.915 8  20616929.508                    20616932.672
       614.228         478.621          52.100          49.600



 126742609.747 6  98577598.822 6  23743166.469    23743165.512    23743169.254
     -2692.675       -2094.323          40.800          36.800



 129468744.885 8                  24637083.844
     -1770.918                          48.800                    96681215.607 8
  24637088.363       -1322.439          51.100    99203333.262 8  24637086.859
     -1356.940          49.900    97942278.542 9  24637088.289       -1339.689
        56.400
 120583859.851 8                  22946344.328
     -1288.670                          49.800                    90046379.012 8
  22946347.359        -962.320          50.600    92395415.154 8  22946346.000
      -987.424          50.500    91220881.688 9  22946347.504        -974.868
        56.000
 139647843.889 6                  26574102.727
     -1195.512                          38.900                   104282475.862 6
  26574102.637        -892.743          37.700   107002891.369 6  26574102.824
      -916.045          36.900   105642687.718 7  26574103.578        -904.394
        42.600
 137037093.178 7                  26077288.109
      2364.107                          42.100                   102332885.321 7
  26077288.543        1765.401          42.200   105002433.559 7  26077288.637
      1811.462          42.800   103667666.542 7  26077289.473        1788.432
        47.700
  62614303.770 7                  11915104.758
       673.382                          43.100



 202596755.904 6                  38552883.484
       -85.612                          40.700



 18  4  4  7 15  0.0000000  0 20G13R11R12G09G28R13G02G30R03G07R01R02
                                G05R18E07E30E12E19E20S20
 118386700.851 7  92249379.55945  22528236.969                    22528239.941
      2688.725        2095.113          44.000          30.700



 109827031.153 8  85421036.000 7  20552631.695    20552632.156    20552634.539
     -2654.325       -2064.470          49.300          47.700



 103125146.063 7                  19305244.883    19305242.371
      1143.031                          46.900



 122323558.460 7  95317121.668 7  23277413.977                    23277422.324
     -2919.153       -2274.658          45.400          43.600    91345580.404 8
  23277422.180       -2179.885          48.000


 120144328.242 6  93618995.24444  22862707.711                    22862712.168
      2855.745        2225.260          41.300          27.100



 122223963.622 5  95063283.823 5  22888664.727    22888662.863    22888668.094
      4368.197        3397.513          34.900          30.900



 125250285.474 6  97597672.84044  23834355.102                    23834357.156
     -2761.267       -2151.633          40.100          26.000



 106622954.347 8  83082916.805 8  20289690.008                    20289695.609
      -255.413        -199.023          52.800          51.400    79621127.544 9
  20289695.285        -190.728          55.500


 119381226.447 7  92852071.530 7  22301415.484    22301414.949    22301417.727
      3645.225        2835.161          42.400          42.200



 112026571.850 8  87293476.735 7  21317954.195                    21317957.086
     -1832.603       -1428.002          51.900          46.500



 113732969.215 7  88459274.728 6  21276172.695    21276171.621    21276177.293
     -3018.502       -2347.723          43.700          39.300



 102688264.056 8  79868677.868 8  19243738.023    19243736.117    19243739.195
       950.110         738.965          49.500          48.900



 108324567.813 8  84408760.214 8  20613477.055                    20613480.176
       595.830         464.280          52.100          49.300



 126823637.563 6  98640620.389 6  23758344.953    23758344.699    23758348.070
     -2708.623       -2106.708          41.400          37.000



 129521977.622 8                  24647213.930
     -1777.735                          49.000                    96720967.284 8
  24647218.191       -1327.525          50.500    99244121.951 8  24647216.926
     -1362.159          49.700    97982548.725 9  24647218.297       -1344.846
        56.200
 120622717.150 8                  22953738.820
     -1301.413                          50.500                    90075395.816 8
  22953741.625        -971.836          50.100    92425188.920 8  22953740.500
      -997.189          50.100    91250276.975 9  22953741.887        -984.516
        55.900
 139683901.964 6                  26580964.242
     -1207.980                          39.000                   104309402.349 6
  26580964.203        -902.058          36.700   107030520.270 6  26580964.063
      -925.590          36.800   105669965.419 7  26580965.090        -913.835
        42.300
 136966203.978 7                  26063798.047
      2361.916                          42.300                   102279948.568 7
  26063799.031        1763.768          42.400   104948115.854 7  26063798.844
      1809.778          42.800   103614039.315 8  26063799.914        1786.776
        48.000
  62594224.695 7                  11911283.844
       665.519                          43.600



 202599322.756 6                  38553371.141
       -85.615                          40.900



 18  4  4  7 15 30.0000000  0 20G13R11R12G09G28R13G02G30R03G07R01R02
                                G05R18E07E30E12E19E20S20
 118306123.687 7  92186592.17345  22512903.078                    22512906.754
      2683.235        2090.833          44.100          31.000



 109906951.152 8  85483195.987 7  20567587.688    20567586.738    20567590.031
     -2673.054       -2079.046          49.200          47.800



 103091254.362 7                  19298899.297    19298898.430
      1117.234                          47.000



 122411200.600 7  95385414.274 7  23294091.133                    23294098.867
     -2923.521       -2278.061          45.000          43.600    91411027.343 7
  23294097.957       -2183.150          46.000


 120058795.011 6  93552346.00344  22846431.172                    22846434.266
      2846.723        2218.230          41.900          27.100



 122093023.646 5  94961441.545 5  22864143.398    22864143.297    22864147.152
      4361.271        3392.141          35.700          30.600



 125333216.296 6  97662294.23244  23850136.625                    23850138.426
     -2767.239       -2156.298          41.600          25.800



 106630871.596 8  83089086.082 8  20291196.633                    20291202.293
      -271.869        -211.847          52.700          51.500    79627039.770 9
  20291201.617        -203.019          55.700


 119271922.964 6  92767057.732 7  22280997.102    22280995.512    22280998.852
      3641.800        2832.510          41.700          43.000



 112081728.591 8  87336456.012 7  21328450.273                    21328453.086
     -1844.118       -1436.981          52.200          46.500



 113823719.746 7  88529858.445 6  21293149.773    21293148.934    21293154.145
     -3031.116       -2357.552          43.500          38.600



 102660031.746 8  79846719.389 8  19238447.000    19238445.680    19238448.883
       932.587         725.364          49.200          48.600



 108306977.694 8  84395053.624 8  20610129.977                    20610132.652
       577.423         449.937          51.400          49.100



 126905140.608 6  98704011.654 6  23773611.734    23773612.418    23773616.508
     -2724.405       -2118.985          40.900          37.500



 129575414.632 8                  24657382.523
     -1784.515                          48.600                    96760871.517 8
  24657386.781       -1332.593          50.400    99285067.173 8  24657385.938
     -1367.355          49.900    98022973.448 9  24657386.996       -1349.970
        56.200
 120661955.707 8                  22961205.633
     -1314.108                          49.800                    90104697.339 8
  22961208.406        -981.312          49.800    92455254.824 8  22961207.422
     -1006.914          50.700    91279960.690 9  22961208.746        -994.116
        55.800
 139720333.041 6                  26587896.656
     -1220.364                          39.600                   104336607.380 6
  26587897.316        -911.315          37.300   107058434.987 6  26587897.129
      -935.081          37.300   105697525.290 7  26587897.730        -923.198
        42.500
 136895381.470 7                  26050321.109
      2359.635                          42.300                   102227061.646 7
  26050322.637        1762.061          42.600   104893849.264 7  26050322.590
      1808.027          42.300   103560462.555 8  26050322.773        1785.048
        48.000
  62574381.508 7                  11907507.828
       657.640                          43.600



 202601886.055 6                  38553855.141
       -85.270                          40.200



 18  4  4  7 16  0.0000000  0 20G13R11R12G09G28R13G02G30R03G07R01R02
                                G05R18E07E30E12E19E20S20
 118225710.843 7  92123932.81845  22497601.289                    22497604.836
      2677.754        2086.563          44.900          31.100



 109987431.464 8  85545791.771 7  20582648.359    20582647.645    20582650.625
     -2691.667       -2093.533          48.600          47.500



 103058137.225 7                  19292700.242    19292699.258
      1091.429                          47.800



 122498974.028 7  95453809.050 6  23310793.703                    23310798.961
     -2927.893       -2281.486          43.200          37.300    91476572.433 8
  23310803.328       -2186.411          49.500


 119973534.167 6  93485909.03344  22830207.164                    22830210.293
      2837.579        2211.095          41.500          26.500



 121962293.941 6  94859762.977 5  22839663.773    22839661.676    22839665.484
      4354.213        3386.594          36.100          33.800



 125416325.317 6  97727054.48044  23865951.555                    23865954.168
     -2773.117       -2160.875          41.400          24.200



 106639283.191 8  83095640.563 8  20292797.188                    20292802.965
      -288.341        -224.679          53.200          51.400    79633321.145 9
  20292802.289        -215.320          55.800


 119162723.618 7  92682124.920 7  22260597.883    22260596.879    22260599.578
      3638.268        2829.768          43.000          43.600



 112137229.921 8  87379703.789 7  21339012.031                    21339014.809
     -1855.577       -1445.903          52.200          46.900



 113914848.192 7  88600736.118 6  21310195.891    21310195.520    21310200.992
     -3043.691       -2367.302          43.500          38.500



 102632323.827 8  79825168.793 8  19233254.531    19233253.563    19233256.742
       915.091         711.729          49.600          48.400



 108289940.966 8  84381778.248 8  20606887.836                    20606890.883
       558.983         435.569          51.900          49.000



 126987115.138 6  98767769.600 6  23788971.594    23788969.578    23788973.074
     -2740.049       -2131.137          41.700          36.800



 129629056.331 8                  24667589.969
     -1791.343                          48.300                    96800928.599 8
  24667594.340       -1337.689          50.200    99326169.229 8  24667593.684
     -1372.590          50.000    98063553.020 9  24667594.672       -1355.142
        56.200
 120701574.646 8                  22968744.773
     -1326.729                          49.800                    90134282.894 8
  22968747.355        -990.738          50.100    92485612.181 8  22968746.559
     -1016.588          49.900    91309932.144 9  22968747.754       -1003.664
        55.700
 139757136.323 6                  26594900.883
     -1232.742                          39.700                   104364090.308 6
  26594900.754        -920.547          37.400   107086634.903 6  26594900.988
      -944.560          38.200   105725366.710 7  26594901.453        -932.557
        42.900
 136824626.764 7                  26036856.352
      2357.404                          42.400                   102174225.332 7
  26036858.688        1760.397          42.900   104839634.611 6  26036858.078
      1806.322          41.600   103506937.077 7  26036858.555        1783.361
        47.800
  62554775.146 7                  11903776.867
       649.738                          43.500



 202604443.487 6                  38554339.406
       -85.252                          38.900



 18  4  4  7 16 30.0000000  0 20G13R11R12G09G28R13G02G30R03G07R01R02
                                G05R18E07E30E12E19E20S20
 118145462.884 7  92061401.95345  22482330.813                    22482333.801
      2672.262        2082.286          46.300          32.100



 110068467.828 8  85608820.031 7  20597813.242    20597813.234    20597815.824
     -2710.188       -2107.919          48.700          47.100



 103025794.577 7                  19286645.859    19286644.758
      1065.569                          46.800



 122586877.606 7  95522305.323 7  23327521.523                    23327529.953
     -2932.235       -2284.858          44.400          44.300    91542214.671 7
  23327525.059       -2189.662          44.000


 119888548.867 7  93419686.73244  22814034.258                    22814039.180
      2828.378        2203.942          42.100          27.100



 121831778.334 6  94758250.880 5  22815222.836    22815220.270    22815225.246
      4347.017        3381.016          36.300          32.700



 125499609.220 6  97791950.96144  23881800.539                    23881802.973
     -2778.935       -2165.394          39.800          24.700



 106648187.627 8  83102579.086 8  20294491.781                    20294497.594
      -304.767        -237.476          52.100          51.300    79639970.554 9
  20294497.266        -227.583          55.700


 119053630.231 7  92597274.561 7  22240217.820    22240217.641    22240219.879
      3634.706        2826.978          44.500          44.700



 112193073.754 8  87423218.454 7  21349638.523                    21349641.691
     -1866.979       -1454.787          51.800          46.300



 114006353.119 7  88671906.569 6  21327315.773    21327314.816    21327319.227
     -3056.230       -2377.067          43.100          38.600



 102605141.928 8  79804027.303 8  19228160.797    19228159.359    19228162.676
       897.512         698.058          49.600          48.900



 108273457.811 8  84368934.216 8  20603751.102                    20603754.297
       540.503         421.171          52.100          49.500



 127069556.741 6  98831890.733 6  23804414.844    23804413.531    23804417.355
     -2755.566       -2143.204          41.200          37.600



 129682902.021 8                  24677836.281
     -1798.160                          48.500                    96841138.011 8
  24677840.730       -1342.786          50.100    99367427.585 8  24677840.215
     -1377.813          50.600    98104286.899 9  24677841.305       -1360.295
        56.100
 120741572.211 8                  22976355.984
     -1339.363                          50.500                    90164151.203 8
  22976358.941       -1000.175          50.000    92516259.662 8  22976357.770
     -1026.267          49.600    91340190.037 9  22976359.160       -1013.222
        55.700
 139794309.927 6                  26601974.383
     -1245.096                          39.500                   104391849.835 6
  26601974.930        -929.785          36.900   107115118.565 6  26601974.273
      -954.038          37.300   105753488.299 7  26601975.043        -941.901
        42.700
 136753940.250 7                  26023405.383
      2355.096                          42.800                   102121439.960 7
  26023407.426        1758.679          43.100   104785472.221 6  26023405.738
      1804.552          40.900   103453463.198 7  26023407.180        1781.613
        47.500
  62535406.120 7                  11900091.016
       641.802                          44.000



 202606995.305 6                  38554829.719
       -85.363                          40.300



 18  4  4  7 17  0.0000000  0 20G13R11R12G09G28R13G02G30R03G07R01R02
                                G05R18E07E30E12E19E20S20
 118065380.688 7  91999000.26045  22467091.711                    22467094.961
      2666.742        2077.983          46.800          32.300



 110150056.848 8  85672278.134 7  20613081.539    20613081.180    20613083.707
     -2728.479       -2122.145          48.600          47.400



 102994227.279 7                  19280735.281    19280734.063
      1039.790                          46.800



 122674910.790 7  95590902.631 6  23344273.914                    23344277.703
     -2936.495       -2288.183          45.300          40.600    91607953.596 8
  23344282.246       -2192.838          48.300


 119803841.487 7  93353681.01244  22797915.438                    22797920.918
      2819.107        2196.709          44.300          28.600



 121701479.734 5  94656907.539 5  22790821.055    22790819.309    22790823.793
      4339.791        3375.373          35.900          33.300



 125583065.280 6  97856981.61543  23897681.492                    23897683.715
     -2784.551       -2169.783          41.000          22.900



 106657584.128 8  83109901.030 8  20296279.617                    20296285.254
      -321.144        -250.240          53.000          52.100    79646987.428 9
  20296285.219        -239.814          55.700


 118944645.311 7  92512508.534 7  22219859.195    22219858.309    22219860.973
      3631.099        2824.178          45.600          43.900



 112249258.323 8  87466998.628 7  21360330.094                    21360333.078
     -1878.269       -1463.583          51.600          46.700



 114098232.925 7  88743368.630 6  21344502.320    21344501.949    21344507.363
     -3068.656       -2386.747          42.800          38.500



 102578487.955 8  79783296.433 8  19223165.578    19223164.375    19223167.852
       879.965         684.421          48.900          48.800



 108257529.656 8  84356522.662 8  20600720.461                    20600723.266
       522.009         406.758          52.500          48.900



 127152461.447 6  98896372.161 6  23819945.375    23819943.477    23819948.039
     -2770.874       -2155.136          40.800          38.500



 129736951.668 8                  24688121.758
     -1804.915                          48.300                    96881499.729 8
  24688125.828       -1347.823          50.100    99408842.219 8  24688125.594
     -1382.980          50.500    98145175.078 9  24688126.566       -1365.398
        56.000
 120781947.105 8                  22984039.055
     -1351.849                          50.300                    90194301.277 8
  22984042.047       -1009.496          49.600    92547196.264 8  22984040.875
     -1035.829          49.800    91370733.378 9  22984042.363       -1022.664
        55.600
 139831852.611 6                  26609118.648
     -1257.355                          39.000                   104419884.948 6
  26609118.672        -938.940          36.500   107143885.018 6  26609118.766
      -963.425          36.700   105781889.085 7  26609119.152        -951.183
        42.100
 136683322.887 6                  26009966.930
      2352.811                          41.800                   102068706.217 7
  26009968.980        1756.973          42.400   104731362.800 6  26009967.809
      1802.808          40.800   103400041.617 7  26009969.184        1779.891
        47.100
  62516275.143 7                  11896450.664
       633.926                          44.200



 202609545.227 6                  38555315.344
       -84.734                          39.700



 18  4  4  7 17 30.0000000  0 20G13R11R12G09G28R13G02G30R03G07R01R02
                                G05R18E07E30E12E19E20S20
 117985464.945 7  91936728.25745  22451884.070                    22451887.605
      2661.171        2073.635          46.600          32.600



 110232194.574 8  85736163.042 7  20628452.703    20628452.461    20628454.973
     -2746.697       -2136.311          48.900          46.600



 102963435.404 7                  19274971.523    19274969.953
      1013.915                          46.600



 122763072.772 7  95659600.116 6  23361050.453                    23361057.129
     -2940.811       -2291.543          42.400          40.400    91673788.868 8
  23361058.332       -2196.051          48.100


 119719414.672 7  93287893.86144  22781849.086                    22781853.969
      2809.687        2189.369          43.900          27.600



 121571400.368 6  94555734.731 5  22766460.758    22766459.719    22766464.051
      4332.392        3369.636          36.000          34.800



 125666690.460 6  97922144.07544  23913594.078                    23913597.395
     -2790.214       -2174.192          40.500          25.600



 106667471.544 8  83117605.510 8  20298161.305                    20298166.828
      -337.464        -262.963          53.000          52.000    79654370.884 9
  20298166.676        -251.995          55.700


 118835771.390 7  92427828.830 7  22199521.484    22199520.598    22199522.004
      3627.340        2821.263          46.400          44.200



 112305782.023 8  87511043.066 7  21371086.250                    21371089.082
     -1889.553       -1472.377          51.600          46.000



 114190486.204 7  88815121.160 6  21361760.914    21361760.074    21361765.625
     -3081.107       -2396.427          42.600          39.700



 102552363.757 8  79762977.584 8  19218269.906    19218268.820    19218271.742
       862.252         670.650          49.200          48.800



 108242157.153 8  84344544.075 8  20597794.563                    20597798.074
       503.461         392.308          52.600          49.000



 127235824.792 6  98961210.289 6  23835560.453    23835561.371    23835565.211
     -2786.097       -2166.958          40.900          36.500



 129791204.954 8                  24698446.070
     -1811.697                          48.300                    96922013.520 8
  24698449.762       -1352.896          50.100    99450412.889 8  24698449.480
     -1388.183          50.000    98186217.308 9  24698450.645       -1370.537
        56.000
 120822697.916 8                  22991793.805
     -1364.402                          49.800                    90224732.072 8
  22991796.469       -1018.878          50.000    92578420.905 8  22991795.766
     -1045.453          49.800    91401561.091 9  22991797.039       -1032.161
        55.700
 139869762.825 6                  26616332.672
     -1269.577                          39.800                   104448194.529 6
  26616332.277        -948.066          36.400   107172933.123 5  26616332.184
      -972.794          35.800   105810567.929 6  26616333.395        -960.427
        41.400
 136612775.225 6                  25996542.141
      2350.498                          41.900                   102016024.537 7
  25996544.348        1755.243          42.300   104677306.794 6  25996542.613
      1801.029          40.800   103346672.774 7  25996544.238        1778.132
        47.000
  62497382.907 7                  11892855.563
       625.951                          43.300



 202612089.953 6                  38555802.328
       -84.898                          40.700



 18  4  4  7 18  0.0000000  0 20G13R11R12G09G28R13G02G30R03G07R01R02
                                G05R18E07E30E12E19E20S20
 117905716.767 7  91874586.82845  22436708.539                    22436712.125
      2655.536        2069.247          47.200          32.500



 110314877.670 8  85800472.104 7  20643924.758    20643924.750    20643927.266
     -2764.857       -2150.436          49.000          46.800



 102933420.031 7                  19269352.094    19269350.875
       987.997                          46.100



 122851363.067 7  95728397.795 7  23377851.242                    23377860.008
     -2945.088       -2294.866          44.600          44.600    91739719.822 7
  23377857.281       -2199.253          45.600


 119635271.586 7  93222327.86544  22765838.063                    22765840.605
      2800.140        2181.926          44.400          27.200



 121441544.290 6  94454735.549 5  22742143.977    22742141.527    22742146.215
      4324.897        3363.818          36.800          35.600



 125750481.771 6  97987435.96243  23929539.352                    23929542.254
     -2795.703       -2178.468          41.700          23.300



 106677849.285 9  83125692.051 8  20300136.234                    20300142.004
      -353.812        -275.695          54.500          51.800    79662120.483 9
  20300141.676        -264.214          55.800


 118727010.507 7  92343237.022 7  22179201.789    22179201.371    22179204.836
      3623.483        2818.284          44.100          43.600



 112362643.222 8  87555350.484 7  21381906.320                    21381909.309
     -1900.806       -1481.148          51.200          47.100



 114283112.099 7  88887163.446 6  21379088.703    21379088.098    21379094.055
     -3093.531       -2406.091          43.000          40.100



 102526771.865 8  79743072.777 8  19213473.844    19213472.406    19213475.809
       844.414         656.768          49.800          48.900



 108227341.666 8  84332999.534 8  20594975.305                    20594978.324
       484.869         377.817          52.700          49.000



 127319642.962 6  99026402.123 6  23851264.148    23851263.074    23851266.816
     -2801.235       -2178.722          38.700          37.700



 129845662.039 8                  24708808.516
     -1818.519                          48.900                    96962679.497 8
  24708812.867       -1357.984          49.700    99492139.722 8  24708812.539
     -1393.411          50.300    98227413.714 9  24708813.496       -1375.694
        56.000
 120863823.543 8                  22999619.523
     -1376.879                          49.400                    90255442.755 8
  22999622.633       -1028.188          49.600    92609932.737 8  22999621.977
     -1055.009          49.300    91432672.352 9  22999622.945       -1041.604
        55.800
 139908039.603 6                  26623616.258
     -1281.826                          39.700                   104476777.816 5
  26623615.422        -957.206          35.600   107202262.040 5  26623615.234
      -982.179          35.400   105839524.034 6  26623617.008        -969.693
        41.000
 136542298.433 6                  25983131.070
      2348.068                          41.800                   101963395.778 7
  25983133.074        1753.430          42.600   104623305.099 6  25983131.387
      1799.171          40.200   103293357.546 7  25983132.762        1776.297
        46.900
  62478730.408 7                  11889306.086
       617.903                          43.600



 202614628.218 6                  38556285.719
       -84.549                          40.600



 18  4  4  7 18 30.0000000  0 20G13R11R12G09G28R13G02G30R03G07R01R02
                                G05R18E07E30E12E19E20S20
 117826136.672 7  91812576.37745  22421564.805                    22421568.203
      2649.928        2064.877          46.500          31.100



 110398102.256 8  85865202.331 7  20659499.852    20659499.020    20659501.902
     -2782.829       -2164.427          48.500          47.500



 102904181.325 7                  19263877.922    19263877.875
       962.113                          46.800



 122939781.075 7  95797294.880 6  23394677.609                    23394680.809
     -2949.309       -2298.165          46.000          39.700    91805746.253 8
  23394685.820       -2202.400          49.300


 119551414.613 7  93156984.76844  22749880.031                    22749882.863
      2790.563        2174.469          44.800          27.200



 121311914.561 6  94353912.541 5  22717867.469    22717866.313    22717870.988
      4317.299        3357.876          36.900          34.500



 125834436.169 6  98052854.93043  23945515.367                    23945517.652
     -2801.100       -2182.670          40.800          23.600



 106688716.260 8  83134159.824 8  20302204.188                    20302209.543
      -370.124        -288.405          53.200          52.000    79670235.424 9
  20302209.039        -276.387          55.800


 118618365.632 7  92258735.479 7  22158907.992    22158906.168    22158909.172
      3619.580        2815.242          44.600          43.500



 112419840.069 8  87599919.437 7  21392790.578                    21392793.727
     -1911.969       -1489.847          51.700          46.300



 114376108.851 7  88959494.222 6  21396484.563    21396483.723    21396490.664
     -3105.871       -2415.687          42.500          39.600



 102501713.955 8  79723583.289 8  19208778.148    19208776.711    19208780.219
       826.614         642.913          49.100          48.500



 108213083.744 8  84321889.457 8  20592261.922                    20592265.332
       466.256         363.320          51.900          49.400



 127403911.576 6  99091944.356 6  23867048.930    23867049.613    23867053.617
     -2816.156       -2190.340          38.000          37.900



 129900322.688 8                  24719210.203
     -1825.296                          48.800                    97003497.491 8
  24719214.578       -1363.047          49.700    99534022.533 8  24719214.438
     -1398.607          50.700    98268764.114 9  24719215.082       -1380.828
        56.000
 120905322.545 8                  23007516.719
     -1389.316                          49.600                    90286432.260 8
  23007519.559       -1037.477          50.300    92641730.658 8  23007518.621
     -1064.537          50.100    91464066.065 9  23007520.016       -1051.006
        55.700
 139946681.393 6                  26630969.883
     -1293.924                          40.000                   104505633.671 5
  26630968.793        -966.245          35.600   107231870.694 5  26630968.512
      -991.451          35.000   105868756.285 6  26630970.578        -978.845
        41.100
 136471893.284 7                  25969733.523
      2345.659                          43.100                   101910820.498 6
  25969735.066        1751.632          41.800   104569358.285 6  25969734.363
      1797.322          41.200   103240096.499 7  25969734.883        1774.476
        46.800
  62460318.542 7                  11885802.398
       609.838                          43.000



 202617163.585 6                  38556764.656
       -84.328                          40.900



 18  4  4  7 19  0.0000000  0 21G15G13R11R12G09G28R13G02G30R03G07R01
                                R02G05R18E07E30E12E19E20S20
 132885218.127 5                  25287227.547
      3356.199                          31.200



 117746725.855 7  91750697.82645  22406453.109                    22406456.707
      2644.291        2060.490          45.700          30.600



 110481864.912 8  85930351.070 7  20675174.406    20675174.984    20675177.453
     -2800.728       -2178.356          49.100          46.900



 102875719.744 7                  19258550.773    19258549.906
       936.203                          47.000



 123028326.300 7  95866291.073 7  23411528.367                    23411534.891
     -2953.540       -2301.458          46.600          43.700    91871867.589 7
  23411531.051       -2205.570          44.900


 119467846.895 7  93091867.09044  22733977.781                    22733981.922
      2780.895        2166.927          44.300          27.000



 121182514.202 6  94253267.845 5  22693636.320    22693633.402    22693638.121
      4309.633        3351.944          36.700          34.100



 125918550.932 7  98118398.86643  23961523.320                    23961524.594
     -2806.369       -2186.784          42.200          22.300



 106700071.714 8  83143008.229 8  20304364.781                    20304370.570
      -386.390        -301.083          53.600          51.800    79678715.146 9
  20304370.301        -288.536          55.600


 118509839.209 7  92174326.028 7  22138633.305    22138632.301    22138636.621
      3615.571        2812.120          43.200          43.300



 112477371.117 8  87644748.802 7  21403738.273                    21403741.949
     -1923.065       -1498.494          50.400          47.200



 114469475.431 7  89032112.632 6  21413952.320    21413950.777    21413956.309
     -3118.167       -2425.235          43.600          39.300



 102477192.451 8  79704511.002 8  19204183.031    19204181.594    19204184.934
       808.722         629.005          49.400          48.600



 108199384.933 8  84311215.037 8  20589655.242                    20589658.773
       447.604         348.787          52.500          48.900



 127488626.849 6  99157834.012 6  23882919.797    23882918.250    23882922.590
     -2831.019       -2201.917          38.800          37.200



 129955186.988 8                  24729650.781
     -1832.095                          48.500                    97044467.560 8
  24729655.102       -1368.122          49.500    99576061.382 8  24729654.441
     -1403.811          50.600    98310268.574 9  24729655.426       -1385.965
        55.900
 120947193.844 8                  23015484.555
     -1401.693                          50.700                    90317699.773 8
  23015487.313       -1046.714          50.000    92673813.861 8  23015486.844
     -1074.022          49.800    91495741.423 9  23015487.789       -1060.374
        55.800
 139985687.168 6                  26638392.195
     -1306.046                          39.700                   104534761.328 5
  26638391.602        -975.293          35.600   107261758.167 6  26638391.223
     -1000.735          36.000   105898263.850 6  26638392.750        -988.012
        41.000
 136401560.860 7                  25956349.766
      2343.233                          43.200                   101858299.525 6
  25956351.039        1749.816          41.500   104515467.203 6  25956350.477
      1795.461          41.900   103186890.465 7  25956351.199        1772.639
        46.800
  62442148.143 7                  11882344.852
       601.791                          43.400



 202619695.428 6                  38557247.391
       -84.364                          40.600



 18  4  4  7 19 30.0000000  0 21G15G13R11R12G09G28R13G02G30R03G07R01
                                R02G05R18E07E30E12E19E20S20
 132784538.403 5 103468542.234 4  25268069.672
      3355.778        2614.888          33.800          27.500



 117667485.011 7  91688951.72645  22391374.313                    22391377.813
      2638.620        2056.068          45.300          30.900



 110566162.055 8  85995915.488 7  20690950.313    20690949.715    20690952.445
     -2818.493       -2192.154          49.500          47.100



 102848035.972 7                  19253368.969    19253367.398
       910.264                          46.800



 123116998.190 7  95935385.994 6  23428400.109                    23428404.797
     -2957.764       -2304.755          44.500          39.400    91938083.539 8
  23428410.102       -2208.711          49.600


 119384571.240 7  93026976.97644  22718130.281                    22718134.574
      2771.142        2159.326          43.100          26.900



 121053346.613 6  94152804.218 5  22669444.914    22669444.227    22669449.402
      4301.792        3345.827          37.100          33.100



 126002823.499 6  98184065.77243  23977558.836                    23977561.695
     -2811.610       -2190.870          40.200          23.000



 106711914.758 8  83152236.577 8  20306618.648                    20306624.309
      -402.600        -313.719          53.100          51.500    79687558.975 9
  20306624.102        -300.644          55.600


 118401433.993 7  92090010.873 7  22118382.938    22118381.934    22118384.852
      3611.520        2808.959          45.600          43.500



 112535234.384 8  87689837.066 7  21414749.305                    21414752.820
     -1934.095       -1507.092          50.800          46.300



 114563210.700 7  89105017.813 6  21431487.211    21431485.785    21431491.883
     -3130.419       -2434.766          43.400          39.400



 102453209.510 8  79685857.601 8  19199688.344    19199687.023    19199690.457
       790.733         615.005          49.300          48.600



 108186245.905 8  84300976.833 8  20587155.359                    20587158.723
       428.953         334.251          52.500          49.100



 127573784.617 6  99224067.770 6  23898873.180    23898872.457    23898876.086
     -2845.686       -2213.317          39.900          38.200



 130010254.825 8                  24740129.922
     -1838.851                          49.000                    97085589.624 8
  24740134.105       -1373.169          49.300    99618256.192 8  24740133.215
     -1408.988          50.900    98351927.017 9  24740134.480       -1391.083
        55.700
 120989436.108 8                  23023522.875
     -1414.029                          50.400                    90349244.309 8
  23023525.859       -1055.931          50.300    92706181.300 8  23023525.391
     -1083.479          50.400    91527697.405 9  23023526.285       -1069.698
        55.900
 140025055.586 6                  26645884.078
     -1318.089                          39.000                   104564159.785 6
  26645883.324        -984.287          37.000   107291923.572 6  26645883.605
     -1009.966          37.400   105928045.781 7  26645884.617        -997.123
        42.700
 136331301.998 7                  25942979.852
      2340.795                          42.700                   101805833.481 6
  25942980.676        1747.998          40.900   104461632.494 7  25942980.441
      1793.599          42.300   103133740.091 7  25942981.449        1770.800
        47.000
  62424220.111 7                  11878932.820
       593.704                          42.800



 202622224.317 6                  38557729.500
       -84.294                          41.000



 18  4  4  7 20  0.0000000  0 21G15G13R11R12G09G28R13G02G30R03G07R01
                                R02G05R18E07E30E12E19E20S20
 132683873.435 5 103390101.937 4  25248912.133
      3355.276        2614.511          34.800          25.600



 117588414.899 7  91627338.65945  22376328.188                    22376331.316
      2632.903        2051.614          46.400          31.800



 110650989.738 8  86061892.549 7  20706824.828    20706824.352    20706826.363
     -2836.075       -2205.836          49.800          47.100



 102821129.763 7                  19248331.539    19248330.320
       884.334                          47.600



 123205795.686 7  96004578.776 7  23445297.859                    23445305.734
     -2961.928       -2307.983          44.600          43.000    92004393.362 7
  23445302.656       -2211.827          45.100


 119301590.192 7  92962316.45944  22702339.523                    22702343.711
      2761.269        2151.639          44.100          27.800



 120924414.948 6  94052523.998 5  22645300.883    22645299.609    22645303.707
      4293.896        3339.728          36.300          32.600



 126087250.438 6  98249852.94943  23993624.648                    23993627.027
     -2816.678       -2194.819          41.200          22.800



 106724244.141 8  83161843.888 8  20308964.945                    20308970.664
      -418.811        -326.350          53.300          51.100    79696765.987 9
  20308970.219        -312.752          56.000


 118293151.685 7  92005791.334 7  22098154.313    22098153.543    22098155.559
      3607.414        2805.754          45.800          42.600



 112593427.768 8  87735182.538 7  21425823.594                    21425826.293
     -1945.097       -1515.655          52.100          46.100



 114657312.945 7  89178208.424 6  21449090.664    21449089.473    21449095.941
     -3142.613       -2444.250          42.800          39.000



 102429766.764 8  79667624.341 8  19195295.250    19195294.047    19195297.508
       772.716         601.000          49.200          49.000



 108173667.114 8  84291175.172 8  20584761.469                    20584764.711
       410.268         319.691          52.400          49.300



 127659380.505 6  99290642.303 6  23914908.172    23914908.035    23914911.684
     -2860.153       -2224.570          40.500          37.300



 130065525.834 8                  24750647.555
     -1845.626                          48.200                    97126863.399 8
  24750651.734       -1378.224          50.100    99660606.679 8  24750651.031
     -1414.177          50.500    98393739.146 9  24750652.227       -1396.203
        55.700
 121032047.753 8                  23031631.875
     -1426.322                          49.900                    90381064.686 8
  23031634.473       -1065.111          50.500    92738831.775 8  23031633.676
     -1092.900          49.900    91559932.836 9  23031635.055       -1079.004
        55.800
 140064785.004 6                  26653443.789
     -1330.120                          39.000                   104593827.849 6
  26653444.242        -993.265          38.600   107322365.589 6  26653444.148
     -1019.176          36.900   105958100.823 7  26653445.031       -1006.222
        42.800
 136261117.371 7                  25929624.484
      2338.293                          42.600                   101753422.878 6
  25929625.031        1746.128          41.500   104407854.673 7  25929625.266
      1791.675          42.800   103080645.877 7  25929625.949        1768.904
        47.600
  62406534.838 7                  11875567.648
       585.609                          43.300



 202624752.948 6                  38558215.672
       -83.907                          40.600



 18  4  4  7 20 30.0000000  0 21G15G13R11R12G09G28R13G02G30R03G07R01
                                R02G05R18E07E30E12E19E20S20
 132583223.933 5 103311673.765 4  25229759.000
      3354.801        2614.133          33.500          27.500



 117509516.442 7  91565859.34645  22361314.305                    22361317.402
      2627.185        2047.159          46.500          32.100



 110736344.191 8  86128279.340 7  20722797.094    20722797.320    20722799.469
     -2853.581       -2219.451          48.100          47.100



 102795001.556 7                  19243440.781    19243439.563
       858.441                          47.300



 123294718.332 7  96073869.168 6  23462220.438                    23462225.957
     -2966.065       -2311.217          46.600          41.900    92070796.538 8
  23462227.918       -2214.913          48.800


 119218906.853 7  92897887.92744  22686605.938                    22686609.676
      2751.312        2143.878          45.600          27.100



 120795721.627 6  93952429.205 5  22621200.578    22621199.188    22621203.863
      4285.890        3333.470          37.200          34.200



 126171828.838 6  98315758.15843  24009720.086                    24009720.684
     -2821.668       -2198.701          41.100          22.800



 106737058.897 8  83171829.410 8  20311403.469                    20311409.090
      -434.939        -338.907          52.600          51.900    79706335.445 9
  20311408.883        -324.791          55.600


 118184995.396 7  91921669.731 7  22077950.336    22077949.098    22077951.324
      3603.151        2802.465          46.100          43.400



 112651949.914 8  87780784.185 7  21436959.758                    21436962.844
     -1955.997       -1524.153          52.100          45.900



 114751780.665 7  89251683.306 6  21466762.547    21466761.590    21466767.156
     -3154.816       -2453.743          42.700          38.800



 102406866.208 8  79649812.794 8  19191003.117    19191002.266    19191005.605
       754.606         586.912          49.600          48.500



 108161649.930 8  84281811.125 8  20582474.383                    20582478.066
       391.539         305.099          51.900          49.300



 127745410.194 6  99357554.260 6  23931024.406    23931023.684    23931027.949
     -2874.588       -2235.801          40.600          38.900



 130120999.859 8                  24761203.930
     -1852.378                          48.500                    97168288.781 8
  24761208.254       -1383.268          50.000    99703112.723 8  24761206.988
     -1419.349          49.800    98435704.857 9  24761208.520       -1401.312
        55.700
 121075027.417 8                  23039810.523
     -1438.546                          50.600                    90413159.881 8
  23039813.523       -1074.242          50.200    92771764.234 8  23039812.492
     -1102.260          50.400    91592446.663 9  23039813.785       -1088.252
        55.900
 140104873.970 6                  26661072.719
     -1342.069                          38.000                   104623764.381 5
  26661072.414       -1002.189          35.900   107353083.074 6  26661073.023
     -1028.337          37.600   105988427.833 6  26661073.613       -1015.264
        41.800
 136191007.804 7                  25916283.008
      2335.822                          42.300                   101701068.330 7
  25916284.234        1744.282          42.100   104354134.367 7  25916283.578
      1789.785          43.200   103027608.455 8  25916284.730        1767.032
        48.000
  62389093.298 7                  11872248.531
       577.458                          43.500



 202627278.444 6                  38558698.734
       -84.130                          40.500



 18  4  4  7 21  0.0000000  0 21G15G13R11R12G09G28R13G02G30R03G07R01
                                R02G05R18E07E30E12E19E20S20
 132482590.683 5 103233258.269 5  25210610.461
      3354.174        2613.642          34.400          30.300



 117430790.312 7  91504514.31045  22346333.094                    22346336.336
      2621.409        2042.660          46.000          32.100



 110822221.821 7  86195073.049 7  20738867.922    20738867.914    20738870.363
     -2870.978       -2232.994          47.900          46.800



 102769652.134 7                  19238694.336    19238693.703
       832.440                          47.000



 123383765.664 7  96143256.583 7  23479166.203                    23479172.207
     -2970.228       -2314.464          47.200          42.800    92137292.924 7
  23479170.598       -2218.036          45.400


 119136523.629 7  92833693.23344  22670928.867                    22670932.676
      2741.250        2136.043          44.600          27.900



 120667270.377 6  93852522.745 5  22597146.203    22597144.574    22597149.156
      4277.781        3327.137          36.600          34.800



 126256556.031 6  98381779.31543  24025842.250                    24025844.711
     -2826.596       -2202.535          40.400          22.500



 106750358.174 8  83182192.477 8  20313934.055                    20313939.914
      -451.086        -351.497          52.900          51.400    79716266.717 9
  20313939.586        -336.846          55.600


 118076967.603 7  91837648.090 7  22057769.375    22057768.723    22057771.422
      3598.834        2799.088          45.800          44.200



 112710799.059 8  87826640.659 7  21448158.234                    21448161.406
     -1966.888       -1532.636          51.600          46.100



 114846612.841 7  89325441.657 6  21484503.789    21484502.480    21484507.344
     -3166.935       -2463.188          43.400          37.600



 102384509.927 8  79632424.564 8  19186813.914    19186813.063    19186816.344
       736.405         572.765          49.700          49.000



 108150195.103 8  84272885.277 8  20580294.961                    20580298.914
       372.771         290.467          51.800          49.400



 127831869.842 6  99424800.595 6  23947221.938    23947220.039    23947223.996
     -2888.860       -2246.898          40.500          39.200



 130176676.964 8                  24771798.930
     -1859.170                          48.500                    97209865.811 8
  24771803.480       -1388.342          49.800    99745774.383 8  24771802.027
     -1424.560          49.500    98477824.202 9  24771803.625       -1406.449
        55.700
 121118373.916 8                  23048059.016
     -1450.756                          50.100                    90445529.012 8
  23048062.262       -1083.355          50.200    92804977.780 8  23048061.324
     -1111.620          50.500    91625238.002 9  23048062.527       -1097.488
        56.000
 140145321.391 6                  26668769.430
     -1353.986                          38.600                   104653968.580 6
  26668769.930       -1011.094          37.400   107384075.230 6  26668770.023
     -1037.466          37.300   106019026.007 7  26668770.887       -1024.281
        43.000
 136120974.436 6                  25902955.461
      2333.242                          41.900                   101648770.676 6
  25902956.965        1742.357          41.900   104300472.448 7  25902956.918
      1787.804          42.800   102974628.664 8  25902957.914        1765.084
        48.000
  62371896.371 7                  11868976.195
       569.273                          43.700



 202629800.943 6                  38559165.094
       -83.735                          40.900



 18  4  4  7 21 30.0000000  0 21G15G13R11R12G09G28R13G02G30R03G07R01
                                R02G05R18E07E30E12E19E20S20
 132381973.713 5 103154855.390 5  25191463.047
      3353.678        2613.265          35.500          31.800



 117352237.362 7  91443304.23945  22331383.844                    22331388.273
      2615.615        2038.139          45.300          31.500



 110908618.741 7  86262270.620 7  20755035.250    20755035.477    20755038.375
     -2888.213       -2246.385          47.800          47.300



 102745080.961 7                  19234094.695    19234093.477
       806.497                          47.100



 123472936.510 7  96212740.375 7  23496132.727                    23496140.727
     -2974.354       -2317.671          44.200          43.900    92203881.399 7
  23496141.691       -2221.101          47.900


 119054442.983 7  92769734.29644  22655309.406                    22655312.871
      2731.070        2128.120          45.400          29.100



 120539063.884 6  93752806.625 5  22573136.422    22573135.734    22573141.379
      4269.580        3320.771          37.000          35.700



 126341428.707 6  98447913.82043  24041992.805                    24041995.570
     -2831.396       -2206.278          40.700          22.600



 106764140.489 8  83192931.942 8  20316556.133                    20316562.195
      -467.189        -364.047          52.500          51.000    79726558.698 9
  20316561.984        -348.875          55.800


 117969069.958 7  91753727.722 7  22037613.922    22037612.215    22037615.223
      3594.429        2795.672          45.000          44.300



 112769972.987 8  87872750.204 7  21459418.922                    21459422.195
     -1977.679       -1541.051          51.200          46.100



 114941807.384 7  89399481.815 6  21502311.422    21502309.762    21502316.484
     -3179.001       -2472.544          42.400          39.000



 102362699.370 8  79615460.791 8  19182727.188    19182726.102    19182729.082
       718.189         558.590          49.200          49.000



 108139302.762 8  84264397.736 8  20578221.922                    20578225.516
       353.970         275.817          51.500          49.800



 127918754.747 6  99492377.708 6  23963497.406    23963497.387    23963501.574
     -2902.989       -2257.876          40.600          38.800



 130232556.496 8                  24782432.398
     -1865.922                          48.500                    97251593.997 8
  24782436.781       -1393.382          49.900    99788591.134 8  24782435.750
     -1429.730          49.800    98520096.672 9  24782437.090       -1411.556
        55.700
 121162085.457 8                  23056377.141
     -1462.942                          50.100                    90478170.727 8
  23056380.383       -1092.456          50.000    92838471.023 8  23056379.164
     -1120.952          50.300    91658305.481 9  23056380.547       -1106.704
        56.000
 140186125.264 6                  26676533.836
     -1365.878                          38.400                   104684439.000 6
  26676534.488       -1019.980          37.600   107415340.502 6  26676533.879
     -1046.581          36.200   106049893.858 7  26676535.027       -1033.276
        42.400
 136051017.619 6                  25889642.922
      2330.637                          41.400                   101596530.210 7
  25889644.891        1740.415          42.200   104246869.179 7  25889644.281
      1785.808          42.800   102921706.800 8  25889645.500        1763.112
        48.100
  62354944.359 7                  11865750.820
       561.040                          43.500



 202632318.901 6                  38559641.703
       -83.930                          40.800



 18  4  4  7 22  0.0000000  0 21G15G13R11R12G09G28R13G02G30R03G07R01
                                R02G05R18E07E30E12E19E20S20
 132281374.836 6 103076466.601 5  25172319.664                    25172323.117
      3352.935        2612.688          39.500          34.100



 117273858.756 7  91382230.00045  22316469.508                    22316473.055
      2609.781        2033.598          45.700          31.600



 110995531.351 7  86329869.295 7  20771300.922    20771300.563    20771302.727
     -2905.354       -2259.710          47.800          46.700



 102721288.671 7                  19229641.555    19229640.102
       780.520                          47.000



 123562230.620 7  96282320.134 6  23513124.711                    23513131.203
     -2978.474       -2320.895          44.100          41.300    92270562.126 7
  23513133.168       -2224.184          47.600


 118972668.252 7  92706013.79744  22639749.031                    22639751.707
      2720.864        2120.143          45.100          29.200



 120411105.362 6  93653283.362 5  22549175.266    22549173.285    22549178.055
      4261.238        3314.286          37.400          35.800



 126426444.495 6  98514159.87144  24058171.102                    24058173.738
     -2836.115       -2209.943          40.900          24.000



 106778405.232 8  83204047.323 8  20319270.992                    20319276.957
      -483.271        -376.573          52.500          51.400    79737210.938 9
  20319276.633        -360.879          55.700


 117861305.885 7  91669911.253 7  22017481.141    22017480.254    22017484.668
      3589.929        2792.176          42.000          44.000



 112829470.140 8  87919111.611 7  21470740.961                    21470743.785
     -1988.436       -1549.434          52.400          46.100



 115037363.552 7  89473803.212 6  21520187.711    21520185.934    21520192.816
     -3191.008       -2481.904          42.400          39.500



 102341436.905 8  79598923.315 8  19178742.867    19178741.547    19178744.379
       699.929         544.389          49.800          48.600



 108128974.625 8  84256349.821 8  20576256.375                    20576260.414
       335.153         261.166          51.500          48.900



 128006061.020 6  99560282.536 6  23979853.008    23979852.520    23979856.910
     -2917.019       -2268.769          39.900          36.500



 130288638.714 8                  24793104.508
     -1872.693                          48.600                    97293473.541 8
  24793109.160       -1398.436          50.100    99831563.195 8  24793107.895
     -1434.917          50.000    98562522.478 9  24793109.367       -1416.683
        55.800
 121206160.956 8                  23064764.516
     -1475.038                          50.400                    90511084.253 8
  23064767.477       -1101.488          50.300    92872243.161 8  23064766.445
     -1130.221          50.300    91691648.313 9  23064767.797       -1115.857
        56.000
 140227284.684 6                  26684366.883
     -1377.693                          38.700                   104715174.894 6
  26684367.004       -1028.796          36.800   107446878.222 6  26684367.379
     -1055.636          37.900   106081030.664 7  26684367.805       -1042.220
        42.600
 135981138.577 6                  25876344.938
      2328.079                          41.600                   101544347.818 7
  25876347.328        1738.500          42.300   104193325.491 7  25876347.188
      1783.856          42.500   102868843.758 8  25876348.016        1761.181
        48.200
  62338238.413 7                  11862571.547
       552.847                          43.800



 202634830.029 6                  38560122.422
       -83.601                          40.500



 18  4  4  7 22 30.0000000  0 21G15G13R11R12G09G28R13G02G30R03G07R01
                                R02G05R18E07E30E12E19E20S20
 132180794.695 6 102998092.408 5  25153179.430                    25153183.914
      3352.383        2612.245          40.600          33.600



 117195655.025 7  91321292.05045  22301588.094                    22301590.723
      2603.975        2029.061          44.700          32.100



 111082955.848 8  86397866.110 7  20787660.828    20787660.820    20787663.406
     -2922.343       -2272.944          48.200          46.400



 102698274.772 7                  19225332.602    19225331.617
       754.588                          46.800



 123651647.228 7  96351995.384 7  23530142.250                    23530149.516
     -2982.502       -2324.031          47.200          44.900    92337334.118 7
  23530148.668       -2227.193          46.700


 118891201.771 7  92642533.44544  22624246.102                    22624249.363
      2710.545        2112.109          44.000          29.900



 120283398.307 6  93553955.682 6  22525261.047    22525257.543    22525263.457
      4252.847        3307.755          37.600          36.200



 126511599.796 6  98580514.60844  24074375.688                    24074378.383
     -2840.736       -2213.542          40.800          24.300



 106793151.196 8  83215537.684 8  20322077.031                    20322083.059
      -499.269        -389.041          52.300          51.300    79748222.534 9
  20322082.613        -372.833          55.600


 117753677.625 7  91586200.445 7  21997376.719    21997375.012    21997378.238
      3585.402        2788.641          44.000          43.400



 112889288.777 8  87965723.522 7  21482123.641                    21482126.902
     -1999.099       -1557.745          51.800          45.800



 115133279.519 7  89548404.485 6  21538129.820    21538128.863    21538134.930
     -3202.976       -2491.220          42.600          39.300



 102320724.524 8  79582813.663 8  19174861.516    19174859.844    19174862.910
       681.539         530.095          49.900          48.500



 108119210.753 8  84248741.609 8  20574398.445                    20574402.289
       316.384         246.531          51.500          49.600



 128093784.228 6  99628511.701 6  23996287.273    23996285.609    23996289.523
     -2930.797       -2279.486          38.900          37.500



 130344923.331 8                  24803815.234
     -1879.403                          48.600                    97335504.224 8
  24803819.996       -1403.452          49.600    99874690.340 8  24803818.449
     -1440.060          49.900    98605101.389 9  24803819.965       -1421.756
        55.700
 121250599.006 8                  23073220.609
     -1487.087                          50.000                    90544268.506 8
  23073223.645       -1110.489          49.800    92906293.085 8  23073222.566
     -1139.453          50.200    91725265.401 9  23073223.957       -1124.967
        55.900
 140268798.138 6                  26692266.703
     -1389.471                          38.900                   104746175.183 6
  26692267.414       -1037.589          37.900   107478687.224 6  26692266.285
     -1064.659          36.500   106112435.311 7  26692267.609       -1051.125
        42.800
 135911338.175 6                  25863063.250
      2325.425                          41.100                   101492224.163 7
  25863064.285        1736.521          42.400   104139842.089 7  25863064.379
      1781.820          43.000   102816040.228 8  25863065.293        1759.175
        48.200
  62321779.275 7                  11859439.414
       544.647                          43.100



 202637335.313 6                  38560599.172
       -83.474                          40.500



 18  4  4  7 23  0.0000000  0 21G15G13R11R12G09G28R13G02G30R03G07R01
                                R02G05R18E07E30E12E19E20S20
 132080234.145 6 102919733.550 5  25134043.734                    25134047.520
      3351.660        2611.685          40.200          34.100



 117117626.992 7  91260490.98245  22286739.992                    22286742.770
      2598.107        2024.500          44.600          32.000



 111170888.430 8  86466258.116 7  20804115.719    20804115.477    20804118.367
     -2939.229       -2286.057          49.000          46.300



 102676039.944 7                  19221169.672    19221169.039
       728.613                          46.400



 123741185.795 7  96421765.684 6  23547179.797                    23547185.066
     -2986.606       -2327.231          43.200          41.200    92404197.341 8
  23547187.910       -2230.253          48.200


 118810046.509 7  92579295.62645  22608802.602                    22608806.438
      2700.134        2104.000          43.200          30.200



 120155945.589 6  93454825.849 5  22501392.016    22501389.801    22501394.332
      4244.299        3301.089          37.300          35.400



 126596892.009 6  98646976.02344  24090605.141                    24090609.195
     -2845.245       -2217.071          40.200          24.500



 106808377.406 8  83227402.256 8  20324974.820                    20324980.453
      -515.263        -401.506          52.800          51.500    79759592.745 9
  20324979.953        -384.774          55.400


 117646187.862 7  91502597.275 7  21977296.266    21977295.848    21977297.824
      3580.757        2785.038          44.700          42.500



 112949427.422 8  88012584.780 7  21493567.484                    21493571.121
     -2009.750       -1566.039          51.000          46.300



 115229554.062 7  89623284.632 6  21556140.156    21556139.668    21556145.695
     -3214.923       -2500.480          42.600          38.500



 102300563.818 8  79567133.101 8  19171082.711    19171081.625    19171085.203
       663.118         515.769          48.900          49.200



 108110012.318 8  84241573.986 8  20572648.313                    20572652.008
       297.492         231.807          51.300          49.900



 128181920.206 6  99697061.888 6  24012797.414    24012796.809    24012800.453
     -2944.434       -2290.127          39.400          37.100



 130401410.243 8                  24814564.125
     -1886.150                          48.200                    97377685.969 8
  24814569.195       -1408.486          50.300    99917972.487 8  24814567.883
     -1445.233          49.700    98647833.337 9  24814569.148       -1426.860
        55.700
 121295398.220 8                  23081745.695
     -1499.124                          50.400                    90577722.451 8
  23081749.121       -1119.480          50.100    92940619.746 8  23081747.809
     -1148.680          50.300    91759155.702 9  23081749.148       -1134.074
        55.900
 140310664.110 6                  26700232.992
     -1401.212                          38.500                   104777438.714 6
  26700233.785       -1046.356          37.600   107510766.319 6  26700233.504
     -1073.656          36.900   106144106.618 7  26700234.238       -1060.009
        42.500
 135841617.315 7                  25849796.000
      2322.717                          42.300                   101440159.886 7
  25849797.184        1734.500          42.600   104086419.624 7  25849796.574
      1779.746          42.600   102763296.861 8  25849797.875        1757.118
        48.400
  62305567.782 7                  11856354.117
       536.382                          43.400



 202639837.047 6                  38561077.359
       -83.183                          40.300



 18  4  4  7 23 30.0000000  0 21G15G13R11R12G09G28R13G02G30R03G07R01
                                R02G05R18E07E30E12E19E20S20
 131979693.869 6 102841390.509 5  25114911.148                    25114915.387
      3350.980        2611.157          37.500          35.400



 117039775.952 7  91199827.83845  22271925.406                    22271928.242
      2592.163        2019.865          46.700          31.600



 111259325.566 8  86535042.536 7  20820666.148    20820666.023    20820668.977
     -2956.044       -2299.135          49.100          47.300



 102654584.403 7                  19217153.766    19217153.016
       702.620                          46.700



 123830845.621 7  96491630.402 7  23564241.578                    23564249.797
     -2990.652       -2330.370          42.800          43.700    92471150.993 7
  23564248.301       -2233.275          46.000


 118729205.228 7  92516302.43345  22593418.570                    22593422.605
      2689.615        2095.804          44.700          30.000



 120028750.240 6  93355896.152 6  22477572.570    22477571.297    22477575.156
      4235.670        3294.392          37.500          36.300



 126682318.221 6  98713541.86643  24106863.164                    24106865.270
     -2849.678       -2220.532          41.100          23.900



 106824082.841 8  83239640.245 8  20327963.508                    20327969.078
      -531.242        -413.952          52.800          51.600    79771320.828 9
  20327968.691        -396.708          55.600


 117538839.163 7  91419103.819 7  21957243.844    21957241.199    21957243.625
      3575.947        2781.291          46.800          43.900



 113009883.966 8  88059693.770 7  21505072.063                    21505075.809
     -2020.358       -1574.303          51.100          46.000



 115326185.614 7  89698442.528 6  21574217.219    21574215.910    21574221.984
     -3226.789       -2509.743          43.000          39.000



 102280957.265 8  79551883.567 8  19167408.039    19167407.070    19167410.387
       644.615         501.367          49.000          49.100



 108101380.341 8  84234847.759 8  20571005.781                    20571009.266
       278.592         217.083          51.800          49.800



 128270465.135 6  99765930.082 6  24029384.445    24029383.723    24029387.645
     -2958.057       -2300.697          39.900          38.100



 130458099.376 8                  24825352.305
     -1892.911                          48.100                    97420018.723 8
  24825356.578       -1413.539          50.000    99961409.572 8  24825355.500
     -1450.415          50.000    98690718.253 9  24825356.750       -1431.978
        55.600
 121340557.288 8                  23090339.078
     -1511.110                          49.100                    90611445.114 8
  23090341.988       -1128.425          50.100    92975222.133 8  23090341.754
     -1157.862          50.300    91793318.228 9  23090342.574       -1143.142
        55.700
 140352881.230 6                  26708266.898
     -1412.891                          38.700                   104808964.475 6
  26708267.500       -1055.080          37.900   107543114.512 6  26708267.078
     -1082.605          37.700   106176043.595 7  26708268.129       -1068.839
        43.100
 135771976.911 7                  25836543.742
      2320.013                          42.300                   101388155.690 7
  25836545.387        1732.481          43.100   104033058.797 7  25836544.637
      1777.679          43.200   102710614.352 8  25836545.961        1755.074
        48.500
  62289604.808 7                  11853316.688
       528.026                          43.300



 202642337.078 6                  38561553.578
       -82.960                          40.000



 18  4  4  7 24  0.0000000  0 21G15G13R11R12G09G28R13G02G30R03G07R01
                                R02G05R18E07E30E12E19E20S20
 131879174.448 6 102763063.695 5  25095784.563                    25095788.109
      3350.300        2610.613          39.200          35.400



 116962102.170 7  91139302.81845  22257145.063                    22257147.070
      2586.259        2015.269          47.100          32.100



 111348263.174 8  86604216.236 7  20837309.352    20837309.109    20837311.715
     -2972.646       -2312.061          48.900          46.700



 102633907.793 7                  19213282.969    19213281.750
       676.666                          47.000



 123920625.967 7  96561589.128 7  23581327.063                    23581333.449
     -2994.601       -2333.456          44.700          43.000    92538194.767 7
  23581334.824       -2236.229          47.500


 118648680.024 7  92453555.56744  22578095.445                    22578098.871
      2679.044        2087.569          45.200          29.900



 119901815.040 5  93257168.773 5  22453800.203    22453798.457    22453804.922
      4226.958        3287.614          35.700          35.600



 126767875.250 6  98780209.63144  24123143.648                    24123146.031
     -2853.967       -2223.872          39.400          24.700



 106840266.142 8  83252250.605 8  20331042.813                    20331048.656
      -547.150        -426.354          52.500          51.300    79783405.752 9
  20331048.445        -408.587          55.300


 117431634.009 7  91335722.015 7  21937216.938    21937215.465    21937218.852
      3571.167        2777.582          46.400          44.900



 113070656.757 8  88107049.185 7  21516637.531                    21516640.629
     -2030.842       -1582.474          51.600          46.300



 115423172.585 7  89773876.784 6  21592361.328    21592359.668    21592366.301
     -3238.596       -2518.927          42.400          38.900



 102261905.890 8  79537065.832 8  19163838.477    19163836.922    19163840.340
       626.052         486.921          49.200          49.100



 108093314.779 8  84228562.887 8  20569470.852                    20569474.477
       259.704         202.371          51.200          49.000



 128359414.052 6  99835112.533 6  24046049.500    24046047.250    24046051.547
     -2971.447       -2311.117          39.200          39.100



 130514990.217 7                  24836177.695
     -1899.641                          47.800                    97462502.116 8
  24836182.574       -1418.561          49.600   100005001.236 8  24836181.680
     -1455.569          49.600    98733755.777 9  24836182.855       -1437.064
        55.700
 121386074.475 8                  23099000.750
     -1522.989                          49.500                    90645435.222 8
  23099003.320       -1137.298          49.900    93010098.929 8  23099003.227
     -1166.964          50.100    91827751.682 9  23099004.105       -1152.131
        55.500
 140395447.856 6                  26716366.758
     -1424.514                          37.600                   104840751.222 6
  26716368.270       -1063.761          39.100   107575730.483 6  26716367.191
     -1091.510          37.900   106208244.955 7  26716368.418       -1077.632
        44.100
 135702417.615 6                  25823306.750
      2317.332                          41.900                   101336212.068 7
  25823308.969        1730.471          43.000   103979760.114 7  25823308.078
      1775.621          42.400   102657993.195 8  25823309.234        1753.046
        48.500
  62273890.761 7                  11850326.625
       519.747                          43.200



 202644838.206 6                  38562028.328
       -83.773                          40.500



 18  4  4  7 24 30.0000000  0 21G15G13R11R12G09G28R13G02G30R03G07R01
                                R02G05R18E07E30E12E19E20S20
 131778677.427 6 102684754.380 6  25076659.930                    25076663.789
      3349.519        2610.013          39.200          36.900



 116884606.962 8  91078916.95945  22242398.273                    22242401.035
      2580.273        2010.595          48.000          32.600



 111437697.824 8  86673776.484 7  20854045.734    20854045.609    20854048.316
     -2989.120       -2324.868          48.400          46.200



 102614010.362 7                  19209558.008    19209556.906
       650.719                          46.500



 124010526.459 7  96631641.324 7  23598434.867                    23598442.051
     -2998.608       -2336.578          45.100          45.100    92605328.100 7
  23598439.910       -2239.225          45.100


 118568474.333 7  92391057.66244  22562832.227                    22562836.820
      2668.358        2079.240          45.900          29.900



 119775144.046 6  93158646.911 5  22430079.422    22430077.559    22430082.352
      4218.047        3280.741          36.900          35.600



 126853560.469 6  98846977.29844  24139448.102                    24139451.363
     -2858.243       -2227.200          38.900          24.600



 106856926.590 8  83265232.766 8  20334213.375                    20334219.027
      -563.014        -438.706          53.000          51.700    79795846.991 9
  20334218.816        -420.428          55.400


 117324575.279 7  91252454.115 7  21917216.813    21917216.750    21917218.875
      3566.226        2773.735          46.000          45.800



 113131744.062 8  88154649.661 7  21528261.664                    21528264.484
     -2041.304       -1590.624          50.600          45.100



 115520513.858 7  89849586.636 6  21610569.500    21610569.012    21610576.230
     -3250.395       -2528.094          42.000          39.000



 102243412.432 8  79522682.010 8  19160372.453    19160371.602    19160374.996
       607.447         472.474          48.800          49.100



 108085816.964 8  84222720.434 8  20568044.281                    20568047.730
       240.762         187.611          51.400          48.900



 128448763.240 6  99904606.333 6  24062787.156    24062785.844    24062789.801
     -2984.754       -2321.458          39.400          38.400



 130572083.018 8                  24847042.297
     -1906.337                          48.200                    97505136.307 8
  24847047.000       -1423.563          49.800   100048747.633 8  24847045.969
     -1460.702          50.300    98776946.077 9  24847047.289       -1442.134
        55.600
 121431948.800 8                  23107730.414
     -1534.894                          50.200                    90679692.018 8
  23107733.129       -1146.193          49.900    93045249.380 8  23107732.613
     -1176.088          50.000    91862455.303 9  23107733.613       -1161.139
        55.600
 140438362.901 6                  26724533.375
     -1436.089                          38.600                   104872798.131 6
  26724534.180       -1072.406          39.800   107608613.410 6  26724534.086
     -1100.379          39.400   106240709.870 7  26724534.863       -1086.390
        44.800
 135632940.733 7                  25810086.289
      2314.578                          43.100                   101284329.990 7
  25810088.133        1728.423          43.600   103926524.593 7  25810086.820
      1773.505          42.300   102605434.399 8  25810088.219        1750.963
        48.300
  62258426.796 7                  11847383.742
       511.418                          43.300



 202647336.436 6                  38562507.203
       -83.247                          40.700



 18  4  4  7 25  0.0000000  0 21G15G13R11R12G09G28R13G02G30R03G07R01
                                R02G05R18E07E30E12E19E20S20
 131678203.140 5 102606462.681 6  25057539.148                    25057544.246
      3348.752        2609.423          35.200          37.700



 116807290.906 8  91018670.67545  22227685.078                    22227688.227
      2574.298        2005.945          48.100          32.300



 111527625.375 7  86743720.118 7  20870874.461    20870874.102    20870877.016
     -3005.511       -2337.632          47.900          46.100



 102594891.671 7                  19205979.281    19205978.180
       624.709                          47.200



 124100546.058 7  96701786.469 7  23615565.203                    23615571.320
     -3002.558       -2339.657          45.300          44.700    92672550.508 7
  23615572.109       -2242.162          47.500


 118488590.230 7  92328810.33344  22547631.148                    22547634.930
      2657.582        2070.849          45.800          29.700



 119648739.454 6  93060332.341 5  22406406.641    22406406.656    22406412.043
      4209.129        3273.809          37.900          34.900



 126939370.905 6  98913842.51743  24155778.266                    24155780.164
     -2862.339       -2230.396          39.600          23.000



 106874062.647 8  83278585.541 8  20337474.344                    20337480.145
      -578.871        -451.070          53.700          51.600    79808643.399 9
  20337479.465        -432.272          55.200


 117217665.340 7  91169301.951 7  21897245.609    21897244.488    21897246.773
      3561.225        2769.826          46.300          46.100



 113193143.816 8  88202493.599 7  21539945.656                    21539948.535
     -2051.683       -1598.711          50.700          45.300



 115618207.501 6  89925570.540 6  21628844.813    21628843.738    21628850.719
     -3262.153       -2537.213          41.500          38.200



 102225478.192 8  79508733.160 8  19157011.836    19157011.102    19157014.395
       588.723         457.884          48.800          49.100



 108078887.099 8  84217320.538 8  20566725.414                    20566728.703
       221.814         172.842          50.900          49.300



 128538507.822 6  99974407.638 6  24079598.875    24079597.801    24079601.352
     -2997.878       -2331.674          36.100          36.500



 130629377.143 8                  24857944.781
     -1913.070                          48.300                    97547920.858 8
  24857949.602       -1428.592          50.000   100092648.299 8  24857948.430
     -1465.859          49.600    98820288.683 9  24857949.957       -1447.219
        55.600
 121478178.350 8                  23116527.570
     -1546.706                          49.800                    90714214.066 8
  23116530.340       -1155.005          49.600    93080672.014 8  23116530.152
     -1185.137          49.700    91897427.644 9  23116530.961       -1170.069
        55.600
 140481624.425 6                  26732766.133
     -1447.645                          37.400                   104905103.790 6
  26732766.844       -1081.038          40.200   107641761.829 6  26732766.469
     -1109.234          39.700   106273436.915 7  26732767.387       -1095.133
        45.500
 135563546.746 7                  25796881.016
      2311.756                          43.000                   101232509.816 7
  25796882.723        1726.305          43.500   103873352.574 7  25796881.359
      1771.349          42.700   102552938.299 8  25796882.770        1748.829
        48.400
  62243213.306 7                  11844489.070
       503.031                          43.500



 202649830.911 6                  38562987.484
       -83.091                          40.000



 18  4  4  7 25 30.0000000  0 21G15G13R11R12G09G28R13G02G30R03G07R01
                                R02G05R18E07E30E12E19E20S20
 131577752.849 6 102528189.761 6  25038424.852                    25038429.195
      3347.939        2608.782          37.600          39.300



 116730155.263 8  90958564.99145  22213006.969                    22213010.055
      2568.296        2001.269          48.000          33.000



 111618042.648 8  86814044.638 7  20887795.672    20887794.605    20887797.266
     -3021.769       -2350.252          48.600          46.600



 102576552.425 7                  19202545.859    19202544.758
       598.758                          46.400



 124190684.618 7  96772024.116 7  23632717.211                    23632724.184
     -3006.521       -2342.733          42.300          44.000    92739861.608 7
  23632722.809       -2245.125          44.600


 118409031.049 7  92266816.19044  22532491.031                    22532495.480
      2646.714        2062.380          44.600          28.400



 119522604.639 6  92962227.490 5  22382787.438    22382785.574    22382790.582
      4200.125        3266.770          38.100          35.800



 127025303.645 6  98980803.06843  24172130.750                    24172132.621
     -2866.371       -2233.548          39.000          22.300



 106891673.725 8  83292308.468 8  20340825.477                    20340831.059
      -594.658        -463.372          53.000          51.200    79821794.529 9
  20340830.672        -444.065          55.400


 117110906.957 7  91086267.741 7  21877301.797    21877301.145    21877304.777
      3556.113        2765.849          45.500          46.100



 113254854.405 8  88250579.762 7  21551688.500                    21551692.207
     -2062.010       -1606.764          50.900          46.100



 115716252.478 7  90001827.711 6  21647187.234    21647186.980    21647192.129
     -3273.805       -2546.303          42.300          38.600



 102208105.561 8  79495221.089 8  19153756.094    19153754.539    19153758.043
       570.023         443.367          48.800          48.600



 108072526.493 8  84212364.211 8  20565514.883                    20565518.398
       202.838         158.061          50.700          49.400



 128628644.117 5 100044513.644 5  24096485.070    24096483.523    24096487.160
     -3010.772       -2341.740          35.100          34.000



 130686872.945 7                  24868886.000
     -1919.783                          47.300                    97590855.990 8
  24868890.684       -1433.608          49.700   100136703.478 8  24868889.414
     -1471.000          49.700    98863783.840 9  24868891.031       -1452.303
        55.500
 121524762.237 8                  23125392.359
     -1558.480                          49.500                    90749000.727 8
  23125394.996       -1163.802          50.200    93116366.151 8  23125394.293
     -1194.161          49.800    91932668.042 9  23125395.441       -1178.978
        55.400
 140525231.428 6                  26741064.719
     -1459.126                          37.300                   104937667.430 6
  26741064.184       -1089.611          39.300   107675174.964 6  26741064.559
     -1118.038          40.200   106306425.296 7  26741065.445       -1103.818
        45.300
 135494237.039 7                  25783692.133
      2308.946                          43.500                   101180752.557 7
  25783693.488        1724.219          43.200   103820245.123 6  25783692.363
      1769.190          41.900   102500505.947 8  25783693.406        1746.700
        48.400
  62228251.548 7                  11841641.656
       494.653                          43.200



 202652319.489 6                  38563455.828
       -82.466                          39.800



 18  4  4  7 26  0.0000000  0 21G15G13R11R12G09G28R13G02G30R03G07R01
                                R02G05R18E07E30E12E19E20S20
 131477327.155 6 102449936.004 6  25019313.625                    25019319.191
      3347.133        2608.154          38.300          37.800



 116653200.639 8  90898600.35245  22198362.258                    22198365.625
      2562.234        1996.549          48.400          33.300



 111708945.729 7  86884747.024 7  20904805.813    20904806.039    20904808.637
     -3037.879       -2362.781          47.600          46.300



 102558991.962 7                  19199258.297    19199258.133
       572.824                          47.000



 124280941.316 6  96842354.026 7  23649891.422                    23649899.098
     -3010.464       -2345.806          39.900          43.900    92807261.103 7
  23649899.125       -2248.059          46.900


 118329799.260 7  92205077.16744  22517413.344                    22517418.184
      2635.756        2053.827          43.400          29.400



 119396742.393 6  92864334.683 5  22359217.172    22359215.664    22359220.488
      4191.014        3259.630          38.800          35.800



 127111355.648 6  99047856.52243  24188505.844                    24188507.625
     -2870.294       -2236.595          38.800          22.000



 106909758.431 8  83306400.446 8  20344266.914                    20344272.531
      -610.433        -475.667          53.700          50.800    79835299.337 9
  20344272.145        -455.837          55.600


 117004302.593 7  91003353.228 7  21857386.906    21857385.551    21857389.277
      3550.987        2761.865          45.100          45.600



 113316874.218 8  88298906.872 7  21563490.688                    21563494.039
     -2072.294       -1614.776          51.500          46.200



 115814647.217 6  90078356.911 6  21665593.430    21665591.652    21665599.207
     -3285.470       -2555.344          41.400          39.700



 102191295.929 8  79482146.937 8  19150605.938    19150604.617    19150608.094
       551.198         428.718          49.000          48.600



 108066735.432 8  84207851.689 8  20564413.000                    20564416.801
       183.837         143.245          51.700          49.600



 128719168.047 6 100114921.091 5  24113443.313    24113441.531    24113445.660
     -3023.625       -2351.726          36.000          35.200



 130744569.998 7                  24879864.977
     -1926.453                          47.700                    97633941.413 8
  24879869.938       -1438.583          49.400   100180912.878 8  24879868.859
     -1476.111          50.100    98907431.255 9  24879870.531       -1457.353
        55.400
 121571698.859 8                  23134323.711
     -1570.228                          49.600                    90784050.796 8
  23134326.434       -1172.573          49.400    93152330.579 8  23134326.012
     -1203.161          49.700    91968175.292 9  23134327.465       -1187.869
        55.300
 140569182.241 6                  26749427.633
     -1470.557                          38.000                   104970487.819 6
  26749428.266       -1098.143          40.100   107708851.533 6  26749428.031
     -1126.795          39.400   106339673.785 7  26749429.031       -1112.476
        45.300
 135425012.286 7                  25770518.914
      2306.112                          43.200                   101129058.753 7
  25770520.551        1722.095          43.000   103767202.778 7  25770519.285
      1767.024          42.000   102448137.872 8  25770520.328        1744.554
        48.200
  62213542.029 7                  11838842.984
       486.244                          43.600



 202654802.161 6                  38563931.609
       -83.092                          41.100



 18  4  4  7 26 30.0000000  0 21G15G13R11R12G09G28R13G02G30R03G07R01
                                R02G05R18E07E30E12E19E20S20
 131376927.157 6 102371702.276 6  25000208.484                    25000213.395
      3346.246        2607.462          39.900          38.400



 116576427.857 7  90838777.41945  22183753.078                    22183756.367
      2556.132        1991.794          47.100          32.400



 111800330.382 7  86955823.961 7  20921907.039    20921907.500    20921910.695
     -3053.883       -2375.244          47.900          47.100



 102542209.999 7                  19196116.844    19196116.211
       546.852                          47.000



 124371315.277 6  96912775.201 6  23667089.211                    23667097.352
     -3014.366       -2348.854          40.900          41.900    92874748.080 7
  23667096.734       -2250.990          45.200


 118250897.185 7  92143595.06644  22502399.789                    22502404.004
      2624.725        2045.243          43.700          29.400



 119271156.244 6  92766656.585 5  22335698.789    22335697.984    22335701.984
      4181.740        3252.460          38.400          35.600



 127197524.132 6  99115000.73243  24204903.023                    24204905.176
     -2874.169       -2239.607          39.100          21.700



 106928315.569 8  83320860.540 8  20347798.258                    20347804.254
      -626.183        -487.937          53.400          50.800    79849156.930 9
  20347803.750        -467.604          55.400


 116897855.080 7  90920560.717 7  21837500.203    21837499.434    21837502.863
      3545.696        2757.783          45.900          44.400



 113379201.490 8  88347473.561 7  21575351.367                    21575354.777
     -2082.516       -1622.742          51.100          46.000



 115913389.774 7  90155156.641 6  21684065.688    21684064.496    21684071.863
     -3297.001       -2564.344          42.000          39.100



 102175051.299 8  79469512.217 8  19147561.914    19147560.359    19147563.703
       532.395         414.079          48.800          48.600



 108061514.438 8  84203783.361 8  20563420.148                    20563423.172
       164.829         128.441          51.700          49.500



 128810074.766 5 100185626.162 5  24130472.742    24130471.195    24130475.531
     -3036.365       -2361.591          32.500          35.800



 130802468.037 8                  24890883.266
     -1933.182                          48.400                    97677176.910 8
  24890887.527       -1443.608          49.200   100225276.267 8  24890886.590
     -1481.268          49.800    98951230.693 9  24890888.230       -1462.436
        55.300
 121618986.569 8                  23143322.430
     -1581.910                          49.900                    90819363.040 8
  23143324.926       -1181.298          49.400    93188564.013 8  23143324.832
     -1212.114          50.000    92003948.129 9  23143325.891       -1196.703
        55.300
 140613475.197 6                  26757856.344
     -1481.922                          38.100                   105003563.694 6
  26757857.051       -1106.633          39.300   107742790.255 6  26757857.098
     -1135.499          38.600   106373181.074 7  26757857.867       -1121.063
        44.600
 135355873.369 7                  25757362.297
      2303.248                          43.500                   101077429.033 7
  25757362.895        1719.958          42.400   103714226.203 7  25757363.082
      1764.824          42.600   102395834.724 8  25757363.680        1742.390
        48.100
  62199085.464 7                  11836091.547
       477.804                          43.300



 202657278.140 6                  38564403.453
       -82.352                          41.400



 18  4  4  7 27  0.0000000  0 21G15G13R11R12G09G28R13G02G30R03G07R01
                                R02G05R18E07E30E12E19E20S20
 131276553.067 6 102293488.700 6  24981108.930                    24981113.203
      3345.354        2606.769          41.700          38.200



 116499837.767 7  90779096.82945  22169178.109                    22169181.965
      2550.060        1987.064          47.300          32.800



 111892193.191 8  87027272.776 7  20939098.508    20939098.031    20939100.730
     -3069.736       -2387.565          48.500          46.300



 102526206.083 7                  19193121.102    19193119.883
       520.911                          47.200



 124461805.859 7  96983287.320 7  23684310.320                    23684316.145
     -3018.221       -2351.855          44.600          42.800    92942322.244 7
  23684316.113       -2253.865          44.100


 118172327.531 7  92082371.97244  22487447.656                    22487451.863
      2613.619        2036.578          44.300          28.500



 119145849.149 6  92669195.538 5  22312231.805    22312230.414    22312235.031
      4172.344        3245.168          37.700          35.500



 127283805.809 6  99182233.15443  24221322.625                    24221324.160
     -2877.872       -2242.489          40.100          21.500



 106947343.826 8  83335687.748 8  20351418.922                    20351425.020
      -641.847        -500.137          53.000          51.600    79863366.341 9
  20351424.926        -479.298          55.500


 116791566.863 7  90837892.116 7  21817645.156    21817644.270    21817648.762
      3540.342        2753.585          45.300          44.700



 113441834.138 8  88396278.215 7  21587270.031                    21587273.168
     -2092.668       -1630.650          51.400          45.600



 116012478.776 7  90232225.802 6  21702602.016    21702601.996    21702607.676
     -3308.519       -2573.318          42.000          38.100



 102159373.267 8  79457318.185 8  19144624.484    19144622.578    19144626.156
       513.448         399.338          49.200          48.800



 108056863.774 8  84200159.459 8  20562534.461                    20562537.996
       145.806         113.613          51.600          49.700



 128901359.839 5 100256625.701 5  24147570.906    24147571.941    24147575.957
     -3048.776       -2371.290          31.300          34.400



 130860566.707 8                  24901939.109
     -1939.857                          48.200                    97720562.257 8
  24901943.277       -1448.593          49.400   100269793.402 8  24901942.480
     -1486.383          49.400    98995181.936 9  24901944.141       -1467.488
        55.300
 121666623.865 8                  23152387.625
     -1593.544                          50.300                    90854936.334 8
  23152390.371       -1189.983          49.300    93225065.303 8  23152390.277
     -1221.028          49.900    92039985.424 9  23152391.059       -1205.503
        55.400
 140658108.692 6                  26766350.117
     -1493.255                          38.100                   105036893.885 6
  26766350.398       -1115.094          39.400   107776989.939 6  26766350.352
     -1144.185          37.800   106406946.014 7  26766351.250       -1129.635
        44.400
 135286821.091 7                  25744221.344
      2300.311                          42.800                   101025864.022 7
  25744223.328        1717.765          42.800   103661316.015 7  25744222.719
      1762.575          42.400   102343597.121 8  25744223.578        1740.172
        48.000
  62184882.502 7                  11833389.000
       469.350                          43.300



 202659750.374 6                  38564872.875
       -82.224                          39.700



 18  4  4  7 27 30.0000000  0 21G15G13R11R12G09G28R13G02G30R03G07R01
                                R02G05R18E07E30E12E19E20S20
 131176206.887 7 102215296.883 6  24962012.781                    24962017.730
      3344.444        2606.056          42.600          37.500



 116423431.475 7  90719559.47945  22154638.391                    22154642.316
      2543.914        1982.271          45.500          32.300



 111984530.314 8  87099090.551 7  20956378.773    20956378.059    20956380.852
     -3085.498       -2399.858          48.400          46.200



 102510980.891 7                  19190271.086    19190269.984
       494.974                          47.000



 124552412.795 7  97053890.021 7  23701550.500                    23701559.746
     -3022.087       -2354.871          42.000          43.900    93009983.092 7
  23701557.898       -2256.750          44.100


 118094093.078 7  92021410.09844  22472560.297                    22472563.898
      2602.398        2027.829          43.200          29.200



 119020824.242 6  92571954.019 5  22288819.273    22288817.645    22288821.980
      4162.920        3237.795          37.300          35.100



 127370198.336 6  99249551.99843  24237762.320                    24237763.980
     -2881.513       -2245.340          39.200          21.700



 106966842.479 8  83350881.515 8  20355129.688                    20355135.793
      -657.511        -512.347          53.400          51.300    79877927.032 9
  20355135.293        -491.001          55.400


 116685440.647 7  90755349.503 7  21797820.383    21797819.027    21797822.316
      3534.922        2749.381          44.200          43.600



 113504770.772 8  88445319.714 7  21599246.211                    21599249.570
     -2102.752       -1638.509          51.000          45.300



 116111912.998 7  90309563.489 6  21721204.164    21721202.855    21721209.414
     -3320.001       -2582.235          42.900          37.700



 102144263.786 8  79445566.349 8  19141792.320    19141790.883    19141794.109
       494.466         384.587          48.900          48.900



 108052784.990 8  84196981.185 8  20561758.648                    20561762.000
       126.744          98.765          52.000          49.100



 128993019.733 5 100327916.762 5  24164743.617    24164743.363    24164747.715
     -3061.272       -2381.024          31.600          33.500



 130918866.245 8                  24913032.953
     -1946.534                          48.000                    97764097.599 8
  24913037.105       -1453.584          49.000   100314464.441 8  24913036.637
     -1491.498          50.100    99039285.124 9  24913037.891       -1472.538
        55.100
 121714609.682 8                  23161518.609
     -1605.096                          49.800                    90890769.891 8
  23161521.535       -1198.609          49.400    93261833.650 8  23161521.441
     -1229.878          50.300    92076286.377 9  23161522.363       -1214.248
        55.400
 140703081.639 6                  26774908.594
     -1504.537                          38.500                   105070477.534 6
  26774908.754       -1123.517          38.900   107811449.693 6  26774908.285
     -1152.818          38.600   106440967.719 7  26774909.523       -1138.172
        44.300
 135217856.736 7                  25731098.102
      2297.410                          42.800                   100974364.675 7
  25731099.777        1715.599          43.000   103608473.206 7  25731098.883
      1760.356          42.500   102291426.043 8  25731100.016        1737.976
        48.100
  62170934.377 7                  11830734.422
       460.848                          43.200



 202662220.905 6                  38565339.875
       -82.266                          39.900



 18  4  4  7 28  0.0000000  0 20G15G13R11R12G09G28R13G02G30R03G07R01
                                R02G05E07E30E12E19E20S20
 131075888.951 7 102137127.091 6  24942923.914                    24942927.992
      3343.475        2605.304          44.400          39.400



 116347209.958 7  90660166.10845  22140133.938                    22140137.750
      2537.706        1977.433          47.500          33.000



 112077338.160 7  87171274.406 7  20973745.992    20973745.750    20973748.789
     -3101.136       -2411.998          47.800          46.700



 102496533.166 7                  19187566.398    19187565.180
       469.061                          47.600



 124643135.245 7  97124582.884 7  23718815.047                    23718821.891
     -3025.942       -2357.872          43.100          43.000    93077730.418 7
  23718822.332       -2259.629          44.700


 118016196.922 7  91960711.80544  22457737.992                    22457740.930
      2591.052        2019.009          46.800          29.200



 118896084.574 6  92474934.298 5  22265460.320    22265457.285    22265462.813
      4153.353        3230.403          36.700          35.600



 127456698.405 6  99316954.58343  24254223.188                    24254224.910
     -2885.042       -2248.081          40.500          22.200



 106986810.168 8  83366440.741 8  20358929.414                    20358935.234
      -673.139        -524.526          53.500          51.600    79892837.966 9
  20358934.789        -502.671          55.400


 116579479.547 7  90672935.329 7  21778025.430    21778024.309    21778028.129
      3529.326        2745.012          44.400          45.100



 113568009.516 8  88494596.635 7  21611280.492                    21611283.273
     -2112.806       -1646.338          51.500          44.900



 116211690.707 7  90387168.351 6  21739869.305    21739868.816    21739873.703
     -3331.437       -2591.122          42.300          37.700



 102129724.687 8  79434258.160 8  19139067.031    19139066.531    19139070.012
       475.399         369.756          49.100          49.500



 108049278.209 8  84194248.619 8  20561091.500                    20561094.566
       107.667          83.896          51.900          49.400



 130977366.294 7                  24924165.305
     -1953.206                          47.700                    97807782.668 8
  24924169.445       -1458.565          49.200   100359289.119 8  24924168.648
     -1496.612          49.500    99083540.001 9  24924169.953       -1477.592
        55.100
 121762942.435 8                  23170716.242
     -1616.661                          49.600                    90926862.521 8
  23170719.059       -1207.249          49.100    93298867.819 8  23170719.012
     -1238.738          49.800    92112849.773 9  23170719.777       -1222.991
        55.300
 140748392.284 6                  26783530.469
     -1515.784                          38.000                   105104313.400 6
  26783530.754       -1131.917          38.100   107846168.219 6  26783530.332
     -1161.448          37.900   106475244.916 7  26783531.664       -1146.682
        43.300
 135148981.106 7                  25717991.375
      2294.398                          42.500                   100922931.582 7
  25717992.734        1713.348          42.400   103555698.372 7  25717992.828
      1758.048          42.700   102239322.081 8  25717993.449        1735.700
        48.100
  62157241.582 7                  11828128.891
       452.341                          43.800



 202664689.586 6                  38565806.000
       -82.200                          40.200



 18  4  4  7 28 30.0000000  0 21G15G13R11R12G09G28R13G02G30R03G07R01
                                R02G05R18E07E30E12E19E20S20
 130975599.840 7 102058979.723 6  24923839.102                    24923843.250
      3342.525        2604.567          42.900          38.300



 116271173.727 7  90600917.11245  22125665.125                    22125668.340
      2531.563        1972.641          47.000          32.700



 112170612.573 8  87243821.136 7  20991201.758    20991201.516    20991203.457
     -3116.600       -2424.025          48.700          45.600



 102482863.153 7                  19185008.203    19185006.043
       443.154                          47.300



 124733972.480 7  97195365.005 6  23736101.336                    23736108.578
     -3029.735       -2360.823          42.000          41.400    93145563.282 7
  23736110.309       -2262.450          46.400


 117938641.239 7  91900278.82245  22442979.242                    22442982.773
      2579.681        2010.134          43.900          30.500



 118771633.181 6  92378138.811 5  22242154.961    22242152.629    22242156.750
      4143.724        3222.886          37.800          35.300



 127543303.060 6  99384438.69743  24270702.977                    24270705.746
     -2888.460       -2250.752          39.200          22.000



 107007245.543 8  83382364.399 8  20362818.125                    20362824.230
      -688.685        -536.636          53.200          51.400    79908098.142 9
  20362823.844        -514.280          55.400


 116473685.877 7  90590651.378 7  21758262.711    21758261.121    21758265.043
      3523.734        2740.682          45.000          44.400



 113631548.557 8  88544107.560 7  21623371.500                    21623374.070
     -2122.770       -1654.102          51.000          44.900



 116311810.384 6  90465039.166 6  21758598.141    21758597.652    21758604.277
     -3342.762       -2599.965          41.600          37.600



 102115757.461 8  79423394.759 8  19136450.656    19136448.984    19136452.188
       456.311         354.897          49.400          49.500



 108046343.692 8  84191961.972 8  20560533.109                    20560536.078
        88.605          69.045          52.700          49.400



                                  24199294.766




 131036066.505 7                  24935335.273
     -1959.865                          47.700                    97851617.208 8
  24935339.840       -1463.528          48.800   100404267.168 8  24935339.043
     -1501.708          49.700    99127946.293 9  24935340.371       -1482.622
        55.100
 121811620.488 8                  23179979.383
     -1628.127                          49.400                    90963213.006 8
  23179982.145       -1215.812          49.400    93336166.583 8  23179981.770
     -1247.525          49.800    92149674.397 9  23179982.797       -1231.665
        55.300
 140794039.053 6                  26792216.977
     -1526.928                          38.500                   105138400.227 6
  26792217.484       -1140.234          39.500   107881144.280 6  26792217.391
     -1169.980          38.800   106509776.356 7  26792218.125       -1155.110
        44.700
 135080194.952 7                  25704902.234
      2291.408                          42.800                   100871565.305 7
  25704903.434        1711.121          42.200   103502992.117 7  25704903.059
      1755.756          42.400   102187285.812 8  25704903.828        1733.439
        48.100
  62143804.777 7                  11825571.898
       443.822                          43.300



 202667156.934 6                  38566279.531
       -82.303                          41.000



 18  4  4  7 29  0.0000000  0 21G15G13R11R12G09G28R13G02G30R03G07R01
                                R02G05R18E07E30E12E19E20S20
 130875340.858 7 101980855.871 6  24904760.586                    24904764.664
      3341.476        2603.741          44.300          37.000



 116195323.972 7  90541813.42045  22111230.883                    22111234.629
      2525.317        1967.776          47.600          33.200



 112264350.269 7  87316728.220 7  21008742.961    21008743.188    21008745.742
     -3131.994       -2435.995          47.900          46.700



 102469970.525 7                  19182594.469    19182592.543
       417.238                          47.300



 124824924.170 7  97266236.465 6  23753410.227                    23753414.730
     -3033.563       -2363.814          44.600          40.200    93213481.798 7
  23753414.230       -2265.326          42.500


 117861428.760 7  91840113.27645  22428286.523                    22428290.582
      2568.208        2001.193          45.600          30.900



 118647473.121 6  92281569.887 5  22218902.055    22218901.719    22218905.090
      4133.961        3215.304          38.300          35.300



 127630009.908 6  99452002.42843  24287201.781                    24287206.059
     -2891.826       -2253.369          39.500          22.300



 107028147.919 8  83398651.969 8  20366795.547                    20366801.629
      -704.236        -548.755          53.400          51.000    79923707.062 9
  20366801.008        -525.890          55.500


 116368062.548 7  90508499.903 7  21738531.414    21738529.824    21738533.871
      3518.047        2736.253          45.800          45.700



 113695386.251 8  88593851.205 7  21635518.664                    21635522.016
     -2132.713       -1661.857          50.300          45.100



 116412270.468 7  90543174.718 6  21777392.352    21777391.160    21777396.863
     -3354.119       -2608.771          43.300          36.900



 102102364.409 8  79412977.920 8  19133940.148    19133938.828    19133942.145
       437.169         340.026          48.900          49.200



 108043982.435 8  84190122.022 8  20560083.406                    20560086.852
        69.476          54.137          50.900          49.500



 129270202.190 5 100543502.957 5  24216669.453    24216669.082    24216673.492
     -3097.683       -2409.300          32.500          32.900



 131094966.951 7                  24946543.852
     -1966.560                          47.800                    97895601.290 8
  24946548.453       -1468.538          48.400   100449398.661 8  24946547.563
     -1506.845          49.300    99172504.080 9  24946548.777       -1487.693
        54.900
 121860642.668 8                  23189308.266
     -1639.587                          49.700                    90999820.462 8
  23189310.758       -1224.365          49.600    93373729.018 8  23189311.133
     -1256.307          49.700    92186759.343 9  23189311.473       -1240.336
        55.300
 140840020.581 6                  26800966.813
     -1538.090                          36.800                   105172737.035 6
  26800967.551       -1148.566          40.200   107916376.842 6  26800967.270
     -1178.533          39.800   106544561.044 7  26800968.105       -1163.553
        45.500
 135011499.574 7                  25691829.938
      2288.385                          42.500                   100820266.815 7
  25691831.293        1708.860          43.300   103450355.409 7  25691831.059
      1753.440          42.800   102135318.214 8  25691831.516        1731.152
        48.300
  62130625.075 7                  11823063.969
       435.205                          43.400



 202669620.560 6                  38566750.188
       -82.021                          39.600



 18  4  4  7 29 30.0000000  0 21G15G13R11R12G09G28R13G02G30R03G07R01
                                R02G05R18E07E30E12E19E20S20
 130775112.805 7 101902756.080 6  24885687.430                    24885691.813
      3340.469        2602.962          43.600          37.300



 116119661.188 7  90482855.42345  22096833.234                    22096836.508
      2519.067        1962.904          46.400          33.300



 112358546.679 7  87389992.072 7  21026369.547    21026370.125    21026372.832
     -3147.223       -2447.836          47.300          45.500



 102457854.423 7                  19180326.156    19180324.820
       391.374                          46.600



 124915989.113 7  97337195.960 7  23770738.984                    23770747.164
     -3037.301       -2366.729          43.500          44.500    93281484.591 7
  23770747.836       -2268.111          47.500


 117784561.681 7  91780216.87645  22413658.266                    22413661.676
      2556.653        1992.190          44.800          30.000



 118523607.049 6  92185229.652 5  22195706.203    22195705.281    22195709.938
      4124.114        3207.646          37.600          34.400



 127716815.430 6  99519643.03443  24303720.984                    24303724.480
     -2895.080       -2255.917          39.400          22.900



 107049515.226 8  83415301.820 8  20370861.914                    20370867.957
      -719.735        -560.835          52.300          52.100    79939663.162 9
  20370867.281        -537.464          55.400


 116262611.952 7  90426482.790 7  21718831.156    21718830.270    21718834.344
      3512.192        2731.692          45.700          43.900



 113759520.337 8  88643825.792 7  21647723.023                    21647726.625
     -2142.556       -1669.517          50.200          46.000



 116513068.951 7  90621573.509 6  21796250.609    21796249.184    21796253.375
     -3365.383       -2617.514          42.400          37.100



 102089546.158 8  79403008.178 8  19131538.453    19131537.250    19131540.406
       417.974         325.089          48.900          48.900



 108042194.308 8  84188728.670 8  20559743.398                    20559746.668
        50.379          39.257          50.900          49.900



 129363315.975 5 100615924.656 5  24234112.469    24234112.332    24234116.047
     -3109.487       -2418.462          34.900          31.200



 131154066.929 8                  24957790.680
     -1973.194                          48.000                    97939734.364 8
  24957795.098       -1473.490          49.400   100494683.034 8  24957794.063
     -1511.929          49.600    99217212.804 9  24957795.262       -1492.710
        55.000
 121910006.960 8                  23198702.031
     -1650.958                          50.100                    91036683.401 8
  23198704.320       -1232.857          49.100    93411553.596 8  23198704.789
     -1265.020          50.000    92224103.098 9  23198705.188       -1248.939
        55.200
 140886334.837 6                  26809780.836
     -1549.141                          38.100                   105207322.321 6
  26809781.148       -1156.823          40.100   107951864.354 6  26809780.629
     -1186.999          39.900   106579597.443 7  26809781.508       -1171.908
        45.300
 134942895.387 7                  25678774.961
      2285.354                          43.200                   100769036.419 7
  25678776.730        1706.594          42.800   103397788.567 7  25678775.559
      1751.117          43.000   102083419.597 8  25678776.695        1728.859
        48.200
  62117702.721 7                  11820604.852
       426.641                          43.000



 202672081.550 6                  38567217.469
       -82.123                          41.400



 18  4  4  7 30  0.0000000  0 21G15G13R11R12G09G28R13G02G30R03G07R01
                                R02G05R18E07E30E12E19E20S20
 130674916.835 7 101824681.283 6  24866621.102                    24866625.336
      3339.354        2602.095          44.900          37.500



 116044186.793 7  90424044.21145  22082470.898                    22082474.285
      2512.787        1958.015          47.000          34.000



 112453198.676 8  87463610.297 7  21044084.359    21044084.000    21044085.707
     -3162.342       -2459.627          48.400          45.300



 102446514.672 7                  19178202.461    19178201.477
       365.503                          46.300



 125007166.974 7  97408243.771 6  23788088.063                    23788093.488
     -3041.087       -2369.670          43.000          40.800    93349572.093 6
  23788093.754       -2270.934          41.800


 117708043.121 7  91720592.05045  22399097.672                    22399100.840
      2544.981        1983.094          45.300          30.900



 118400038.356 6  92089120.695 5  22172565.547    22172563.449    22172568.867
      4114.141        3199.904          38.100          35.500



 127803716.818 6  99587358.36244  24320257.703                    24320260.969
     -2898.240       -2258.368          38.600          24.300



 107071346.780 8  83432313.425 8  20375016.133                    20375022.176
      -735.196        -572.881          52.900          51.300    79955965.946 9
  20375021.676        -549.012          55.400


 116157337.273 7  90344602.463 7  21699166.406    21699165.285    21699168.246
      3506.332        2727.128          45.400          44.000



 113823949.237 8  88694030.103 7  21659984.453                    21659987.031
     -2152.361       -1677.166          51.100          45.300



 116614204.897 6  90700234.792 6  21815167.102    21815167.082    21815173.059
     -3376.597       -2626.226          41.400          38.100



 102077305.313 8  79393487.503 8  19129244.578    19129242.789    19129246.270
       398.711         310.104          49.100          49.400



 108040980.272 8  84187782.658 8  20559512.414                    20559515.957
        31.215          24.320          51.200          49.600



 129456782.725 5 100688621.035 5  24251623.422    24251621.758    24251626.402
     -3121.172       -2427.561          33.000          32.200



 131213366.599 8                  24969074.656
     -1979.848                          48.200                    97984016.556 8
  24969079.375       -1478.456          49.300   100540120.423 8  24969078.625
     -1517.031          49.200    99262072.595 9  24969079.535       -1497.745
        55.100
 121959712.320 8                  23208160.539
     -1662.317                          50.200                    91073801.030 8
  23208163.031       -1241.335          49.800    93449639.510 8  23208163.453
     -1273.728          49.600    92261704.874 9  23208163.656       -1257.529
        55.300
 140932980.676 5                  26818656.484
     -1560.132                          34.900                   105242155.239 6
  26818657.820       -1165.034          40.200   107987605.959 6  26818656.742
     -1195.432          39.400   106614884.705 7  26818657.824       -1180.236
        45.300
 134874383.772 7                  25665737.586
      2282.227                          44.000                   100717875.132 7
  25665738.949        1704.266          42.600   103345292.643 7  25665737.684
      1748.718          42.500   102031590.992 8  25665739.285        1726.494
        48.300
  62105038.892 7                  11818194.945
       418.024                          43.300



 202674540.752 6                  38567688.734
       -81.861                          39.900



 18  4  4  7 30 30.0000000  0 20G15G13R11R12G09G28R13G02G30R03G07R01
                                R02G05E07E30E12E19E20S20
 130574753.332 7 101746631.786 5  24847559.977                    24847564.926
      3338.229        2601.218          43.000          35.100



 115968901.219 7  90365380.13745  22068144.508                    22068148.125
      2506.464        1953.088          47.600          33.700



 112548302.133 7  87537579.617 7  21061880.547    21061880.422    21061882.809
     -3177.344       -2471.274          47.700          45.400



 102435950.640 7                  19176225.031    19176223.695
       339.632                          47.400



 125098457.160 7  97479378.813 6  23805461.273                    23805467.863
     -3044.801       -2372.568          45.300          41.700    93417743.184 7
  23805468.652       -2273.713          45.900


 117631875.555 7  91661240.73244  22384603.547                    22384606.930
      2533.244        1973.953          46.200          29.200



 118276769.848 6  91993245.214 5  22149480.797    22149480.227    22149485.035
      4104.071        3192.073          38.100          35.600



 127890711.241 6  99655146.17943  24336814.297                    24336814.922
     -2901.282       -2260.733          40.000          22.800



 107093641.258 8  83449685.733 8  20379258.641                    20379264.250
      -750.600        -584.877          52.300          50.900    79972614.417 9
  20379263.809        -560.516          55.300


 116052240.784 7  90262860.769 7  21679532.938    21679531.816    21679535.332
      3500.301        2722.448          45.000          44.100



 113888671.375 8  88744462.916 7  21672300.133                    21672303.473
     -2162.126       -1684.774          50.900          45.200



 116715676.155 7  90779156.831 6  21834151.219    21834150.496    21834156.316
     -3387.777       -2634.937          42.500          38.500



 102065643.454 8  79384417.150 8  19127058.625    19127058.125    19127061.086
       379.383         295.075          48.700          48.700



 108040340.484 8  84187284.103 8  20559390.984                    20559394.320
        12.050           9.389          50.600          49.700



 131272865.626 8                  24980396.930
     -1986.519                          48.200                    98028447.622 8
  24980401.594       -1483.441          48.600   100585710.562 8  24980401.031
     -1522.138          49.400    99307083.197 9  24980401.949       -1502.790
        54.800
 122009757.086 8                  23217683.664
     -1673.622                          49.300                    91111172.108 8
  23217686.781       -1249.785          49.700    93487985.490 8  23217686.641
     -1282.387          49.300    92299563.402 9  23217686.973       -1266.081
        55.300
 140979956.354 6                  26827595.586
     -1571.154                          37.000                   105277234.467 6
  26827596.754       -1173.267          40.200   108023600.314 6  26827596.520
     -1203.873          39.500   106650421.493 7  26827597.105       -1188.567
        45.200
 134805965.457 7                  25652718.070
      2279.087                          42.800                   100666783.540 7
  25652719.344        1701.918          42.900   103292868.219 7  25652718.125
      1746.309          43.000   101979832.986 8  25652719.750        1724.112
        48.300
  62092634.171 7                  11815834.523
       409.337                          42.800



 202676998.905 6                  38568154.375
       -81.737                          39.500



 18  4  4  7 31  0.0000000  0 20G15G13R11R12G09G28R13G02G30R03G07R01
                                R02G05E07E30E12E19E20S20
 130474623.524 7 101668608.607 5  24828507.086                    24828510.543
      3337.147        2600.366          43.400          35.400



 115893805.413 7  90306863.92045  22053854.297                    22053858.285
      2500.133        1948.157          47.200          33.500



 112643853.508 8  87611897.331 7  21079762.367    21079761.891    21079764.695
     -3192.180       -2482.816          48.200          46.100



 102426162.448 7                  19174391.984    19174391.820
       313.769                          47.100



 125189859.093 7  97550601.133 6  23822852.313                    23822858.781
     -3048.542       -2375.484          42.000          37.100    93485997.835 6
  23822858.164       -2276.511          39.600


 117556061.648 7  91602164.98045  22370176.609                    22370180.715
      2521.417        1964.730          46.300          30.900



 118153805.153 6  91897606.059 5  22126455.016    22126452.566    22126457.445
      4093.909        3184.149          38.300          35.900



 127977795.921 6  99723004.32443  24353384.906                    24353386.152
     -2904.253       -2263.051          39.400          22.800



 107116397.576 8  83467417.931 8  20383589.273                    20383594.293
      -765.972        -596.859          52.400          50.800    79989607.764 9
  20383594.258        -571.991          55.400


 115947325.767 7  90181260.197 7  21659934.289    21659933.402    21659936.750
      3494.193        2717.713          45.800          44.500



 113953685.229 8  88795123.042 7  21684671.977                    21684674.926
     -2171.807       -1692.311          51.600          46.000



 116817481.815 6  90858338.954 6  21853195.203    21853193.777    21853201.895
     -3398.909       -2643.576          40.500          38.700



 102054562.072 8  79375798.289 8  19124982.805    19124981.250    19124984.547
       360.034         280.019          48.800          49.000



 108040275.759 8  84187233.660 8  20559378.188                    20559382.117
        -7.100          -5.536          51.800          49.900



 131332563.958 8                  24991757.688
     -1993.163                          48.600                    98073027.525 8
  24991761.680       -1488.400          48.600   100631453.425 8  24991761.164
     -1527.234          49.600    99352244.576 9  24991762.074       -1507.817
        54.800
 122060139.991 8                  23227271.133
     -1684.871                          49.400                    91148795.686 8
  23227273.980       -1258.182          49.400    93526590.556 8  23227273.746
     -1291.008          49.300    92337677.724 9  23227274.668       -1274.591
        55.100
 141027260.428 6                  26836597.453
     -1582.094                          37.500                   105312558.922 6
  26836598.246       -1181.434          38.800   108059846.263 6  26836597.824
     -1212.250          37.400   106686206.698 7  26836598.746       -1196.844
        44.000
 134737641.632 7                  25639716.328
      2275.934                          42.800                   100615762.515 7
  25639718.086        1699.557          43.000   103240516.193 7  25639716.961
      1743.901          42.900   101928146.460 8  25639718.105        1721.726
        48.500
  62080489.547 7                  11813523.766
       400.676                          42.700



 202679451.230 6                  38568621.359
       -81.627                          40.200



 18  4  4  7 31 30.0000000  0 20G15G13R11R12G09G28R13G02G30R03G07R01
                                R02G05E07E30E12E19E20S20
 130374528.261 7 101590612.262 5  24809459.133                    24809463.121
      3335.910        2599.408          42.200          35.200



 115818900.747 8  90248496.65945  22039600.375                    22039603.777
      2493.722        1943.163          48.100          34.000



 112739848.965 7  87686560.454 7  21097725.898    21097726.711    21097728.445
     -3206.947       -2494.304          47.700          45.500



 102417149.133 7                  19172705.664    19172704.445
       287.973                          46.800



 125281372.065 7  97621909.875 7  23840269.664                    23840276.402
     -3052.196       -2378.333          46.400          42.200    93554335.444 7
  23840277.078       -2279.235          46.900


 117480603.966 7  91543366.79045  22355817.391                    22355820.973
      2509.501        1955.457          47.000          30.900



 118031146.869 6  91802205.167 6  22103484.430    22103482.449    22103487.551
      4083.611        3176.180          37.400          37.000



 128064967.788 6  99790930.40943  24369972.539                    24369975.035
     -2907.107       -2265.277          38.600          22.200



 107139614.461 8  83485509.009 8  20388007.266                    20388012.684
      -781.302        -608.809          53.300          50.700    80006945.037 9
  20388012.473        -583.439          55.300


 115842594.652 7  90099802.668 7  21640369.859    21640369.090    21640372.457
      3488.036        2712.909          47.000          46.100



 114018988.616 8  88846008.792 7  21697098.750                    21697102.121
     -2181.427       -1699.811          51.000          45.300



 116919619.707 7  90937779.482 6  21872302.953    21872301.762    21872307.574
     -3409.933       -2652.155          42.200          38.900



 102044063.083 8  79367632.400 8  19123015.023    19123013.703    19123016.766
       340.585         264.899          49.000          48.900



 108040786.346 8  84187631.505 8  20559475.313                    20559478.863
       -26.297         -20.489          51.800          50.400



 131392461.347 8                  25003155.586
     -1999.799                          48.200                    98117756.068 8
  25003159.543       -1493.355          48.600   100677348.799 8  25003159.543
     -1532.313          49.000    99397556.539 9  25003160.215       -1512.833
        54.800
 122110859.510 8                  23236922.570
     -1696.065                          49.000                    91186670.642 8
  23236925.703       -1266.542          49.400    93565453.556 8  23236925.141
     -1299.583          49.400    92376046.704 9  23236926.406       -1283.063
        55.100
 141074891.433 6                  26845661.609
     -1592.968                          36.800                   105348127.499 6
  26845662.133       -1189.557          38.600   108096342.716 6  26845661.148
     -1220.580          37.300   106722239.210 7  26845662.680       -1205.065
        43.400
 134669413.249 7                  25626732.813
      2272.749                          43.300                   100564812.750 7
  25626733.941        1697.176          42.700   103188237.311 7  25626733.520
      1741.456          43.100   101876532.135 8  25626734.590        1719.315
        48.500
  62068605.706 7                  11811261.719
       391.924                          43.200



 202681899.383 6                  38569089.297
       -81.453                          40.200



 18  4  4  7 32  0.0000000  0 20G15G13R11R12G09G28R13G02G30R03G07R01
                                R02G05E07E30E12E19E20S20
 130274468.787 6 101512643.775 5  24790417.414                    24790422.363
      3334.742        2598.505          40.300          32.700



 115744187.820 7  90190278.80845  22025383.023                    22025386.254
      2487.335        1938.185          47.800          34.000



 112836284.400 7  87761565.789 7  21115772.391    21115772.500    21115775.113
     -3221.565       -2505.661          47.900          45.900



 102408909.798 7                  19171163.656    19171162.320
       262.186                          47.100



 125372995.280 7  97693304.525 5  23857703.594                    23857707.930
     -3055.849       -2381.194          44.000          34.000    93622755.233 6
  23857708.781       -2281.963          41.000


 117405504.666 7  91484847.87745  22341526.594                    22341530.418
      2497.485        1946.090          46.200          30.400



 117908797.586 6  91707044.665 6  22080571.617    22080569.754    22080575.398
      4073.302        3168.135          36.800          37.100



 128152223.943 6  99858922.16843  24386577.219                    24386579.625
     -2909.873       -2267.420          37.500          22.500



 107163290.292 8  83503957.704 8  20392512.391                    20392518.379
      -796.583        -620.718          53.100          51.300    80024625.038 9
  20392518.055        -594.856          55.400


 115738050.055 7  90018490.203 7  21620839.961    21620838.723    21620841.957
      3481.764        2708.050          47.100          46.100



 114084579.454 8  88897118.513 7  21709580.641                    21709583.836
     -2190.958       -1707.242          52.400          45.800



 117022088.242 7  91017477.163 6  21891471.313    21891470.824    21891476.715
     -3420.935       -2660.712          42.200          38.900



 102034147.657 8  79359920.384 8  19121156.094    19121155.359    19121158.855
       321.154         249.798          48.800          49.100



 108041872.556 8  84188477.888 8  20559682.195                    20559685.598
       -45.483         -35.439          50.500          50.000



 131452557.168 8                  25014591.680
     -2006.391                          48.100                    98162632.802 8
  25014595.578       -1498.277          48.600   100723396.228 8  25014595.391
     -1537.364          49.800    99443018.622 9  25014596.035       -1517.823
        54.800
 122161913.770 8                  23246637.930
     -1707.194                          49.700                    91224795.562 8
  23246640.949       -1274.852          50.000    93604573.044 8  23246640.574
     -1308.109          49.500    92414668.906 9  23246641.578       -1291.481
        55.200
 141122847.341 6                  26854786.914
     -1603.728                          36.700                   105383938.685 6
  26854787.797       -1197.587          37.800   108133088.108 6  26854787.469
     -1228.832          37.000   106758517.495 7  26854788.313       -1213.199
        42.800
 134601280.904 7                  25613766.766
      2269.519                          42.200                   100513934.683 7
  25613768.828        1694.776          42.300   103136032.006 7  25613768.688
      1738.983          43.600   101824990.453 8  25613769.688        1716.871
        48.600
  62056983.016 7                  11809050.383
       383.228                          43.200



 202684339.367 6                  38569549.984
       -80.979                          39.700



 18  4  4  7 32 30.0000000  0 20G15G13R11R12G09G28R13G02G30R03G07R01
                                R02G05E07E30E12E19E20S20
 130174445.892 6 101434703.925 5  24771384.000                    24771387.297
      3333.495        2597.528          39.200          32.300



 115669667.732 7  90132211.20045  22011201.891                    22011205.129
      2480.889        1933.162          47.600          34.200



 112933156.389 7  87836910.625 7  21133900.563    21133900.438    21133903.332
     -3236.019       -2516.887          47.700          45.900



 102401444.398 7                  19169765.664    19169764.680
       236.419                          47.000



 125464728.361 7  97764784.800 7  23875160.625                    23875167.449
     -3059.510       -2384.031          44.100          42.300    93691257.235 7
  23875167.418       -2284.698          45.600


 117330766.691 7  91426610.51345  22327304.453                    22327307.938
      2485.439        1936.704          46.400          31.200



 117786760.883 6  91612127.250 6  22057718.227    22057716.953    22057722.234
      4062.828        3159.983          37.700          37.700



 128239561.527 6  99926977.36743  24403197.766                    24403198.699
     -2912.537       -2269.498          38.300          22.300



 107187424.211 8  83522763.358 8  20397105.125                    20397110.777
      -811.812        -632.586          53.500          50.800    80042647.117 9
  20397110.566        -606.224          55.300


 115633695.557 7  89937325.592 7  21601345.141    21601344.371    21601347.609
      3475.408        2703.103          46.700          45.600



 114150456.869 8  88948451.542 7  21722116.320                    21722119.230
     -2200.500       -1714.676          51.100          45.000



 117124885.689 6  91097430.724 6  21910701.813    21910701.324    21910707.270
     -3431.859       -2669.217          41.800          39.100



 102024817.794 8  79352663.808 8  19119408.172    19119407.086    19119410.676
       301.580         234.575          48.800          49.100



 108043535.050 8  84189773.332 8  20559998.352                    20560001.984
       -64.675         -50.397          50.900          49.700



 131512851.644 8                  25026065.477
     -2012.999                          48.500                    98207657.874 8
  25026069.629       -1503.214          48.800   100769595.867 8  25026069.301
     -1542.430          49.600    99488630.973 9  25026069.840       -1522.818
        54.700
 122213301.636 8                  23256416.875
     -1718.286                          49.400                    91263169.595 8
  23256419.859       -1283.131          49.900    93643948.150 8  23256420.000
     -1316.610          49.700    92453543.477 9  23256420.539       -1299.871
        55.400
 141171126.934 6                  26863974.555
     -1614.529                          36.500                   105419991.587 6
  26863974.930       -1205.653          37.400   108170081.534 6  26863974.977
     -1237.115          36.300   106795040.664 7  26863975.699       -1221.384
        42.400
 134533245.936 7                  25600820.813
      2266.283                          42.700                   100463129.367 7
  25600822.445        1692.360          43.000   103083901.341 7  25600822.070
      1736.503          44.100   101773522.457 8  25600823.043        1714.431
        48.900
  62045622.629 7                  11806888.547
       374.463                          42.700



 202686776.433 6                  38570013.844
       -81.112                          39.800



 18  4  4  7 33  0.0000000  0 20G15G13R11R12G09G28R13G02G30R03G07R01
                                R02G05E07E30E12E19E20S20
 130074460.480 6 101356793.214 5  24752357.086                    24752361.875
      3332.227        2596.533          39.500          34.800



 115595340.739 7  90074294.06645  21997058.188                    21997061.410
      2474.440        1928.137          47.600          33.400



 113030460.841 8  87912591.869 7  21152110.086    21152109.961    21152112.805
     -3250.398       -2528.098          48.000          45.800



 102394751.773 7                  19168513.156    19168511.703
       210.614                          47.100



 125556570.346 7  97836349.764 5  23892637.273                    23892644.641
     -3063.139       -2386.862          43.400          35.400    93759840.319 7
  23892645.137       -2287.406          45.500


 117256392.322 7  91368656.49345  22313151.109                    22313154.863
      2473.236        1927.196          46.700          30.800



 117665039.533 6  91517455.210 6  22034923.297    22034922.375    22034927.969
      4052.260        3151.740          38.000          37.500



 128326977.551 6  99995093.72443  24419830.813                    24419833.426
     -2915.102       -2271.527          37.900          21.700



 107212014.624 8  83541924.713 8  20401784.727                    20401790.242
      -827.030        -644.444          53.200          50.900    80061010.083 9
  20401789.914        -617.590          55.100


 115529533.100 7  89856310.363 7  21581886.617    21581886.082    21581889.824
      3468.906        2698.039          45.400          45.300



 114216618.424 8  89000005.979 7  21734706.242                    21734709.496
     -2209.953       -1722.042          50.500          45.200



 117228010.558 6  91177638.897 6  21929992.578    21929991.855    21929999.469
     -3442.751       -2677.689          41.700          38.400



 102016075.026 8  79345863.879 8  19117769.766    19117768.445    19117772.297
       281.943         219.296          48.500          49.600



 108045773.508 8  84191517.573 8  20560424.719                    20560428.176
       -83.917         -65.392          51.900          50.000



 131573344.177 8                  25037576.797
     -2019.607                          48.500                    98252830.854 8
  25037580.777       -1508.147          48.500   100815947.265 8  25037580.496
     -1547.488          49.600    99534393.161 9  25037581.066       -1527.815
        54.600
 122265021.290 8                  23266258.828
     -1729.323                          49.100                    91301791.401 8
  23266261.906       -1291.373          49.600    93683577.481 8  23266261.484
     -1325.070          49.500    92492669.047 9  23266262.285       -1308.221
        55.400
 141219728.108 6                  26873222.750
     -1625.212                          37.100                   105456284.639 6
  26873223.379       -1213.629          37.000   108207321.337 6  26873222.488
     -1245.285          36.300   106831807.098 7  26873224.051       -1229.464
        42.100
 134465309.111 7                  25587892.703
      2262.949                          42.300                   100412397.321 7
  25587894.738        1689.863          43.700   103031845.866 7  25587894.223
      1733.942          43.200   101722128.695 8  25587895.344        1711.906
        49.100
  62034525.008 7                  11804776.664
       365.683                          43.100



 202689209.070 6                  38570467.531
       -80.871                          40.400



 18  4  4  7 33 30.0000000  0 20G15G13R11R12G09G28R13G02G30R03G07R01
                                R02G05E07E30E12E19E20S20
 129974513.771 6 101278912.726 5  24733338.664                    24733341.773
      3330.923        2595.523          39.200          35.200



 115521208.597 7  90016528.75545  21982951.211                    21982954.680
      2467.931        1923.070          47.800          33.800



 113128194.246 8  87988606.714 7  21170399.898    21170399.891    21170402.125
     -3264.625       -2539.164          48.400          45.700



 102388831.443 7                  19167404.563    19167402.758
       184.946                          46.600



 125648520.835 7  97907999.667 7  23910135.203                    23910142.863
     -3066.762       -2389.678          42.300          42.000    93828504.776 7
  23910142.715       -2290.115          45.300


 117182384.559 7  91310988.13645  22299067.977                    22299071.211
      2460.980        1917.640          46.600          30.500



 117543637.348 6  91423031.295 6  22012190.328    22012187.762    22012192.457
      4041.576        3143.458          38.600          36.500



 128414469.396 6 100063269.12743  24436481.086                    24436482.953
     -2917.583       -2273.444          38.300          21.800



 107237060.621 8  83561441.051 8  20406550.492                    20406556.336
      -842.184        -656.248          53.000          51.600    80079713.250 9
  20406556.012        -628.907          55.200


 115425565.980 7  89775447.087 7  21562464.461    21562463.223    21562467.543
      3462.388        2692.951          44.900          45.200



 114283062.590 8  89051780.638 7  21747350.398                    21747353.852
     -2219.327       -1729.346          50.900          44.900



 117331461.186 6  91258100.440 6  21949345.656    21949344.934    21949352.188
     -3453.616       -2686.108          41.600          38.100



 102007920.858 8  79339521.750 8  19116241.734    19116240.297    19116244.117
       262.320         204.016          49.300          49.400



 108048588.920 8  84193711.389 8  20560960.461                    20560963.777
      -103.146         -80.378          52.300          50.100



 131634034.916 8                  25049125.797
     -2026.223                          48.400                    98298151.832 8
  25049129.727       -1513.089          48.600   100862450.534 8  25049129.023
     -1552.559          48.800    99580305.290 9  25049130.098       -1532.828
        54.500
 122317071.624 8                  23276163.836
     -1740.306                          49.100                    91340660.136 8
  23276166.664       -1299.579          49.800    93723460.180 8  23276166.336
     -1333.479          49.200    92532044.764 9  23276167.168       -1316.530
        55.400
 141268649.855 6                  26882532.773
     -1635.815                          36.900                   105492817.080 6
  26882532.488       -1221.542          36.900   108244806.828 6  26882532.676
     -1253.418          37.500   106868816.056 7  26882533.672       -1237.480
        42.500
 134397471.651 7                  25574984.156
      2259.626                          43.900                   100361739.482 7
  25574985.645        1687.384          43.200   102979866.519 7  25574985.129
      1731.404          44.500   101670810.107 8  25574986.281        1709.391
        49.200
  62023691.297 7                  11802715.164
       356.846                          43.600



 202691636.401 6                  38570934.234
       -81.127                          38.900



 18  4  4  7 34  0.0000000  0 20G15G13R11R12G09G28R13G02G30R03G07R01
                                R02G05E07E30E12E19E20S20
 129874606.299 6 101201062.736 6  24714326.453                    24714331.414
      3329.578        2594.479          41.000          37.200



 115447271.821 8  89958915.68845  21968881.828                    21968885.359
      2461.379        1917.961          48.300          33.900



 113226352.633 7  88064952.082 7  21188768.641    21188768.398    21188771.691
     -3278.777       -2550.163          47.800          46.600



 102383682.556 7                  19166440.359    19166438.906
       159.163                          46.800



 125740579.262 7  97979733.258 6  23927653.375                    23927660.363
     -3070.367       -2392.483          42.900          39.200    93897249.429 7
  23927661.152       -2292.794          46.200


 117108745.581 7  91253607.15345  22285054.906                    22285058.531
      2448.648        1908.032          47.000          30.400



 117422555.844 6  91328856.806 6  21989514.570    21989512.355    21989517.617
      4030.810        3135.059          38.900          36.500



 128502034.030 6 100131501.27043  24453142.969                    24453146.285
     -2919.969       -2275.280          37.200          20.400



 107262560.610 8  83581311.171 8  20411403.047                    20411409.094
      -857.333        -668.054          53.000          51.200    80098755.436 9
  20411408.711        -640.210          55.300


 115321796.701 7  89694737.632 7  21543080.313    21543079.074    21543082.645
      3455.702        2687.770          45.700          45.600



 114349787.371 8  89103773.950 7  21760048.297                    21760051.137
     -2228.700       -1736.644          50.100          45.800



 117435235.986 6  91338814.163 6  21968757.289    21968757.152    21968764.836
     -3464.399       -2694.514          40.600          38.300



 102000356.923 8  79333638.668 8  19114824.180    19114823.328    19114826.918
       242.567         188.674          49.500          49.300



 108051981.490 8  84196354.938 8  20561606.109                    20561609.543
      -122.393         -95.372          50.900          49.700



 131694923.347 8                  25060712.414
     -2032.818                          48.700                    98343620.451 8
  25060716.676       -1518.015          49.100   100909105.292 8  25060715.691
     -1557.612          48.600    99626366.978 9  25060716.859       -1537.814
        54.500
 122369450.832 8                  23286130.906
     -1751.273                          48.900                    91379774.457 8
  23286134.500       -1307.773          49.700    93763594.879 8  23286133.516
     -1341.886          49.400    92571669.271 9  23286134.750       -1324.826
        55.300
 141317890.280 5                  26891903.086
     -1646.512                          35.400                   105529587.500 6
  26891903.434       -1229.535          39.300   108282536.472 6  26891902.965
     -1261.615          37.400   106906066.092 7  26891903.879       -1245.579
        43.400
 134329734.352 7                  25562094.313
      2256.260                          44.000                   100311156.438 7
  25562095.594        1684.873          43.700   102927963.918 7  25562095.125
      1728.827          43.500   101619567.284 8  25562096.133        1706.845
        49.200
  62013121.991 7                  11800703.891
       348.059                          43.300



 202694058.010 6                  38571396.578
       -80.681                          39.700



 18  4  4  7 34 30.0000000  0 20G15G13R11R12G09G28R13G02G30R03G07R01
                                R02G05E07E30E12E19E20S20
 129774739.001 7 101123244.115 6  24695322.133                    24695326.488
      3328.269        2593.458          42.000          37.000



 115373531.462 8  89901455.67145  21954849.125                    21954852.445
      2454.846        1912.863          48.400          33.000



 113324931.934 7  88141624.819 7  21207215.953    21207216.180    21207218.613
     -3292.729       -2561.000          47.600          45.700



 102379304.530 7                  19165620.359    19165619.844
       133.535                          47.200



 125832744.378 6  98051550.374 6  23945189.695                    23945197.141
     -3073.922       -2395.259          38.700          37.600    93966074.082 7
  23945198.871       -2295.453          45.100


 117035477.768 7  91196515.35645  22271111.828                    22271116.270
      2436.275        1898.388          46.100          31.100



 117301798.683 6  91234934.600 6  21966900.344    21966898.836    21966904.035
      4019.975        3126.628          38.500          36.400



 128589668.037 6 100199787.47843  24469819.906                    24469821.727
     -2922.197       -2277.042          37.700          21.500



 107288513.139 8  83601533.915 8  20416341.773                    20416347.484
      -872.351        -679.753          52.600          50.700    80118135.573 9
  20416347.156        -651.432          55.600


 115218228.473 7  89614184.575 7  21523732.797    21523732.379    21523734.941
      3449.043        2682.594          46.400          45.100



 114416791.031 8  89155984.567 7  21772798.250                    21772801.617
     -2237.921       -1743.829          50.300          45.200



 117539332.851 6  91419778.294 6  21988233.664    21988232.238    21988238.559
     -3475.040       -2702.803          41.200          37.200



 101993384.648 8  79328215.791 8  19113517.766    19113516.680    19113519.988
       222.908         173.375          49.200          49.800



 108055950.840 8  84199447.929 8  20562361.328                    20562365.285
      -141.613        -110.350          51.200          49.900



 131756009.060 8                  25072336.445
     -2039.358                          48.300                    98389236.376 8
  25072340.875       -1522.895          48.600   100955911.204 8  25072339.750
     -1562.625          48.600    99672577.899 9  25072341.012       -1542.761
        54.500
 122422157.224 8                  23296160.555
     -1762.119                          49.000                    91419133.102 8
  23296164.160       -1315.863          49.500    93803980.277 8  23296162.563
     -1350.195          49.500    92611541.295 9  23296164.406       -1333.028
        55.200
 141367447.359 6                  26901333.539
     -1656.927                          36.000                   105566594.396 6
  26901333.766       -1237.322          38.400   108320508.773 6  26901333.625
     -1269.589          37.800   106943555.683 7  26901334.352       -1253.448
        43.400
 134262098.058 7                  25549223.906
      2252.917                          44.000                   100260648.820 7
  25549225.258        1682.369          43.900   102876138.704 7  25549224.410
      1726.260          43.800   101568400.868 8  25549225.523        1704.313
        49.200
  62002817.718 7                  11798742.977
       339.207                          43.000



 202696473.934 6                  38571859.313
       -80.258                          40.400



 18  4  4  7 35  0.0000000  0 20G15G13R11R12G09G28R13G02G30R03G07R01
                                R02G05E07E30E12E19E20S20
 129674912.938 7 101045457.578 6  24676326.141                    24676330.680
      3326.842        2592.339          44.800          38.900



 115299988.547 7  89844149.50945  21940854.813                    21940857.723
      2448.256        1907.732          47.900          33.600



 113423928.913 8  88218622.461 7  21225742.734    21225742.609    21225744.637
     -3306.579       -2571.785          48.000          44.900



 102375696.672 7                  19164945.453    19164944.117
       107.868                          46.400



 125925016.434 7  98123450.558 6  23962751.445                    23962757.133
     -3077.460       -2398.016          46.300          41.400    94034978.459 7
  23962756.047       -2298.112          44.100


 116962583.729 7  91139714.83345  22257241.844                    22257244.844
      2423.753        1888.639          47.100          31.000



 117181369.243 6  91141267.312 5  21944349.164    21944346.832    21944351.039
      4009.029        3118.091          38.400          35.200



 128677369.296 6 100268126.08243  24486508.219                    24486510.336
     -2924.435       -2278.778          36.500          19.900



 107314917.358 8  83622108.621 8  20421366.195                    20421371.867
      -887.399        -691.477          52.700          51.100    80137853.000 9
  20421371.309        -662.669          55.100


 115114863.948 7  89533789.968 7  21504423.766    21504423.113    21504425.414
      3442.143        2677.218          46.300          45.500



 114484072.271 8  89208411.485 7  21785601.711                    21785604.641
     -2247.174       -1751.052          51.000          44.600



 117643750.725 7  91500992.159 6  22007766.688    22007765.965    22007772.340
     -3485.758       -2711.131          42.600          37.800



 101987006.059 8  79323254.643 8  19112322.273    19112321.539    19112324.813
       203.020         157.909          48.400          49.100



 108060498.248 8  84202991.350 8  20563226.430                    20563230.184
      -160.894        -125.374          50.600          50.100



 131817292.258 8                  25083998.219
     -2045.937                          48.500                    98434999.776 8
  25084002.574       -1527.811          48.800   101002868.434 8  25084001.449
     -1567.663          48.600    99718938.212 9  25084002.797       -1547.736
        54.400
 122475189.729 8                  23306252.844
     -1772.985                          49.100                    91458735.280 8
  23306256.094       -1323.978          49.500    93844615.557 8  23306254.828
     -1358.517          49.500    92651660.024 9  23306256.184       -1341.249
        55.100
 141417320.158 6                  26910823.883
     -1667.508                          37.500                   105603836.992 6
  26910824.406       -1245.216          38.900   108358722.906 6  26910823.375
     -1277.708          37.300   106981284.055 7  26910824.785       -1261.462
        43.600
 134194564.202 7                  25536372.625
      2249.478                          43.800                   100210217.692 7
  25536373.926        1679.801          44.200   102824391.980 7  25536372.988
      1723.624          43.900   101517311.941 8  25536374.180        1701.715
        49.200
  61992779.540 7                  11796832.953
       330.319                          42.300



 202698886.283 6                  38572317.250
       -80.244                          40.200



 18  4  4  7 35 30.0000000  0 20G15G13R11R12G09G28R13G02G30R03G07R01
                                R02G05E07E30E12E19E20S20
 129575129.477 7 100967704.263 6  24657338.250                    24657342.117
      3325.445        2591.252          45.400          39.000



 115226643.802 8  89786997.77045  21926897.367                    21926900.777
      2441.659        1902.593          48.700          34.000



 113523339.478 7  88295941.754 7  21244345.773    21244345.766    21244348.707
     -3320.307       -2582.454          47.100          45.100



 102372857.734 7                  19164414.508    19164412.820
        82.236                          46.700



 126017394.182 7  98195433.076 6  23980329.508                    23980335.379
     -3080.959       -2400.746          42.000          37.900    94103961.689 8
  23980337.285       -2300.705          49.100


 116890065.887 7  91083207.46645  22243442.094                    22243444.781
      2411.186        1878.841          46.000          31.700



 117061270.088 6  91047856.851 5  21921857.188    21921855.441    21921859.609
      3997.963        3109.553          38.500          35.300



 128765134.623 6 100336514.61643  24503210.930                    24503211.527
     -2926.499       -2280.387          39.200          20.900



 107341771.592 8  83643033.991 8  20426476.398                    20426482.031
      -902.350        -703.135          52.400          50.900    80157906.477 9
  20426481.824        -673.837          55.100


 115011706.087 7  89453556.066 7  21485152.969    21485152.551    21485155.445
      3435.248        2671.855          46.400          46.300



 114551628.841 8  89261052.968 7  21798457.125                    21798460.203
     -2256.304       -1758.164          50.100          44.400



 117748487.511 7  91582454.084 6  22027360.281    22027358.973    22027364.438
     -3496.336       -2719.364          42.200          37.500



 101981221.915 8  79318755.863 8  19111238.539    19111237.219    19111240.297
       183.267         142.539          49.200          49.600



 108065623.539 8  84206985.066 8  20564202.039                    20564205.137
      -180.143        -140.371          49.600          50.000



 131878772.389 8                  25095697.508
     -2052.499                          48.100                    98480910.237 8
  25095701.953       -1532.706          48.600   101049976.572 8  25095700.453
     -1572.696          48.600    99765447.512 9  25095702.172       -1552.701
        54.300
 122528546.482 8                  23316406.563
     -1783.756                          49.600                    91498579.596 8
  23316409.125       -1332.031          48.400    93885499.281 8  23316408.375
     -1366.779          49.400    92692024.041 9  23316409.520       -1349.396
        54.900
 141467506.530 6                  26920373.680
     -1677.903                          37.900                   105641313.760 6
  26920374.852       -1252.978          39.900   108397177.355 6  26920373.961
     -1285.662          39.300   107019249.664 7  26920375.094       -1269.320
        45.100
 134127133.473 7                  25523540.672
      2246.024                          43.900                   100159863.578 7
  25523542.227        1677.229          43.700   102772724.278 7  25523541.430
      1720.979          42.800   101466301.033 8  25523542.406        1699.102
        49.200
  61983008.044 7                  11794973.477
       321.407                          43.200



 202701293.603 6                  38572782.375
       -80.363                          41.000



 18  4  4  7 36  0.0000000  0 20G15G13R11R12G09G28R13G02G30R03G07R01
                                R02G05E07E30E12E19E20S20
 129475389.026 7 100889984.431 6  24638358.367                    24638362.332
      3323.987        2590.114          46.600          38.600



 115153498.424 7  89730001.36645  21912978.398                    21912982.059
      2434.955        1897.367          47.200          34.200



 113623159.700 7  88373579.662 7  21263025.406    21263025.164    21263028.293
     -3333.940       -2593.060          46.300          44.000



 102370787.144 7                  19164025.602    19164024.617
        56.650                          46.900



 126109877.073 6  98267497.700 7  23997928.109                    23997935.672
     -3084.451       -2403.459          41.300          44.800    94173023.530 6
  23997932.301       -2303.332          41.600


 116817926.967 7  91026995.32745  22229714.305                    22229716.992
      2398.499        1868.960          44.900          31.100



 116941504.520 6  90954705.856 6  21899429.508    21899427.410    21899431.840
      3986.752        3100.821          38.400          36.600



 128852960.646 6 100404950.44743  24519923.391                    24519925.641
     -2928.493       -2281.937          39.400          20.900



 107369074.559 8  83664309.038 8  20431672.047                    20431677.594
      -917.324        -714.799          52.100          51.000    80178295.051 9
  20431677.207        -685.009          55.200


 114908757.678 7  89373485.092 7  21465920.711    21465919.590    21465923.375
      3428.203        2666.367          46.400          45.700



 114619459.310 8  89313907.844 7  21811364.883                    21811368.039
     -2265.408       -1765.256          50.000          44.300



 117853541.252 7  91664162.493 5  22047012.922    22047011.496    22047016.340
     -3506.892       -2727.584          42.500          35.200



 101976034.206 8  79314720.965 8  19110266.477    19110265.039    19110268.434
       163.328         127.046          48.600          48.800



 108071326.658 8  84211429.040 8  20565286.852                    20565291.172
      -199.423        -155.396          50.200          50.000



 131940449.155 7                  25107434.141
     -2059.073                          47.900                    98526967.531 8
  25107438.496       -1537.617          48.900   101097235.368 8  25107437.418
     -1577.729          48.500    99812105.559 9  25107438.922       -1557.677
        54.300
 122582225.954 8                  23326620.938
     -1794.513                          49.100                    91538664.896 8
  23326624.086       -1340.060          48.800    93926630.281 8  23326623.148
     -1375.009          48.900    92732632.198 9  23326624.348       -1357.539
        54.800
 141518004.850 6                  26929983.086
     -1688.294                          36.600                   105679023.523 6
  26929984.211       -1260.746          39.400   108435870.831 6  26929983.695
     -1293.630          39.700   107057451.279 7  26929984.426       -1277.184
        45.300
 134059806.862 7                  25510728.680
      2242.523                          43.800                   100109587.217 7
  25510730.559        1674.615          44.100   102721136.343 7  25510729.480
      1718.300          42.600   101415368.890 8  25510730.418        1696.452
        49.200
  61973503.768 7                  11793164.609
       312.451                          42.600



 202703694.124 6                  38573238.656
       -80.454                          41.200



 18  4  4  7 36 30.0000000  0 20G15G13R11R12G09G28R13G02G30R03G07R01
                                R02G05E07E30E12E19E20S20
 129375692.996 7 100812299.220 6  24619386.461                    24619390.441
      3322.482        2588.946          45.500          40.400



 115080553.243 7  89673160.97545  21899096.961                    21899100.738
      2428.262        1892.149          47.000          33.800



 113723386.303 7  88451533.699 7  21281781.453    21281781.094    21281783.711
     -3347.386       -2603.513          46.500          43.400



 102369484.276 7                  19163782.609    19163781.742
        31.044                          46.700



 126202464.694 6  98339643.770 6  24015547.117                    24015554.051
     -3087.975       -2406.212          38.700          40.000    94242163.594 7
  24015554.781       -2305.944          47.900


 116746169.641 7  90971080.54145  22216059.008                    22216062.199
      2385.750        1859.033          46.000          31.800



 116822075.140 6  90861816.379 6  21877063.539    21877061.559    21877067.035
      3975.526        3092.082          38.500          36.900



 128940845.183 6 100473431.83843  24536646.414                    24536649.949
     -2930.371       -2283.381          39.900          20.400



 107396825.223 8  83685932.925 8  20436952.695                    20436958.641
      -932.216        -726.401          51.900          51.200    80199017.950 9
  20436958.375        -696.135          55.000


 114806021.927 7  89293579.513 7  21446728.992    21446727.988    21446731.137
      3421.074        2660.825          46.300          45.800



 114687561.860 8  89366974.751 7  21824324.484                    21824327.582
     -2274.454       -1772.306          50.700          44.100



 117958911.008 6  91746116.693 5  22066722.945    22066723.277    22066729.574
     -3517.396       -2735.729          41.300          35.900



 101971444.455 8  79311151.164 8  19109406.289    19109405.086    19109408.664
       143.334         111.484          49.500          49.000



 108077608.434 8  84216323.920 8  20566482.250                    20566486.230
      -218.719        -170.432          50.700          50.000



 132002322.622 7                  25119208.328
     -2065.614                          47.500                    98573171.725 8
  25119212.441       -1542.506          48.200   101144644.894 8  25119211.832
     -1582.745          48.900    99858912.411 9  25119213.113       -1562.621
        54.200
 122636226.894 8                  23336897.000
     -1805.181                          49.300                    91578990.265 8
  23336899.855       -1348.025          48.900    93968007.609 8  23336899.199
     -1383.190          49.000    92773483.541 9  23336900.277       -1365.606
        54.500
 141568813.711 6                  26939651.758
     -1698.607                          36.300                   105716965.165 6
  26939652.953       -1268.437          40.200   108474802.279 6  26939652.344
     -1301.531          40.700   107095887.824 7  26939653.219       -1284.980
        45.900
 133992585.685 7                  25497936.984
      2238.984                          43.500                   100059389.592 7
  25497938.938        1671.969          44.500   102669629.210 7  25497937.859
      1715.586          42.800   101364516.509 8  25497938.672        1693.774
        49.200
  61964267.934 7                  11791407.219
       303.537                          43.300



 202706089.516 6                  38573690.484
       -79.955                          40.200



 18  4  4  7 37  0.0000000  0 20G15G13R11R12G09G28R13G02G30R03G07R01
                                R02G05E07E30E12E19E20S20
 129276042.249 7 100734649.312 6  24600424.133                    24600427.703
      3320.975        2587.775          45.400          39.400



 115007808.825 7  89616477.01845  21885254.031                    21885257.875
      2421.560        1886.923          46.300          34.600



 113824014.986 7  88529800.447 7  21300612.523    21300612.047    21300614.598
     -3360.744       -2613.905          46.900          43.600



 102368947.468 7                  19163681.586    19163680.133
         5.590                          46.600



 126295156.176 7  98411870.838 7  24033187.039                    24033192.453
     -3091.391       -2408.877          43.400          43.400    94311381.061 7
  24033191.895       -2308.509          43.800


 116674795.967 7  90915464.70945  22202476.961                    22202480.543
      2372.925        1849.022          45.100          32.300



 116702984.262 6  90769190.174 6  21854761.961    21854759.863    21854765.094
      3964.222        3083.276          38.100          37.300



 129028784.851 6 100541956.24043  24553381.766                    24553384.090
     -2932.191       -2284.820          38.800          22.000



 107425021.674 8  83707904.168 8  20442318.383                    20442323.895
      -947.048        -737.956          52.600          50.800    80220073.719 9
  20442323.512        -707.211          55.200


 114703501.360 7  89213841.286 7  21427576.523    21427576.227    21427579.453
      3413.894        2655.259          46.400          45.300



 114755934.450 8  89420252.080 7  21837335.398                    21837338.730
     -2283.434       -1779.299          49.300          45.600



 118064594.218 6  91828314.700 5  22086494.336    22086493.262    22086499.777
     -3527.829       -2743.863          40.200          35.200



 101967453.488 8  79308047.072 8  19108657.758    19108656.906    19108660.469
       123.370          95.943          48.700          49.800



 108084468.297 8  84221669.265 8  20567787.859                    20567791.730
      -237.984        -185.443          50.100          50.000



 132064392.038 7                  25131019.992
     -2072.137                          47.500                    98619522.225 8
  25131023.738       -1547.376          48.400   101192204.538 8  25131023.410
     -1587.742          49.200    99905867.489 9  25131024.512       -1567.560
        54.200
 122690547.295 8                  23347234.078
     -1815.800                          48.800                    91619554.185 8
  23347237.543       -1355.955          48.800    94009629.718 8  23347236.277
     -1391.324          49.200    92814576.557 9  23347237.199       -1373.638
        54.600
 141619931.021 6                  26949379.109
     -1708.833                          36.700                   105755137.149 6
  26949380.094       -1276.072          40.400   108513970.054 6  26949379.953
     -1309.359          40.400   107134557.711 7  26949380.570       -1292.718
        45.600
 133925470.436 7                  25485165.313
      2235.452                          43.400                   100009271.064 7
  25485167.109        1669.331          44.200   102618203.236 7  25485165.984
      1712.880          43.200   101313744.253 8  25485167.027        1691.105
        48.900
  61955300.707 7                  11789700.891
       294.560                          42.500



 202708480.721 6                  38574136.063
       -79.950                          39.400



 18  4  4  7 37 30.0000000  0 20G15G13R11R12G09G28R13G02G30R03G07R01
                                R02G05E07E30E12E19E20S20
 129176437.781 7 100657035.466 6  24581469.773                    24581473.363
      3319.383        2586.532          45.900          39.100



 114935266.622 7  89559950.62445  21871450.477                    21871453.551
      2414.813        1881.674          47.200          34.700



 113925042.044 7  88608377.000 7  21319518.594    21319518.586    21319521.398
     -3373.959       -2624.187          47.100          44.700



 102369175.931 7                  19163724.781    19163724.148
       -19.912                          46.800



 126387950.779 6  98484178.225 7  24050843.156                    24050850.707
     -3094.805       -2411.533          39.300          42.100    94380675.680 7
  24050849.797       -2311.050          43.900


 116603808.572 7  90860149.86245  22188968.594                    22188972.313
      2360.002        1838.967          45.300          31.000



 116584236.084 6  90676830.515 6  21832524.523    21832522.426    21832527.074
      3952.714        3074.339          38.800          36.700



 129116777.258 6 100610521.71343  24570125.992                    24570129.082
     -2933.949       -2286.193          39.800          21.500



 107453662.892 8  83730221.987 8  20447768.422                    20447774.473
      -961.849        -749.488          52.100          50.700    80241461.633 9
  20447773.914        -718.262          55.000


 114601198.888 7  89134272.719 7  21408466.461    21408465.809    21408468.551
      3406.557        2649.527          47.000          45.400



 114824575.498 8  89473738.602 7  21850397.125                    21850400.465
     -2292.349       -1786.241          49.800          45.000



 118170589.668 6  91910755.618 5  22106323.813    22106322.504    22106326.379
     -3538.191       -2751.930          41.900          35.700



 101964063.225 8  79305410.191 8  19108023.188    19108021.867    19108025.652
       103.318          80.360          49.100          49.600



 108091906.979 8  84227465.628 8  20569202.805                    20569207.242
      -257.286        -200.478          50.200          49.600



 132126657.379 8                  25142868.766
     -2078.662                          48.000                    98666019.048 8
  25142872.602       -1552.249          48.100   101239914.323 8  25142872.273
     -1592.744          48.800    99952970.791 9  25142873.219       -1572.495
        54.300
 122745185.859 8                  23357631.273
     -1826.405                          49.000                    91660355.696 8
  23357634.508       -1363.869          48.900    94051495.616 8  23357633.289
     -1399.455          48.800    92855910.260 9  23357634.625       -1381.663
        54.500
 141671355.359 6                  26959164.891
     -1719.081                          36.200                   105793538.429 6
  26959165.641       -1283.729          39.700   108553373.113 6  26959165.781
     -1317.218          39.900   107173459.877 7  26959166.320       -1300.474
        45.200
 133858462.446 7                  25472414.117
      2231.848                          44.100                    99959232.630 7
  25472415.816        1666.645          43.600   102566859.455 7  25472414.973
      1710.118          43.800   101263053.148 8  25472415.914        1688.378
        48.800
  61946603.135 7                  11788045.820
       285.475                          42.800



 202710869.751 6                  38574590.531
       -79.546                          39.800



 18  4  4  7 38  0.0000000  0 20G15G13R11R12G09G28R13G02G30R03G07R01
                                R02G05E07E30E12E19E20S20
 129076880.603 7 100579458.440 6  24562524.469                    24562528.707
      3317.779        2585.281          45.000          39.000



 114862927.357 8  89503582.35945  21857684.813                    21857687.938
      2408.043        1876.398          48.200          34.100



 114026463.563 8  88687260.414 7  21338498.625    21338498.500    21338501.316
     -3387.030       -2634.381          48.300          45.300



 102370168.924 7                  19163910.922    19163909.586
       -45.400                          47.100



 126480847.945 7  98556565.500 7  24068522.711                    24068528.457
     -3098.200       -2414.179          43.100          42.000    94450046.839 7
  24068527.605       -2313.590          43.800


 116533209.446 7  90805137.58245  22175533.727                    22175537.852
      2347.020        1828.847          45.200          31.400



 116465832.866 6  90584739.137 6  21810351.586    21810349.488    21810353.957
      3941.110        3065.336          38.800          37.300



 129204819.131 6 100679125.72943  24586880.359                    24586882.914
     -2935.465       -2287.386          38.900          21.500



 107482747.314 8  83752885.188 8  20453303.273                    20453309.430
      -976.621        -761.004          52.700          51.300    80263180.523 9
  20453308.813        -729.296          55.000


 114499117.358 7  89054875.980 7  21389396.680    21389395.676    21389398.910
      3399.135        2643.769          46.400          46.000



 114893482.986 8  89527432.742 7  21863509.563                    21863513.227
     -2301.208       -1793.147          49.900          45.100



 118276895.111 6  91993437.599 5  22126210.070    22126208.645    22126214.066
     -3548.490       -2759.935          41.600          35.500



 101961275.031 8  79303241.590 8  19107500.375    19107498.938    19107502.723
        83.180          64.696          48.900          49.400



 108099924.167 8  84233712.777 8  20570729.297                    20570733.105
      -276.580        -215.517          50.700          49.500



 132189118.230 8                  25154754.625
     -2085.187                          48.000                    98712661.868 8
  25154758.871       -1557.121          48.900   101287773.909 8  25154758.449
     -1597.741          48.800   100000221.992 9  25154759.230       -1577.431
        54.300
 122800140.851 8                  23368088.977
     -1836.936                          49.700                    91701393.494 8
  23368091.820       -1371.734          49.400    94093603.971 8  23368090.648
     -1407.522          48.200    92897483.341 9  23368092.125       -1389.631
        54.400
 141723084.887 6                  26969009.125
     -1729.226                          36.200                   105832167.579 6
  26969009.855       -1291.307          39.400   108593009.981 6  26969009.434
     -1324.987          39.300   107212592.883 7  26969010.133       -1308.148
        44.600
 133791562.557 7                  25459683.547
      2228.236                          43.400                    99909274.917 7
  25459685.219        1663.941          43.800   102515598.501 7  25459684.234
      1707.347          43.600   101212443.809 8  25459685.246        1685.651
        49.100
  61938175.686 7                  11786441.828
       276.514                          43.000



 202713257.187 6                  38575043.625
       -79.500                          39.300



 18  4  4  7 38 30.0000000  0 20G15G13R11R12G09G28R13G02G30R03G07R01
                                R02G05E07E30E12E19E20S20
 128977371.821 7 100501919.129 6  24543588.898                    24543593.520
      3316.191        2584.042          43.000          38.800



 114790791.904 7  89447372.93345  21843957.727                    21843960.914
      2401.235        1871.090          47.800          35.500



 114128275.886 7  88766447.736 7  21357550.617    21357550.844    21357554.055
     -3400.009       -2644.452          47.600          46.200



 102371924.851 7                  19164239.117    19164238.250
       -70.812                          46.600



 126573846.968 7  98629032.223 6  24086219.102                    24086224.434
     -3101.594       -2416.829          42.400          39.400    94519494.013 7
  24086225.457       -2316.126          44.700


 116463001.212 7  90750429.90045  22162173.945                    22162177.758
      2333.942        1818.652          46.300          31.500



 116347777.092 6  90492918.010 6  21788243.570    21788241.238    21788245.809
      3929.527        3056.334          39.000          37.900



 129292907.741 6 100747766.15643  24603642.148                    24603645.320
     -2936.988       -2288.560          38.200          20.900



 107512273.573 8  83775892.653 8  20458921.766                    20458927.297
      -991.292        -772.438          52.900          51.300    80285229.346 9
  20458927.027        -740.253          55.200


 114397259.921 7  88975653.533 7  21370369.891    21370368.418    21370370.723
      3391.655        2637.945          46.100          45.700



 114962655.425 8  89581333.314 7  21876673.141                    21876676.313
     -2309.990       -1799.990          51.100          45.300



 118383509.234 6  92076359.641 5  22146153.430    22146151.652    22146158.254
     -3558.766       -2767.925          39.900          35.900



 101959090.265 8  79301542.327 8  19107091.164    19107089.844    19107093.695
        63.125          49.094          48.400          48.800



 108108520.119 8  84240410.912 8  20572365.117                    20572368.934
      -295.854        -230.534          51.100          50.100



 132251774.313 7                  25166677.656
     -2091.671                          47.400                    98759450.471 8
  25166682.211       -1561.963          48.900   101335783.087 8  25166681.039
     -1602.710          48.600   100047620.885 9  25166682.246       -1582.334
        54.400
 122855410.749 8                  23378606.266
     -1847.385                          49.000                    91742666.455 8
  23378608.906       -1379.540          49.100    94135953.625 8  23378608.719
     -1415.532          48.500    92939294.645 9  23378609.711       -1397.537
        54.500
 141775117.953 6                  26978910.719
     -1739.343                          36.100                   105871023.383 6
  26978911.348       -1298.860          37.200   108632879.408 6  26978910.785
     -1332.741          37.400   107251955.498 7  26978911.586       -1315.797
        43.200
 133724771.851 7                  25446973.461
      2224.573                          43.900                    99859398.732 7
  25446975.023        1661.211          43.700   102464421.204 7  25446974.461
      1704.545          44.200   101161917.070 8  25446975.453        1682.878
        49.200
  61930019.130 7                  11784889.828
       267.504                          43.100



 202715642.587 6                  38575499.766
       -79.486                          40.300



 18  4  4  7 39  0.0000000  0 20G15G13R11R12G09G28R13G02G30R03G07R01
                                R02G05E07E30E12E19E20S20
 128877912.247 6 100424418.200 6  24524660.859                    24524665.914
      3314.526        2582.748          38.900          37.500



 114718861.351 7  89391323.16245  21830269.547                    21830272.992
      2394.391        1865.758          45.600          34.600



 114230475.466 7  88845936.272 7  21376676.500    21376676.258    21376679.242
     -3412.833       -2654.423          47.800          46.500



 102374442.976 7                  19164710.930    19164709.359
       -96.195                          46.700



 126666947.401 7  98701577.878 7  24103935.508                    24103942.594
     -3104.951       -2419.430          43.100          43.200    94589017.007 6
  24103942.508       -2318.631          41.600


 116393186.646 7  90696028.94945  22148887.992                    22148892.449
      2320.803        1808.412          43.700          32.200



 116230072.754 6  90401370.222 6  21766201.164    21766198.949    21766204.031
      3917.827        3047.193          39.200          37.600



 129381040.102 6 100816440.68743  24620413.688                    24620416.672
     -2938.391       -2289.658          37.100          19.600



 107542240.509 8  83799243.509 8  20464624.344                    20464630.242
     -1005.971        -783.876          52.300          51.100    80307607.246 9
  20464629.738        -751.212          54.900


 114295629.669 7  88896607.775 7  21351382.742    21351382.324    21351385.023
      3384.007        2632.003          46.400          45.500



 115032091.262 8  89635439.137 7  21889885.828                    21889889.785
     -2318.754       -1806.818          49.100          44.900



 118490430.128 6  92159520.257 6  22166155.148    22166154.660    22166160.332
     -3568.945       -2775.835          40.500          36.800



 101957510.107 8  79300313.288 8  19106794.531    19106793.094    19106796.895
        42.907          33.371          48.600          49.700



 108117695.156 8  84247560.277 8  20574110.891                    20574114.695
      -315.116        -245.549          50.800          50.100



 132314625.495 8                  25178637.945
     -2098.164                          48.000                    98806384.757 8
  25178642.512       -1566.807          49.300   101383941.753 8  25178641.195
     -1607.681          48.300   100095167.361 9  25178642.387       -1587.246
        54.400
 122910994.148 8                  23389183.516
     -1857.785                          49.100                    91784173.518 8
  23389186.832       -1387.305          49.700    94178543.484 8  23389185.801
     -1423.494          48.700    92981343.109 9  23389187.055       -1405.402
        54.700
 141827452.907 5                  26988869.461
     -1749.329                          34.900                   105910104.625 6
  26988870.488       -1306.316          37.200   108672980.165 6  26988870.066
     -1340.386          38.200   107291546.505 7  26988870.656       -1323.359
        43.200
 133658091.463 7                  25434284.758
      2220.888                          43.600                    99809604.939 7
  25434286.211        1658.452          44.000   102413328.438 7  25434285.508
      1701.720          43.900   101111473.792 8  25434286.738        1680.086
        49.100
  61922134.467 7                  11783389.664
       258.374                          42.800



 202718024.043 6                  38575958.625
       -79.178                          38.900



 18  4  4  7 39 30.0000000  0 20G15G13R11R12G09G28R13G02G30R03G07R01
                                R02G05E07E30E12E19E20S20
 128778503.046 6 100346956.571 6  24505744.430                    24505748.867
      3312.773        2581.378          36.300          36.900



 114647136.726 8  89335433.85245  21816621.328                    21816624.008
      2387.523        1860.403          48.100          34.200



 114333058.517 7  88925723.073 7  21395873.945    21395873.469    21395876.418
     -3425.566       -2664.324          47.300          45.900



 102377722.607 7                  19165324.758    19165323.656
      -121.566                          46.800



 126760148.585 7  98774202.088 6  24121672.352                    24121676.801
     -3108.318       -2422.064          45.000          37.700    94658615.263 7
  24121679.820       -2321.141          47.100


 116323767.862 7  90641936.39745  22135678.328                    22135682.730
      2307.565        1798.101          47.300          31.600



 116112721.922 6  90310097.364 6  21744225.383    21744222.934    21744227.707
      3905.928        3037.986          39.500          37.300



 129469213.565 6 100885147.26143  24637192.063                    24637194.949
     -2939.744       -2290.718          38.500          20.600



 107572646.689 8  83822936.628 8  20470410.336                    20470416.531
     -1020.580        -795.252          51.600          51.500    80330313.158 9
  20470415.852        -762.126          55.000


 114194229.380 7  88817740.890 7  21332441.406    21332440.168    21332442.754
      3376.283        2625.998          46.800          45.300



 115101788.739 8  89689748.821 7  21903149.133                    21903152.781
     -2327.439       -1813.588          51.000          44.700



 118597656.222 6  92242918.296 6  22186214.773    22186213.816    22186220.012
     -3579.083       -2783.716          40.700          37.400



 101956536.373 8  79299555.939 8  19106612.320    19106610.531    19106614.355
        22.665          17.621          48.800          49.500



 108127449.339 8  84255160.924 8  20575967.078                    20575971.145
      -334.463        -260.614          51.300          50.600



 132377671.594 8                  25190635.008
     -2104.678                          48.200                    98853464.609 8
  25190639.691       -1571.678          49.000   101432249.787 8  25190638.473
     -1612.677          48.700   100142861.306 9  25190639.891       -1592.178
        54.400
 122966889.586 8                  23399820.125
     -1868.191                          49.100                    91825913.593 8
  23399822.805       -1395.074          49.400    94221372.457 8  23399822.336
     -1431.472          48.700    93023627.631 9  23399823.672       -1413.274
        54.700
 141880088.211 6                  26998885.945
     -1759.319                          37.500                   105949410.182 6
  26998885.750       -1313.775          37.300   108713311.098 6  26998885.844
     -1348.046          39.100   107331364.746 7  26998886.836       -1330.914
        43.600
 133591522.537 7                  25421616.773
      2217.160                          43.400                    99759894.378 7
  25421618.242        1655.671          43.500   102362321.086 7  25421617.773
      1698.862          43.500   101061114.833 8  25421618.992        1677.266
        49.200
  61914522.460 7                  11781941.109
       249.337                          43.100



 202720399.898 6                  38576413.922
       -79.030                          39.200



