     2.11           OBSERVATION DATA    M (MIXED)           RINEX VERSION / TYPE
teqc  2016Nov7                          20180405 05:03:57UTCPGM / RUN BY / DATE
Linux 2.4.21-27.ELsmp|Opteron|gcc|Linux x86_64|=+           COMMENT
teqc  2016Nov7                          20180405 05:03:57UTCCOMMENT
teqc  2016Nov7      IGN-RGP             20180404 08:14:30UTCCOMMENT
teqc  2016Nov7                          20180404 08:14:30UTCCOMMENT
teqc  2016Nov7      IGN-RGP             20180404 08:14:28UTCCOMMENT
teqc  2016Nov7      IGN-RGP             20180404 08:14:27UTCCOMMENT
BIT 2 OF LLI FLAGS DATA COLLECTED UNDER A/S CONDITION       COMMENT
PERX                                                        MARKER NAME
19678M001                                                   MARKER NUMBER
Automatic           OSU THETA                               OBSERVER / AGENCY
5244K53083          TRIMBLE NETR9       4.85                REC # / TYPE / VERS
5000115439          TRM57971.00     TZGD                    ANT # / TYPE
  4334045.8650   490447.9600  4639564.7290                  APPROX POSITION XYZ
        0.0000        0.0000        0.0000                  ANTENNA: DELTA H/E/N
     1     1                                                WAVELENGTH FACT L1/2
    21    L1    L2    C1    P1    P2    D1    D2    S1    S2# / TYPES OF OBSERV
          L5    C5    D5    S5    L7    C7    D7    S7    L8# / TYPES OF OBSERV
          C8    D8    S8                                    # / TYPES OF OBSERV
    30.0000                                                 INTERVAL
    18                                                      LEAP SECONDS
 SNR is mapped to RINEX snr flag value [0-9]                COMMENT
  L1 & L2: min(max(int(snr_dBHz/6), 0), 9)                  COMMENT
Forced Modulo Decimation to 30 seconds                      COMMENT
  2018     4     4     7     0    0.0000000     GPS         TIME OF FIRST OBS
                                                            END OF HEADER
 18  4  4  7  0  0.0000000  0 22R10G13R11G09G02R12G28R19R03G30G07R01
                                R02G05R18E19E07E12E30E02E20S20
 129061635.810 6 100381227.568 4  24211616.438    24211615.535    24211622.516
                                        40.800          29.900



 120902581.661 7  94209817.18544  23006995.977                    23006999.359
                                        44.300          28.400



 107639318.476 8  83719478.744 7  20143230.805    20143229.621    20143232.867
                                        49.700          47.100



 119718627.435 7  93287390.859 7  22781730.273                    22781735.797
                                        46.100          43.600    89400423.184 7
  22781736.000                          47.600


 122961081.350 7  95813832.77144  23398721.609                    23398723.051
                                        43.600          28.700



 104547381.804 7                  19571490.828    19571489.258
                                        47.100



 122901185.989 6  95767272.45944  23387338.578                    23387342.926
                                        41.400          24.400



 126328265.137 6  98255336.564 6  23615736.234    23615736.813    23615739.910
                                        37.700          40.200



 122648201.946 6  95393056.769 6  22911714.102    22911713.098    22911718.031
                                        39.400          41.600



 106631311.809 8  83089378.478 8  20291266.219                    20291272.293
                                        51.300          51.700    79627324.279 9
  20291272.375                          56.200


 110492804.747 8  86098317.446 7  21026084.852                    21026088.277
                                        50.900          47.800



 111203250.006 7  86491442.970 6  20802870.000    20802869.277    20802875.895
                                        45.000          41.200



 103730233.680 8  80679099.569 8  19439001.766    19439000.797    19439004.691
                                        49.200          48.200



 109104395.455 8  85016446.395 8  20761880.141                    20761883.738
                                        50.000          48.100



 124595324.931 6  96907501.814 6  23340908.867    23340907.555    23340911.992
                                        40.600          41.500



 139101370.740 6                  26470110.414
                                        40.700                   103874406.314 6
  26470112.516                          40.800   106584163.138 6  26470109.891
                        39.600   105229292.332 7  26470112.395
        45.300
 128014308.291 8                  24360312.039
                                        48.800                    95595111.187 8
  24360316.605                          51.100    98088891.452 8  24360314.215
                        50.600    96842006.431 9  24360316.137
        56.800
 138732295.633 6                  26399880.930
                                        39.900                   103598790.494 6
  26399882.559                          41.100   106301362.717 5  26399878.195
                        34.600   104950079.716 7  26399881.398
        44.600
 119569480.974 8                  22753315.023
                                        52.100                    89288913.464 8
  22753318.359                          50.600    91618178.957 8  22753316.297
                        50.300    90453549.821 9  22753317.512
        56.600
 148361288.957 7                  28232219.289
                                        45.800                   110789306.344 7
  28232222.973                          44.000   113679449.823 5  28232216.969
                        32.400   112234377.702 7  28232222.457
        46.200
  63282081.165 7                  12042178.438
                                        44.100



 202632777.620 6                  38559728.313
                                        39.200



 18  4  4  7  0 30.0000000  0 22R10G13R11G09G02R12G28R19R03G30G07R01
                                R02G05R18E19E07E12E30E02E20S20
 129191760.926 5 100482435.874 5  24236027.172    24236025.098    24236033.684
     -4338.995       -3374.820          34.800          32.300



 120817111.588 7  94143217.15044  22990731.813                    22990735.000
      2846.751        2218.235          45.600          29.400



 107700271.188 8  83766886.418 7  20154636.609    20154635.660    20154638.969
     -2042.484       -1588.596          49.100          47.000



 119802243.607 7  93352546.302 7  22797641.820                    22797647.539
     -2789.637       -2173.747          46.500          44.200    89462863.798 8
  22797648.625       -2083.169          48.600


 123037635.073 7  95873484.97944  23413289.211                    23413290.477
     -2556.042       -1991.725          43.200          26.800



 104490113.509 7                  19560769.352    19560768.133
      1897.089                          47.200



 122808529.981 6  95695073.03244  23369706.211                    23369710.715
      3085.595        2404.360          41.800          25.500



 126299360.523 6  98232855.149 6  23610332.102    23610332.328    23610336.227
       951.410         739.974          38.000          41.200



 122536656.173 6  95306298.990 6  22890876.180    22890875.645    22890880.242
      3717.573        2891.430          39.600          40.400



 106623520.290 8  83083307.166 8  20289784.000                    20289789.469
       251.428         195.921          50.700          50.500    79621505.938 9
  20289790.141         187.754          56.200


 110536397.855 8  86132286.070 7  21034380.242                    21034383.199
     -1459.507       -1137.277          50.000          47.600



 111282586.074 7  86553148.746 6  20817711.781    20817710.473    20817716.914
     -2651.180       -2062.000          45.000          41.600



 103687508.285 8  80645868.697 8  19430995.008    19430993.805    19430998.223
      1416.796        1101.957          48.800          48.000



 109071147.798 8  84990539.132 7  20755553.266                    20755556.984
      1099.931         857.086          49.400          47.600



 124661347.773 6  96958852.904 6  23353275.695    23353275.324    23353280.168
     -2210.214       -1719.067          40.600          39.900



 139028734.240 6                  26456288.188
      2420.531                          40.500                   103820164.796 6
  26456291.445        1807.542          40.800   106528506.619 6  26456287.133
      1854.700          38.700   105174343.321 7  26456290.102        1831.117
        45.700
 128061841.104 8                  24369357.125
     -1587.758                          48.300                    95630606.445 8
  24369361.859       -1185.663          50.900    98125312.670 8  24369359.516
     -1216.593          50.400    96877964.667 9  24369361.367       -1201.131
        56.800
 138757367.562 6                  26404651.938
      -842.287                          39.100                   103617513.009 6
  26404652.527        -628.984          40.200   106320573.661 6  26404649.527
      -645.386          37.000   104969046.444 7  26404652.570        -637.185
        44.400
 119596392.717 8                  22758435.867
      -903.757                          51.100                    89309009.896 8
  22758440.262        -674.883          51.300    91638799.647 8  22758436.934
      -692.490          50.500    90473908.379 9  22758438.719        -683.688
        56.700
 148447158.954 6                  28248556.820
     -2864.615                          36.500                   110853429.962 7
  28248563.266       -2139.148          44.400   113745246.244 6  28248560.219
     -2194.955          41.700   112299337.713 8  28248563.055       -2167.053
        49.000
  63255566.975 7                  12037133.039
       880.402                          43.100



 202635434.013 6                  38560233.141
       -88.523                          40.600



 18  4  4  7  1  0.0000000  0 22R10G13R11G09G02R12G28R19R03G30G07R01
                                R02G05R18E19E07E12E30E02E20S20
 129321983.057 6 100583719.519 5  24260457.359    24260454.699    24260462.809
     -4342.261       -3377.284          37.900          31.400



 120731782.971 7  94076727.32245  22974494.367                    22974497.492
      2842.043        2214.579          46.600          30.200



 107761888.952 8  83814811.353 8  20166168.531    20166168.289    20166172.012
     -2064.589       -1605.807          50.600          49.200



 119886012.047 7  93417820.355 7  22813582.766                    22813588.824
     -2794.693       -2177.680          47.000          43.900    89525418.111 7
  22813589.031       -2086.947          47.700


 123114451.387 6  95933341.81344  23427906.672                    23427908.914
     -2564.709       -1998.483          39.900          26.900



 104433582.029 7                  19550187.469    19550185.664
      1872.532                          47.200



 122716058.418 7  95623017.28143  23352110.516                    23352113.844
      3079.445        2399.558          43.100          23.900



 126271206.634 6  98210957.719 6  23605070.930    23605069.980    23605073.695
       926.394         720.509          38.100          40.200



 122425151.314 6  95219572.963 6  22870048.266    22870045.855    22870050.094
      3716.185        2890.385          40.900          40.400



 106616243.125 8  83077636.656 8  20288399.258                    20288404.563
       234.302         182.575          52.500          50.700    79616071.697 9
  20288405.176         174.966          56.100


 110580388.423 8  86166564.434 7  21042751.328                    21042754.945
     -1472.706       -1147.562          52.000          47.100



 111362333.400 7  86615174.441 6  20832630.172    20832629.332    20832635.574
     -2664.830       -2072.662          45.300          41.000



 103645244.411 8  80612996.781 8  19423074.953    19423074.102    19423078.156
      1401.427        1090.021          49.600          48.000



 109038416.834 8  84965034.481 8  20749324.789                    20749328.012
      1082.738         843.687          50.800          48.400



 124727956.690 6  97010659.795 6  23365753.727    23365753.824    23365757.902
     -2229.695       -1734.186          40.800          39.300



 138956143.950 6                  26442474.500
      2418.947                          41.000                   103765957.773 6
  26442476.621        1806.355          41.000   106472885.498 6  26442474.137
      1853.480          39.200   105119429.245 7  26442476.637        1829.918
        45.500
 128109581.182 8                  24378441.625
     -1594.632                          48.700                    95666256.482 8
  24378446.813       -1190.798          51.200    98161892.711 8  24378444.000
     -1221.858          50.000    96914079.706 9  24378446.027       -1206.328
        56.800
 138782845.188 6                  26409500.078
      -855.750                          38.700                   103636538.480 6
  26409500.688        -639.033          40.200   106340095.469 6  26409500.219
      -655.700          38.400   104988320.080 7  26409500.977        -647.365
        44.700
 119623720.131 8                  22763635.828
      -917.583                          49.800                    89329416.720 8
  22763640.293        -685.207          51.500    91659738.841 8  22763636.777
      -703.085          49.200    90494581.388 9  22763639.070        -694.144
        56.600
 148533168.243 7                  28264926.703
     -2869.146                          45.700                   110917657.523 7
  28264930.621       -2142.549          45.200   113811149.289 6  28264926.445
     -2198.442          40.200   112364403.016 8  28264929.723       -2170.492
        48.900
  63229267.721 7                  12032128.445
       873.224                          44.000



 202638088.873 6                  38560738.219
       -88.266                          39.800



 18  4  4  7  1 30.0000000  0 22R10G13R11G09G02R12G28R19R03G30G07R01
                                R02G05R18E19E07E12E30E02E20S20
 129452298.155 6 100685075.608 4  24284903.508    24284902.961    24284910.141
     -4345.321       -3379.665          36.300          26.800



 120646596.523 7  94010348.30044  22958284.406                    22958287.078
      2837.263        2210.856          47.300          29.300



 107824168.560 8  83863251.022 8  20177822.805    20177822.563    20177826.957
     -2086.584       -1622.880          50.100          49.100



 119969931.877 7  93483212.412 7  22829552.047                    22829557.445
     -2799.743       -2181.618          47.000          43.200    89588085.498 8
  22829558.531       -2090.717          48.300


 123191527.281 6  95993400.91744  23442573.891                    23442576.176
     -2573.312       -2005.177          40.700          27.900



 104377789.187 7                  19539743.000    19539741.313
      1847.849                          47.500



 122623774.577 7  95551107.82843  23334548.266                    23334552.563
      3073.074        2394.602          42.500          23.500



 126243804.796 6  98189645.183 6  23599948.422    23599947.004    23599951.164
       901.273         701.014          38.900          39.800



 122313688.956 7  95132880.025 6  22849224.422    22849224.125    22849228.348
      3714.706        2889.236          42.600          40.300



 106609479.773 8  83072366.505 8  20287112.055                    20287117.797
       217.187         169.236          53.100          51.800    79611021.139 9
  20287118.289         162.186          56.100


 110624774.720 8  86201151.142 7  21051198.156                    21051201.297
     -1485.872       -1157.824          52.300          47.600



 111442490.880 7  86677519.112 6  20847625.766    20847624.340    20847630.406
     -2678.487       -2083.266          44.300          40.700



 103603443.966 8  80580485.327 8  19415241.320    19415240.469    19415244.172
      1385.870        1077.892          49.500          48.100



 109006203.670 8  84939933.310 8  20743194.727                    20743198.355
      1065.428         830.200          51.300          48.400



 124795148.033 6  97062919.680 6  23378340.797    23378339.957    23378346.082
     -2249.043       -1749.240          37.600          41.400



 138883600.285 6                  26428669.828
      2417.396                          40.700                   103711785.577 6
  26428672.117        1805.196          41.100   106417300.107 6  26428669.398
      1852.287          39.100   105064550.451 7  26428671.914        1828.738
        45.500
 128157528.416 8                  24387565.859
     -1601.566                          48.900                    95702061.204 8
  24387570.699       -1195.979          50.900    98198631.470 8  24387568.074
     -1227.173          49.600    96950351.447 9  24387570.152       -1211.576
        56.800
 138808727.446 6                  26414425.273
      -869.266                          38.700                   103655866.142 6
  26414426.707        -649.131          40.400   106359927.304 6  26414423.238
      -666.063          38.200   105007899.833 7  26414425.992        -657.597
        44.900
 119651462.105 8                  22768914.492
      -931.394                          50.100                    89350133.090 8
  22768919.305        -695.519          51.700    91680995.661 8  22768915.602
      -713.664          49.100    90515567.988 9  22768918.387        -704.594
        56.600
 148619314.488 7                  28281319.008
     -2873.708                          44.700                   110981987.456 7
  28281324.324       -2145.944          46.900   113877157.460 7  28281321.465
     -2201.932          44.100   112429572.065 8  28281323.602       -2173.937
        51.100
  63203184.148 7                  12027165.281
       866.018                          43.600



 202640742.252 6                  38561242.578
       -88.468                          39.900



 18  4  4  7  2  0.0000000  0 22R10G13R11G09G02R12G28R19R03G30G07R01
                                R02G05R18E19E07E12E30E02E20S20
 129582703.491 5                  24309366.906    24309365.066
     -4348.292                          34.900



 120561552.882 7  93944080.53144  22942100.359                    22942104.109
      2832.437        2207.096          46.400          28.500



 107887106.554 8  83912202.756 7  20189599.867    20189598.918    20189602.777
     -2108.510       -1639.950          48.400          46.700



 120054002.270 7  93548721.748 7  22845549.234                    22845555.617
     -2804.772       -2185.539          47.800          43.100    89650865.284 7
  22845556.938       -2094.475          47.900


 123268859.838 6  96053659.98244  23457289.375                    23457292.863
     -2581.887       -2011.861          41.700          26.700



 104322736.226 7                  19529435.695    19529434.828
      1823.149                          47.500



 122531681.317 6  95479346.90444  23317024.031                    23317028.102
      3066.620        2389.575          41.200          25.800



 126217155.963 6  98168918.288 6  23594966.500    23594964.613    23594968.648
       876.105         681.414          37.700          38.800



 122202270.934 7  95046221.621 6  22828410.102    22828408.980    22828413.555
      3713.186        2888.036          43.200          39.900



 106603229.601 8  83067496.242 8  20285922.648                    20285928.602
       200.040         155.870          52.700          51.500    79606353.803 9
  20285929.156         149.383          56.100


 110669554.765 8  86236044.711 7  21059718.836                    21059722.320
     -1499.020       -1168.068          52.700          47.500



 111523057.578 7  86740182.067 6  20862696.586    20862696.098    20862702.285
     -2692.172       -2093.915          45.200          41.200



 103562109.217 8  80548336.089 8  19407495.305    19407494.336    19407498.277
      1370.257        1065.752          49.800          48.200



 108974509.973 8  84915236.917 8  20737164.055                    20737167.098
      1048.051         816.661          51.600          48.100



 124862918.097 7  97115629.653 6  23391037.352    23391037.215    23391041.801
     -2268.302       -1764.224          42.500          39.200



 138811103.821 6                  26414874.102
      2415.737                          41.200                   103657648.625 6
  26414876.582        1803.963          40.900   106361750.868 6  26414873.441
      1851.019          39.500   105009707.356 7  26414876.063        1827.492
        45.400
 128205682.490 8                  24396729.422
     -1608.506                          49.800                    95738020.389 8
  24396734.324       -1201.158          51.100    98235528.730 8  24396731.559
     -1232.491          50.200    96986779.667 9  24396733.598       -1216.823
        56.800
 138835013.119 6                  26419427.547
      -882.686                          39.400                   103675495.043 6
  26419429.586        -659.146          41.100   106380068.262 6  26419426.066
      -676.348          38.000   105027784.760 7  26419427.938        -667.748
        45.100
 119679617.393 8                  22774273.078
      -945.199                          50.500                    89371158.125 8
  22774277.043        -705.830          51.200    91702569.193 8  22774273.527
      -724.241          49.300    90536867.272 9  22774276.391        -715.035
        56.400
 148705596.153 7                  28297738.047
     -2878.235                          44.900                   111046418.428 6
  28297741.793       -2149.339          41.000   113943269.192 7  28297739.965
     -2205.396          42.800   112494843.417 7  28297741.918       -2177.363
        47.100
  63177316.836 7                  12022242.648
       858.736                          44.100



 202643394.478 6                  38561755.578
       -88.174                          39.900



 18  4  4  7  2 30.0000000  0 23R10G13R11G09G02R12R13G28R19R03G30G07
                                R01R02G05R18E19E07E12E30E02E20S20
 129713195.372 6                  24333847.594    24333846.105
     -4351.059                          38.300



 120476652.964 7  93877924.77644  22925944.641                    22925947.211
      2827.704        2203.402          46.000          28.700



 107950699.741 8  83961664.173 7  20201501.859    20201501.500    20201503.766
     -2130.292       -1656.895          50.500          47.300



 120138222.682 7  93614348.041 7  22861576.211                    22861582.340
     -2809.752       -2189.416          46.600          43.600    89713757.126 8
  22861583.250       -2098.192          48.100


 123346446.552 6  96114117.11344  23472054.258                    23472056.859
     -2590.281       -2018.384          41.100          26.400



 104268425.198 7                  19519269.727    19519267.566
      1798.427                          47.300



 125687984.49115  97757346.855 5  23537323.813    23537321.363    23537328.492
      4511.460        3508.941          30.300          31.100



 122439780.964 6  95407736.27443  23299536.125                    23299539.719
      3060.167        2384.540          41.400          23.600



 126191261.507 6  98148778.150 6  23590127.656    23590126.121    23590127.816
       851.016         661.880          39.400          39.600



 122090899.467 7  94959599.323 6  22807605.547    22807604.660    22807609.117
      3711.648        2886.843          43.500          41.000



 106597492.295 8  83063025.624 8  20284831.102                    20284836.957
       182.985         142.585          52.700          51.100    79602069.454 9
  20284837.332         136.649          56.100


 110714727.148 8  86271243.957 7  21068315.422                    21068319.262
     -1512.052       -1178.223          51.900          47.900



 111604032.236 7  86803162.310 6  20877844.820    20877843.629    20877850.133
     -2705.707       -2104.429          44.500          41.300



 103521242.595 8  80516550.916 8  19399837.289    19399835.852    19399839.602
      1354.678        1053.643          49.500          48.000



 108943337.469 8  84890946.641 8  20731232.141                    20731235.426
      1030.711         803.154          51.300          48.400



 124931263.129 6  97168786.946 6  23403840.297    23403839.102    23403844.398
     -2287.370       -1779.066          39.700          37.300



 138738655.393 6                  26401087.766
      2414.151                          41.100                   103603547.533 6
  26401090.082        1802.777          40.800   106306238.455 6  26401087.223
      1849.802          39.100   104954900.599 7  26401089.621        1826.294
        45.300
 128254043.534 8                  24405932.008
     -1615.354                          48.300                    95774134.129 8
  24405936.699       -1206.266          51.000    98272584.571 8  24405934.398
     -1237.741          50.100    97023364.458 9  24405936.328       -1221.999
        56.700
 138861701.402 6                  26424505.664
      -896.080                          37.600                   103695424.584 6
  26424506.000        -669.154          39.700   106400517.712 6  26424504.730
      -686.607          38.700   105047974.254 7  26424506.387        -677.878
        45.000
 119708185.059 8                  22779709.516
      -958.889                          51.600                    89392491.125 8
  22779712.797        -716.053          50.500    91724458.709 8  22779710.219
      -734.734          49.600    90558478.530 9  22779712.754        -725.394
        56.100
 148792011.318 7                  28314182.492
     -2882.615                          45.600                   111110949.354 7
  28314186.867       -2152.600          45.100   114009483.523 6  28314181.477
     -2208.766          36.100   112560216.053 7  28314186.043       -2180.686
        47.400
  63151666.706 7                  12017361.570
       851.544                          43.700



 202646046.121 6                  38562258.594
       -88.460                          39.700



 18  4  4  7  3  0.0000000  0 23R10G13R11G09G02R12R13G28R19R03G30G07
                                R01R02G05R18E19E07E12E30E02E20S20
 129843770.784 6                  24358343.758    24358342.387
     -4353.829                          39.200



 120391897.274 7  93811881.39044  22909815.930                    22909820.008
      2822.871        2199.642          44.900          27.900



 108014945.382 8  84011633.008 8  20213524.289    20213523.691    20213527.711
     -2152.010       -1673.767          49.500          49.200



 120222592.770 7  93680090.920 7  22877631.336                    22877637.156
     -2814.746       -2193.310          47.000          43.100    89776760.714 7
  22877638.531       -2101.923          47.900


 123424284.707 6  96174770.22244  23486866.469                    23486868.012
     -2598.660       -2024.942          40.600          26.000



 104214857.787 7                  19509241.383    19509240.281
      1773.595                          47.100



 125552703.743 5  97652128.431 5  23511991.375    23511987.051    23511994.590
      4507.259        3505.726          31.000          31.800



 122348077.373 6  95336278.96344  23282085.117                    23282089.742
      3053.565        2379.410          39.400          24.700



 126166122.790 6  98129225.873 6  23585426.750    23585425.332    23585429.152
       825.759         642.254          37.800          40.200



 121979577.041 7  94873015.212 6  22786810.492    22786809.605    22786813.008
      3709.939        2885.502          44.100          41.900



 106592267.680 8  83058954.504 8  20283836.805                    20283842.371
       165.913         129.282          52.900          51.200    79598167.961 9
  20283842.922         123.902          56.200


 110760290.745 8  86306748.034 7  21076986.164                    21076989.316
     -1525.083       -1188.376          52.400          47.300



 111685414.599 7  86866459.683 6  20893069.141    20893067.715    20893074.422
     -2719.290       -2115.006          44.500          40.700



 103480846.587 8  80485131.793 8  19392266.695    19392265.961    19392269.527
      1338.920        1041.389          49.400          48.600



 108912687.553 8  84867063.584 8  20725399.734                    20725403.148
      1013.217         789.523          51.500          48.400



 125000179.885 7  97222388.787 6  23416751.672    23416750.715    23416756.004
     -2306.424       -1793.869          42.700          40.600



 138666256.023 6                  26387310.516
      2412.511                          41.400                   103549483.063 6
  26387313.250        1801.550          40.500   106250763.608 6  26387309.875
      1848.545          38.900   104900130.948 7  26387312.703        1825.044
        45.100
 128302611.860 8                  24415174.680
     -1622.280                          49.000                    95810402.656 8
  24415179.184       -1211.439          51.000    98309799.237 8  24415176.652
     -1243.043          49.900    97060106.056 9  24415178.629       -1227.242
        56.700
 138888791.706 6                  26429660.727
      -909.509                          37.200                   103715654.328 6
  26429662.648        -679.174          40.200   106421275.205 6  26429660.820
      -696.899          39.300   105068467.876 7  26429661.789        -688.037
        45.600
 119737164.459 8                  22785224.219
      -972.607                          51.300                    89414131.608 8
  22785226.742        -726.296          50.500    91746663.710 8  22785225.383
      -745.246          50.200    90580401.266 9  22785227.031        -735.772
        55.900
 148878558.965 7                  28330651.805
     -2887.040                          42.300                   111175578.851 8
  28330657.133       -2155.892          48.900   114075799.095 7  28330654.598
     -2212.132          45.700   112625688.583 8  28330656.414       -2184.016
        52.900
  63126234.780 7                  12012521.813
       844.227                          43.600



 202648694.293 6                  38562756.906
       -88.051                          41.100



 18  4  4  7  3 30.0000000  0 23R10G13R11G09G02R12R13G28R19R03G30G07
                                R01R02G05R18E19E07E12E30E02E20S20
 129974426.299 6                  24382853.992    24382852.621
     -4356.433                          39.200



 120307286.804 7  93745951.16944  22893715.000                    22893718.344
      2817.970        2195.820          45.100          28.000



 108079840.166 8  84062106.649 8  20225667.828    20225667.352    20225672.211
     -2173.577       -1690.564          48.800          48.900



 120307111.692 7  93745949.781 7  22893714.773                    22893721.496
     -2819.709       -2197.174          45.600          42.800    89839875.445 8
  22893722.523       -2105.626          49.100


 123502371.301 6  96235616.89644  23501725.648                    23501727.137
     -2606.869       -2031.324          40.400          26.900



 104162035.563 7                  19499352.922    19499351.703
      1748.703                          47.600



 125417552.292 5  97547010.759 5  23486679.305    23486676.855    23486685.129
      4502.970        3502.314          30.100          31.600



 122256573.267 6  95264977.10543  23264672.984                    23264676.672
      3046.849        2374.177          40.900          23.200



 126141740.615 6  98110262.014 6  23580868.781    23580867.246    23580871.207
       800.551         622.632          38.300          39.100



 121868305.249 7  94786470.471 6  22766023.859    22766023.797    22766025.813
      3708.223        2884.190          43.200          40.900



 106587555.216 8  83055282.445 8  20282939.703                    20282945.801
       148.827         115.973          52.100          51.300    79594648.912 9
  20282946.121         111.139          56.100


 110806243.611 8  86342555.469 7  21085730.359                    21085733.219
     -1538.020       -1198.457          52.000          47.000



 111767203.311 7  86930073.095 6  20908368.961    20908368.707    20908375.617
     -2732.845       -2125.552          44.700          40.900



 103440923.772 8  80454080.729 8  19384784.922    19384784.305    19384787.840
      1323.105        1029.072          50.200          48.200



 108882561.302 8  84843588.589 8  20719666.578                    20719670.035
       995.720         775.886          51.300          49.300



 125069664.740 6  97276432.569 6  23429768.375    23429767.301    23429770.406
     -2325.292       -1808.552          41.900          37.000



 138593906.349 6                  26373542.852
      2410.830                          41.400                   103495455.718 6
  26373544.988        1800.298          40.200   106195326.843 6  26373543.066
      1847.256          38.900   104845398.885 7  26373544.750        1823.780
        45.200
 128351387.284 8                  24424456.039
     -1629.190                          48.500                    95846825.842 8
  24424460.789       -1216.605          51.100    98347172.593 8  24424458.445
     -1248.344          50.000    97097004.324 9  24424460.340       -1232.472
        56.700
 138916282.809 6                  26434892.586
      -922.794                          39.600                   103736183.369 6
  26434893.078        -689.102          39.900   106442339.814 6  26434891.906
      -707.076          39.100   105089264.694 7  26434893.410        -698.081
        45.300
 119766554.387 8                  22790816.781
      -986.274                          51.000                    89436078.650 8
  22790819.867        -736.503          50.300    91769183.257 8  22790818.082
      -755.715          50.200    90602634.558 9  22790819.551        -746.108
        56.000
 148965236.768 7                  28347146.344
     -2891.353                          45.100                   111240305.636 7
  28347151.922       -2159.120          46.200   114142214.402 7  28347148.777
     -2215.441          46.000   112691259.632 8  28347150.535       -2187.284
        51.500
  63101021.759 7                  12007724.250
       836.897                          43.600



 202651340.750 6                  38563262.734
       -88.263                          40.400



 18  4  4  7  4  0.0000000  0 23R10G13R11G09G02R12R13G28R19R03G30G07
                                R01R02G05R18E19E07E12E30E02E20S20
 130105158.235 6                  24407380.469    24407377.340
     -4358.810                          36.800



 120222822.136 7  93680134.56344  22877642.367                    22877645.180
      2813.176        2192.083          45.700          28.700



 108145380.200 8  84113082.253 7  20237933.609    20237933.012    20237935.070
     -2194.968       -1707.195          50.200          45.900



 120391778.399 7  93811923.804 7  22909827.250                    22909832.977
     -2824.533       -2200.929          46.800          43.900    89903100.540 8
  22909833.711       -2109.229          48.500


 123580703.079 6  96296654.59144  23516631.859                    23516633.859
     -2614.888       -2037.578          40.600          26.800



 104109959.740 7                  19489604.383    19489603.047
      1723.870                          47.700



 125282532.321 5  97441995.279 5  23461394.375    23461392.277    23461401.270
      4498.514        3498.874          31.900          32.400



 122165270.951 6  95193832.49643  23247297.539                    23247303.480
      3040.201        2368.988          39.100          23.500



 126118115.846 6  98091887.154 6  23576452.375    23576450.371    23576452.801
       775.332         603.041          39.700          38.300



 121757086.059 7  94699966.711 6  22745246.961    22745245.488    22745249.563
      3706.502        2882.820          42.200          41.800



 106583353.979 8  83052008.750 8  20282140.250                    20282146.113
       131.871         102.756          52.700          51.300    79591511.627 9
  20282146.488          98.474          56.200


 110852583.683 8  86378664.612 7  21094548.438                    21094552.266
     -1550.834       -1208.441          52.600          47.600



 111849397.100 7  86994001.560 6  20923745.375    20923744.535    20923751.215
     -2746.229       -2135.977          44.600          41.100



 103401475.488 8  80423398.714 8  19377392.484    19377391.164    19377395.172
      1307.324        1016.822          49.300          48.700



 108852960.545 8  84820523.059 8  20714034.328                    20714037.074
       978.272         762.290          51.600          48.400



 125139713.638 6  97330915.075 5  23442889.484    23442888.289    23442891.891
     -2343.958       -1823.115          40.200          35.200



 138521606.690 6                  26359784.789
      2409.241                          41.200                   103441465.718 6
  26359787.023        1799.108          40.400   106139928.420 6  26359784.164
      1846.039          39.900   104790704.678 7  26359786.672        1822.574
        45.300
 128400369.401 8                  24433777.156
     -1636.017                          48.900                    95883403.365 8
  24433781.980       -1221.701          50.900    98384704.319 8  24433779.637
     -1253.567          50.100    97134058.952 9  24433781.422       -1237.634
        56.800
 138944173.248 6                  26440200.008
      -936.021                          38.500                   103757010.629 6
  26440200.172        -698.977          40.000   106463710.393 6  26440198.344
      -717.215          39.400   105110363.618 7  26440200.781        -708.092
        45.100
 119796353.439 8                  22796486.961
      -999.835                          50.900                    89458331.195 8
  22796490.875        -746.630          50.700    91792016.289 8  22796488.438
      -766.111          49.500    90625177.349 9  22796490.121        -756.371
        56.300
 149052042.862 6                  28363664.695
     -2895.510                          38.800                   111305128.383 6
  28363668.641       -2162.235          36.800   114208728.064 6  28363666.859
     -2218.635          39.700   112756927.834 7  28363668.266       -2190.438
        43.600
  63076028.039 7                  12002968.234
       829.654                          43.800



 202653987.537 6                  38563760.641
       -88.226                          40.100



 18  4  4  7  4 30.0000000  0 23R10G13R11G09G02R12R13G28R19R03G30G07
                                R01R02G05R18E19E07E12E30E02E20S20
 130235963.039 5                  24431917.977    24431914.613
     -4361.325                          34.800



 120138504.225 7  93614432.30644  22861596.945                    22861600.059
      2808.224        2188.230          45.800          28.100



 108211562.340 8  84164557.300 7  20250318.281    20250317.215    20250321.035
     -2216.396       -1723.876          48.600          47.100



 120476592.187 7  93878012.454 7  22925966.227                    22925971.703
     -2829.507       -2204.815          44.300          43.100    89966435.477 7
  22925972.551       -2112.943          47.600


 123659277.204 6  96357881.15444  23531584.656                    23531587.094
     -2622.989       -2043.887          40.300          27.900



 104058631.807 7                  19479996.430    19479993.918
      1698.858                          47.200



 125147647.357 5  97337084.835 5  23436134.594    23436132.027    23436141.797
      4493.887        3495.282          33.100          32.700



 122074173.185 6  95122847.25843  23229963.555                    23229967.285
      3033.247        2363.581          40.600          23.200



 126095249.354 6  98074102.129 6  23572178.797    23572177.145    23572179.113
       749.942         583.290          40.300          38.800



 121645921.595 7  94613505.482 6  22724480.484    22724479.246    22724482.242
      3704.581        2881.341          43.100          41.300



 106579663.404 8  83049132.979 8  20281438.227                    20281443.988
       114.789          89.448          51.200          51.000    79588755.673 9
  20281444.715          85.715          56.100


 110899309.431 8  86415074.260 7  21103440.227                    21103443.906
     -1563.736       -1218.492          52.300          47.700



 111931994.760 7  87058244.154 6  20939196.836    20939195.879    20939202.191
     -2759.774       -2146.481          44.300          41.200



 103362504.095 8  80393087.623 8  19370089.047    19370088.195    19370091.723
      1291.307        1004.371          50.200          48.200



 108823886.015 8  84797867.581 8  20708501.219                    20708504.617
       960.646         748.557          51.000          48.500



 125210322.572 7  97385833.120 6  23456118.148    23456117.777    23456122.199
     -2362.572       -1837.557          42.600          40.000



 138449357.732 6                  26346036.477
      2407.461                          40.900                   103387513.589 6
  26346038.188        1797.777          40.700   106084568.857 6  26346037.063
      1844.677          39.900   104736048.831 7  26346038.137        1821.224
        45.700
 128449558.082 8                  24443137.320
     -1642.954                          49.100                    95920135.150 8
  24443142.410       -1226.878          51.000    98422394.326 8  24443140.066
     -1258.887          50.400    97171269.848 9  24443141.770       -1242.884
        56.700
 138972462.081 6                  26445582.375
      -949.374                          37.300                   103778135.381 6
  26445584.387        -708.945          40.400   106485386.208 6  26445582.559
      -727.440          39.800   105131763.904 7  26445583.992        -718.193
        45.500
 119826560.468 8                  22802235.297
     -1013.481                          49.900                    89480888.373 8
  22802239.199        -756.818          51.300    91815161.915 8  22802236.293
      -776.558          49.700    90648028.759 9  22802238.254        -766.690
        56.400
 149138975.654 7                  28380207.625
     -2899.801                          42.100                   111370045.595 7
  28380213.188       -2165.437          43.100   114275338.862 6  28380209.012
     -2221.929          37.900   112822691.839 7  28380211.676       -2193.682
        46.600
  63051254.496 7                  11998253.719
       822.187                          44.100



 202656630.995 6                  38564270.063
       -88.325                          41.200



 18  4  4  7  5  0.0000000  0 23R10G13R11G09G02R12R13G28R19R03G30G07
                                R01R02G05R18E19E07E12E30E02E20S20
 130366837.971 5                  24456470.852    24456467.723
     -4363.575                          32.000



 120054333.596 7  93548844.80344  22845579.719                    22845583.223
      2803.350        2184.421          45.900          28.900



 108278383.538 8  84216529.289 8  20262823.000    20262822.051    20262826.707
     -2237.573       -1740.348          49.300          48.700



 120561552.541 7  93944215.285 7  22942133.391                    22942139.414
     -2834.324       -2208.558          45.100          43.500    90029879.855 8
  22942140.559       -2116.536          48.900


 123738090.901 6  96419294.39244  23546582.281                    23546583.430
     -2630.924       -2050.061          40.400          26.800



 104008053.154 7                  19470526.672    19470525.922
      1673.906                          47.200



 125012900.524 5  97232281.755 5  23410900.383    23410898.754    23410907.965
      4489.307        3491.659          32.300          32.700



 121983283.613 6  95052024.22144  23212667.172                    23212671.559
      3026.342        2358.197          40.600          26.100



 126073142.181 6  98056907.657 6  23568045.125    23568043.824    23568047.797
       724.688         563.637          38.800          39.800



 121534813.900 7  94527088.414 7  22703724.125    22703722.535    22703727.410
      3702.714        2879.866          42.700          42.100



 106576483.142 8  83046654.857 8  20280833.250                    20280838.984
        97.829          76.230          52.200          51.500    79586380.798 9
  20280839.070          73.053          55.900


 110946419.407 8  86451783.315 7  21112405.023                    21112408.133
     -1576.472       -1228.418          51.900          47.300



 112014995.500 7  87122800.254 6  20954723.922    20954723.199    20954729.934
     -2773.134       -2156.875          44.100          40.900



 103324012.015 8  80363149.336 8  19362876.227    19362875.023    19362879.008
      1275.385         991.965          49.400          48.300



 108795339.540 8  84775623.575 8  20703068.883                    20703072.512
       943.067         734.854          50.700          48.200



 125281488.219 6  97441184.099 6  23469449.320    23469447.891    23469454.074
     -2381.083       -1851.953          38.800          39.700



 138377160.417 6                  26332298.445
      2405.784                          41.600                   103333600.009 6
  26332299.332        1796.523          40.600   106029248.823 6  26332297.645
      1843.397          39.900   104681432.025 7  26332299.566        1819.956
        45.700
 128498953.516 8                  24452536.992
     -1649.816                          48.800                    95957021.329 8
  24452542.129       -1232.006          50.800    98460242.757 8  24452539.551
     -1264.147          50.200    97208637.148 9  24452541.371       -1248.069
        56.700
 139001148.423 6                  26451041.766
      -962.553                          38.400                   103799556.953 6
  26451043.758        -718.795          40.600   106507366.610 6  26451041.504
      -737.546          39.800   105153464.885 7  26451042.820        -728.161
        45.700
 119857174.586 8                  22808060.789
     -1026.991                          50.700                    89503749.546 8
  22808065.414        -766.909          51.500    91838619.489 8  22808061.852
      -786.919          49.000    90671188.131 9  22808064.180        -776.915
        56.400
 149226033.107 7                  28396774.414
     -2903.860                          42.500                   111435055.931 7
  28396779.008       -2168.462          42.400   114342045.157 6  28396776.477
     -2225.033          41.600   112888550.156 7  28396778.496       -2196.750
        47.800
  63026701.937 7                  11993581.734
       814.870                          44.200



 202659269.947 6                  38564768.297
       -87.866                          40.300



 18  4  4  7  5 30.0000000  0 23R10G13R11G09G02R12R13G28R19R03G30G07
                                R01R02G05R18E19E07E12E30E02E20S20
 130497780.073 5                  24481036.766    24481032.227
     -4365.781                          30.300



 119970310.878 7  93483372.58444  22829590.016                    22829594.355
      2798.352        2180.534          46.800          29.800



 108345840.585 8  84268995.852 7  20275447.391    20275446.793    20275449.961
     -2258.791       -1756.843          50.200          47.000



 120646659.131 7  94010532.053 7  22958329.242                    22958334.918
     -2839.243       -2212.391          44.700          42.700    90093433.433 8
  22958336.000       -2120.208          48.900


 123817141.891 7  96480892.49344  23561625.414                    23561626.203
     -2638.842       -2056.243          43.000          25.200



 103958225.892 7                  19461199.242    19461198.141
      1648.760                          47.400



 124878295.252 5  97127588.854 5  23385692.820    23385690.840    23385699.660
      4484.496        3487.913          31.600          30.600



 121892605.047 6  94981365.63944  23195412.430                    23195415.906
      3019.169        2352.586          41.100          25.600



 126051795.821 6  98040305.003 6  23564054.234    23564051.059    23564056.383
       699.228         543.858          39.000          40.100



 121423765.796 7  94440717.660 6  22682979.617    22682978.613    22682983.113
      3700.593        2878.237          43.600          41.500



 106573812.967 8  83044574.194 8  20280325.031                    20280330.867
        80.769          62.937          51.000          51.100    79584386.833 9
  20280331.242          60.312          56.100


 110993912.140 8  86488790.663 7  21121442.859                    21121445.059
     -1589.263       -1238.388          53.500          46.700



 112098398.509 7  87187669.203 6  20970325.695    20970325.090    20970331.832
     -2786.596       -2167.335          43.900          40.900



 103286001.865 8  80333585.893 8  19355752.750    19355751.664    19355755.742
      1259.202         979.378          49.700          48.500



 108767322.567 8  84753792.160 8  20697737.609                    20697741.203
       925.307         721.017          50.800          48.700



 125353206.990 7  97496965.248 6  23482885.734    23482884.660    23482888.848
     -2399.522       -1866.280          42.200          37.900



 138305015.758 6                  26318569.102
      2403.930                          41.400                   103279725.747 6
  26318570.953        1795.147          40.800   105973969.167 6  26318569.266
      1841.972          40.500   104626855.063 7  26318570.875        1818.560
        46.300
 128548555.891 8                  24461976.094
     -1656.781                          49.200                    95994062.034 8
  24461980.914       -1237.208          50.700    98498249.745 8  24461978.383
     -1269.484          50.100    97246160.996 9  24461980.453       -1253.341
        56.700
 139030231.425 6                  26456576.063
      -975.829                          36.700                   103821274.767 6
  26456577.059        -728.700          39.800   106529650.974 6  26456575.883
      -747.706          39.600   105175465.983 7  26456577.012        -738.210
        45.400
 119888194.984 8                  22813964.102
     -1040.579                          51.900                    89526914.120 8
  22813967.836        -777.056          50.700    91862388.373 8  22813964.883
      -797.327          49.300    90694654.857 9  22813967.238        -787.189
        56.200
 149313214.265 6                  28413363.867
     -2908.036                          36.500                   111500158.617 6
  28413368.938       -2171.583          37.900   114408846.144 6  28413366.594
     -2228.232          39.600   112954501.987 7  28413368.211       -2199.906
        44.300
  63002371.609 7                  11988951.820
       807.372                          43.500



 202661907.452 6                  38565274.813
       -87.806                          39.100



 18  4  4  7  6  0.0000000  0 22G13R11G09G02R12R13G28R19R03G30G07R01
                                R02G05R18E19E07E12E30E02E20S20
 119886437.335 7  93418016.58144  22813629.813                    22813634.059
      2793.381        2176.660          43.900          29.200



 108413929.774 8  84321954.153 7  20288188.031    20288188.023    20288191.160
     -2279.757       -1773.154          48.600          46.600



 120731910.704 7  94076961.841 7  22974552.258                    22974558.207
     -2844.057       -2216.148          45.400          43.000    90157095.288 8
  22974558.527       -2123.810          48.100


 123896426.609 7  96542672.80444  23576712.344                    23576714.730
     -2646.556       -2062.248          43.500          27.600



 103909151.056 7                  19452011.906    19452010.805
      1623.697                          47.500



 124743834.556 5  97023008.362 5  23360515.453    23360512.418    23360517.859
      4479.669        3484.179          31.900          32.000



 121802140.185 6  94910873.54944  23178196.500                    23178200.801
      3012.032        2347.044          41.000          26.400



 126031210.533 6  98024294.201 6  23560205.352    23560204.758    23560207.832
       673.934         524.155          38.900          38.900



 121312778.448 7  94354394.185 7  22662246.719    22662245.598    22662249.867
      3698.546        2876.653          43.900          42.000



 106571651.783 8  83042890.149 8  20279913.266                    20279919.590
        63.837          49.744          52.300          51.100    79582772.958 9
  20279919.965          47.669          56.000


 111041785.428 8  86526094.513 8  21130552.398                    21130556.352
     -1601.889       -1248.227          52.200          48.400



 112182202.161 7  87252849.795 6  20986003.789    20986002.715    20986008.773
     -2799.895       -2177.714          45.000          40.500



 103248475.501 8  80304398.724 8  19348720.633    19348719.195    19348723.133
      1243.033         966.785          50.200          48.900



 108739836.101 8  84732374.127 8  20692506.875                    20692510.336
       907.637         707.252          50.500          48.400



 125425474.561 6  97553173.482 6  23496423.344    23496422.621    23496426.730
     -2417.733       -1880.461          41.400          38.300



 138232923.999 6                  26304850.422
      2402.176                          41.400                   103225891.002 6
  26304852.621        1793.837          40.600   105918730.033 6  26304850.605
      1840.625          39.400   104572318.126 7  26304852.477        1817.231
        46.000
 128598364.639 8                  24471454.344
     -1663.629                          48.900                    96031256.853 8
  24471459.496       -1242.317          51.500    98536414.871 8  24471457.008
     -1274.725          50.200    97283840.972 9  24471458.785       -1258.523
        56.700
 139059709.621 6                  26462185.859
      -988.944                          37.500                   103843287.642 6
  26462186.531        -738.494          39.300   106552238.105 6  26462184.750
      -757.764          39.900   105197765.987 7  26462186.539        -748.129
        44.800
 119919620.048 8                  22819944.227
     -1054.007                          51.700                    89550380.891 8
  22819947.914        -787.085          50.100    91886467.327 8  22819945.430
      -807.619          49.700    90718427.716 9  22819947.406        -797.346
        56.100
 149400516.673 6                  28429977.289
     -2912.016                          39.000                   111565351.930 6
  28429981.781       -2174.553          39.400   114475740.129 6  28429979.105
     -2231.285          36.500   113020545.638 7  28429981.090       -2202.919
        43.800
  62978263.632 7                  11984364.180
       799.988                          43.300



 202664545.497 6                  38565777.094
       -87.862                          39.800



 18  4  4  7  6 30.0000000  0 22G13R11G09G02R12R13G28R19R03G30G07R01
                                R02G05R18E19E07E12E30E02E20S20
 119802713.621 7  93352777.35744  22797698.406                    22797701.520
      2788.309        2172.705          44.500          29.400



 108482648.075 8  84375401.677 8  20301048.414    20301047.582    20301051.180
     -2300.756       -1789.480          49.800          48.200



 120817306.902 7  94143504.297 7  22990802.117                    22990807.598
     -2848.931       -2219.948          44.700          42.500    90220865.132 8
  22990808.563       -2127.448          48.100


 123975942.445 7  96604633.13844  23591843.500                    23591845.449
     -2654.264       -2068.253          43.900          28.000



 103860829.949 7                  19442966.688    19442964.883
      1598.472                          47.400



 124609521.822 5  96918542.938 4  23335362.383    23335358.879    23335364.215
      4474.618        3480.246          34.200          29.100



 121711891.784 6  94840550.12744  23161022.828                    23161027.105
      3004.699        2341.327          41.100          24.500



 126011387.210 6  98008876.075 6  23556501.539    23556499.184    23556502.180
       648.416         504.331          39.700          38.700



 121201854.662 7  94268120.109 6  22641524.734    22641524.082    22641528.133
      3696.360        2874.944          43.800          41.400



 106569999.314 8  83041602.520 8  20279598.953                    20279604.465
        46.834          36.493          51.600          51.100    79581538.981 9
  20279604.898          34.969          56.000


 111090038.089 8  86563693.943 7  21139734.789                    21139738.582
     -1614.567       -1258.102          52.800          47.300



 112266406.110 7  87318341.710 6  21001755.875    21001754.684    21001761.367
     -2813.287       -2188.108          43.900          40.900



 103211435.387 8  80275589.733 8  19341779.008    19341778.746    19341782.664
      1226.763         954.149          49.700          48.900



 108712881.791 8  84711370.771 8  20687377.922                    20687381.207
       889.838         693.382          50.400          48.200



 125498287.634 6  97609805.790 6  23510062.945    23510061.281    23510067.566
     -2435.887       -1894.619          38.200          40.400



 138160886.165 6                  26291142.438
      2400.345                          40.400                   103172096.534 6
  26291143.863        1792.469          41.400   105863532.223 6  26291141.234
      1839.230          40.200   104517821.988 7  26291144.008        1815.849
        46.100
 128648379.987 8                  24480971.953
     -1670.560                          49.300                    96068605.962 8
  24480976.988       -1247.495          50.900    98574738.304 8  24480974.410
     -1280.042          50.400    97321677.243 9  24480976.465       -1263.767
        56.500
 139089582.172 6                  26467870.242
     -1002.165                          37.400                   103865595.028 6
  26467871.371        -748.366          39.100   106575127.437 6  26467869.684
      -767.898          39.600   105220364.342 7  26467871.145        -758.134
        44.600
 119951448.995 8                  22826000.742
     -1067.510                          51.300                    89574149.266 8
  22826004.406        -797.163          49.900    91910855.743 8  22826002.297
      -817.964          49.800    90742506.112 9  22826004.176        -807.564
        56.000
 149487938.903 6                  28446613.367
     -2916.072                          37.700                   111630634.637 6
  28446618.156       -2177.575          41.700   114542725.929 6  28446615.719
     -2234.390          39.200   113086679.889 7  28446617.496       -2205.982
        46.300
  62954379.144 7                  11979818.805
       792.463                          43.600



 202667181.150 6                  38566270.938
       -88.248                          40.000



 18  4  4  7  7  0.0000000  0 22G13R11G09G02R12R13G28R19R03G30G07R01
                                R02G05R18E19E07E12E30E02E20S20
 119719140.102 7  93287655.15444  22781794.070                    22781798.199
      2783.364        2168.851          44.600          29.600



 108551991.547 8  84429335.476 8  20314025.805    20314025.563    20314029.035
     -2321.504       -1805.605          50.700          48.500



 120902846.733 7  94210158.643 7  23007080.320                    23007085.906
     -2853.625       -2223.602          46.100          42.600    90284742.209 8
  23007086.988       -2130.956          48.400


 124055686.096 6  96666771.00844  23607018.047                    23607019.621
     -2661.739       -2074.087          41.400          24.800



 103813263.299 7                  19434061.711    19434060.258
      1573.404                          47.600



 124475359.409 5  96814194.415 4  23310237.031    23310234.816    23310238.691
      4469.632        3476.391          33.900          29.300



 121621862.354 6  94770397.34944  23143890.945                    23143894.742
      2997.451        2335.671          41.400          25.500



 125992326.344 6  97994051.011 6  23552934.688    23552934.445    23552939.855
       623.077         484.607          36.500          39.100



 121090995.743 7  94181896.505 6  22620815.945    22620814.824    22620818.004
      3694.265        2873.309          43.300          41.300



 106568854.554 8  83040710.501 8  20279381.320                    20279387.332
        29.987          23.366          52.800          50.900    79580684.123 9
  20279387.473          22.395          55.900


 111138667.824 8  86601587.247 7  21148989.133                    21148991.957
     -1627.028       -1267.811          53.900          45.600



 112351008.291 7  87384143.379 6  21017581.531    21017580.691    21017587.660
     -2826.474       -2198.380          43.900          40.200



 103174883.233 8  80247160.266 8  19334929.250    19334928.281    19334932.441
      1210.523         941.528          49.900          48.600



 108686460.322 8  84690782.607 8  20682349.813                    20682353.277
       872.126         679.583          51.200          48.800



 125571641.871 6  97666859.009 6  23523804.891    23523804.402    23523809.285
     -2453.812       -1908.495          41.500          39.200



 138088902.669 6                  26277443.969
      2398.580                          40.500                   103118342.613 6
  26277446.684        1791.149          41.700   105808376.037 6  26277444.715
      1837.867          40.000   104463366.937 7  26277445.934        1814.505
        46.300
 128698601.529 8                  24490528.992
     -1677.361                          48.900                    96106109.039 8
  24490533.883       -1252.574          50.900    98613219.726 8  24490531.352
     -1285.252          50.700    97359669.494 9  24490533.262       -1268.914
        56.600
 139119847.509 5                  26473629.203
     -1015.129                          35.300                   103888195.780 6
  26473630.191        -758.046          39.400   106598317.732 6  26473628.363
      -777.817          38.600   105243259.868 7  26473630.188        -767.934
        44.200
 119983680.308 8                  22832134.172
     -1080.840                          50.700                    89598218.103 8
  22832137.352        -807.120          49.800    91935552.446 8  22832135.520
      -828.175          50.100    90766888.884 9  22832137.262        -817.650
        55.900
 149575478.902 6                  28463271.445
     -2919.811                          38.900                   111696005.252 6
  28463276.691       -2180.369          41.900   114609801.876 6  28463274.156
     -2237.252          40.500   113152903.170 7  28463276.016       -2208.811
        46.800
  62930718.635 7                  11975316.523
       785.049                          44.100



 202669812.330 6                  38566782.953
       -87.867                          39.700



 18  4  4  7  7 30.0000000  0 22G13R11G09G02R12R13G28R19R03G30G07R01
                                R02G05R18E19E07E12E30E02E20S20
 119635718.122 7  93222651.01944  22765919.438                    22765922.945
      2778.243        2164.855          43.200          28.700



 108621957.886 8  84483753.728 7  20327117.758    20327116.457    20327120.586
     -2342.240       -1821.745          48.100          46.600



 120988530.443 7  94276925.145 7  23023384.508                    23023390.598
     -2858.469       -2227.374          44.600          43.200    90348726.755 8
  23023392.148       -2134.568          48.200


 124135655.779 7  96729084.99544  23622236.273                    23622237.012
     -2669.281       -2079.968          43.000          27.000



 103766454.302 7                  19425299.172    19425297.953
      1548.080                          47.900



 124341351.481 5  96709966.049 5  23285142.164    23285140.301    23285144.563
      4464.375        3472.294          34.000          30.000



 121532055.957 7  94700418.33144  23126801.305                    23126805.125
      2989.921        2329.809          42.600          25.900



 125974029.939 6  97979820.429 6  23549515.922    23549514.504    23549519.645
       597.562         464.766          37.600          39.700



 120980205.139 7  94095726.046 6  22600118.477    22600117.121    22600120.980
      3691.865        2871.477          43.300          40.700



 106568217.931 8  83040214.418 8  20279259.953                    20279266.402
        13.023          10.149          52.900          51.300    79580208.725 9
  20279266.367           9.725          55.900


 111187673.741 8  86639773.696 7  21158313.805                    21158317.145
     -1639.609       -1277.615          50.600          46.400



 112436008.907 7  87450254.909 6  21033483.219    21033482.262    21033489.426
     -2839.758       -2208.693          44.300          41.500



 103138822.595 8  80219113.098 8  19328171.578    19328171.199    19328175.301
      1194.087         928.740          49.600          48.000



 108660574.408 8  84670611.753 8  20677424.055                    20677427.566
       854.195         665.608          51.400          48.400



 125645534.619 7  97724331.158 6  23537646.820    23537647.621    23537650.523
     -2471.738       -1922.481          42.600          36.200



 138016975.193 6                  26263756.648
      2396.657                          41.400                   103064630.557 6
  26263759.191        1789.707          41.600   105753262.783 6  26263756.051
      1836.400          39.700   104408954.280 7  26263758.660        1813.057
        46.200
 128749030.192 8                  24500125.102
     -1684.307                          49.100                    96143766.785 8
  24500129.941       -1257.759          51.000    98651859.847 8  24500127.270
     -1290.569          49.800    97397818.428 9  24500129.418       -1274.167
        56.500
 139150505.753 6                  26479464.016
     -1028.266                          37.200                   103911089.893 6
  26479464.953        -767.864          39.500   106621809.080 6  26479463.590
      -787.896          38.900   105266452.593 7  26479464.203        -777.877
        44.500
 120016313.869 8                  22838343.914
     -1094.271                          50.600                    89622587.320 8
  22838347.801        -817.153          49.800    91960557.364 8  22838345.457
      -838.465          50.000    90791575.948 9  22838347.254        -827.805
        56.000
 149663136.030 6                  28479952.344
     -2923.781                          41.200                   111761463.397 6
  28479956.906       -2183.340          40.100   114676967.629 6  28479954.652
     -2240.297          39.900   113219215.120 7  28479956.680       -2211.815
        45.700
  62907283.728 7                  11970857.172
       777.465                          43.800



 202672440.184 6                  38567283.313
       -87.695                          40.600



 18  4  4  7  8  0.0000000  0 22G13R11G09G02R12R13G28R19R03G30G07R01
                                R02G05R18E19E07E12E30E02E20S20
 119552448.214 7  93157765.39645  22750074.305                    22750076.773
      2773.201        2160.937          44.800          30.200



 108692542.800 8  84538653.097 7  20340327.375    20340326.898    20340330.023
     -2362.767       -1837.694          49.800          46.100



 121074356.445 7  94343802.518 7  23039717.367                    23039723.047
     -2863.155       -2231.028          46.500          43.900    90412817.562 7
  23039724.070       -2138.063          47.900


 124215847.578 7  96791572.08444  23637496.094                    23637497.637
     -2676.629       -2085.681          43.800          26.400



 103720402.487 7                  19416677.680    19416676.344
      1522.827                          46.800



 124207500.559 5  96605859.802 5  23260076.000    23260073.785    23260078.656
      4459.123        3468.225          33.500          30.100



 121442474.531 7  94630614.63144  23109754.383                    23109758.648
      2982.367        2323.925          42.100          25.300



 125956497.599 6  97966184.168 6  23546240.203    23546238.902    23546241.316
       572.096         444.962          40.600          38.600



 120869484.167 7  94009609.754 6  22579435.328    22579434.207    22579437.895
      3689.551        2869.638          43.400          41.800



 106568087.845 8  83040113.063 8  20279235.289                    20279240.984
        -3.835          -2.988          53.300          51.300    79580111.581 9
  20279241.656          -2.861          56.300


 111237053.428 8  86678251.333 7  21167711.023                    21167714.531
     -1651.998       -1287.265          53.400          47.600



 112521405.782 7  87516674.678 6  21049457.961    21049457.238    21049464.430
     -2852.938       -2218.949          43.800          41.200



 103103254.099 8  80191448.722 8  19321505.727    19321505.348    19321508.809
      1177.613         915.928          50.000          48.000



 108635224.117 8  84650858.277 8  20672600.125                    20672603.387
       836.353         651.710          51.100          48.600



 125719960.987 6  97782218.353 6  23551589.039    23551589.488    23551594.012
     -2489.434       -1936.243          39.400          37.200



 137945103.649 6                  26250079.914
      2394.775                          41.000                   103010960.251 6
  26250082.191        1788.304          41.500   105698192.387 6  26250080.551
      1834.952          40.200   104354583.927 7  26250081.914        1811.626
        46.200
 128799664.913 8                  24509760.609
     -1691.148                          48.500                    96181578.409 8
  24509765.477       -1262.873          50.500    98690657.863 8  24509763.227
     -1295.816          50.400    97436123.247 9  24509765.020       -1279.344
        56.400
 139181554.564 6                  26485371.953
     -1041.240                          36.500                   103934275.701 6
  26485372.934        -777.545          39.100   106645599.749 6  26485371.340
      -797.834          38.500   105289940.831 7  26485372.793        -787.691
        44.100
 120049347.559 8                  22844630.117
     -1107.567                          50.600                    89647255.334 8
  22844633.742        -827.072          50.800    91985868.894 8  22844631.258
      -848.655          49.600    90816565.724 9  22844633.184        -837.866
        55.800
 149750907.491 6                  28496655.102
     -2927.562                          40.500                   111827006.969 6
  28496658.926       -2186.164          39.500   114744221.041 6  28496657.613
     -2243.199          39.700   113285613.611 7  28496658.969       -2214.679
        45.100
  62884074.407 7                  11966440.648
       769.940                          42.500



 202675063.317 6                  38567782.672
       -87.782                          40.900



 18  4  4  7  8 30.0000000  0 22G13R11G09G02R12R13G28R19R03G30G07R01
                                R02G05R18E19E07E12E30E02E20S20
 119469331.225 7  93092998.90544  22734257.250                    22734260.297
      2768.128        2156.985          45.000          29.100



 108763743.478 8  84594031.427 8  20353652.172    20353651.457    20353655.070
     -2383.198       -1853.604          49.900          48.300



 121160324.838 7  94410790.822 7  23056076.719                    23056081.961
     -2867.855       -2234.692          47.200          42.500    90477014.682 8
  23056083.746       -2141.579          48.000


 124296259.370 7  96854230.59644  23652798.367                    23652800.063
     -2683.874       -2091.328          42.600          25.300



 103675110.130 7                  19408200.164    19408198.594
      1497.500                          47.200



 124073810.775 5  96501878.902 5  23235040.570    23235037.770    23235045.066
      4453.762        3464.050          33.500          32.900



 121353121.458 7  94560988.88844  23092751.578                    23092755.234
      2974.744        2317.980          43.000          25.800



 125939730.572 6  97953143.127 6  23543103.609    23543103.016    23543107.004
       546.594         425.127          39.900          39.400



 120758835.701 7  93923549.845 7  22558765.359    22558763.652    22558767.906
      3687.111        2867.744          43.200          42.300



 106568464.399 8  83040406.486 8  20279306.773                    20279312.781
       -20.669         -16.104          52.000          51.000    79580392.776 9
  20279312.750         -15.431          56.100


 111286805.890 8  86717019.492 8  21177179.109                    21177182.262
     -1664.378       -1296.925          53.600          48.000



 112607198.614 7  87583402.412 6  21065507.422    21065506.699    21065513.301
     -2866.090       -2229.182          43.600          40.500



 103068181.331 8  80164169.894 8  19314933.430    19314932.227    19314936.176
      1161.123         903.096          49.300          48.200



 108610411.775 8  84631523.981 8  20667878.508                    20667881.500
       818.446         637.745          51.200          48.700



 125794917.808 6  97840517.992 6  23565632.500    23565631.305    23565636.570
     -2507.026       -1949.902          40.900          40.400



 137873289.435 6                  26236413.859
      2392.929                          41.900                   102957332.749 6
  26236416.836        1786.930          41.300   105643165.892 6  26236413.223
      1833.550          39.300   104300256.934 7  26236416.059        1810.237
        46.100
 128850506.400 8                  24519435.352
     -1698.021                          49.200                    96219544.423 8
  24519440.000       -1268.005          50.600    98729614.294 8  24519437.938
     -1301.078          50.200    97474584.465 9  24519439.664       -1284.542
        56.300
 139212993.771 5                  26491354.328
     -1054.243                          35.300                   103957752.999 6
  26491355.809        -787.256          38.200   106669689.511 6  26491355.012
      -807.790          40.000   105313724.361 7  26491355.590        -797.521
        44.300
 120082780.959 8                  22850992.594
     -1120.845                          50.200                    89672221.843 8
  22850995.867        -836.992          51.000    92011486.700 8  22850993.383
      -858.830          49.300    90841857.880 9  22850995.320        -847.913
        55.900
 149838792.407 6                  28513378.055
     -2931.279                          37.800                   111892635.232 6
  28513383.480       -2188.939          38.900   114811561.347 6  28513382.027
     -2246.039          39.300   113352097.892 7  28513383.094       -2217.484
        44.400
  62861092.109 7                  11962067.109
       762.388                          42.400



 202677683.575 6                  38568279.547
       -87.133                          39.900



 18  4  4  7  9  0.0000000  0 22G13R11G09G02R12R13G28R19R03G30G07R01
                                R02G05R18E19E07E12E30E02E20S20
 119386367.364 7  93028351.74644  22718469.555                    22718472.395
      2762.971        2152.963          44.800          29.100



 108835556.122 8  84649885.669 8  20367089.734    20367088.902    20367093.863
     -2403.589       -1869.458          48.600          48.400



 121246434.292 7  94477889.056 7  23072462.523                    23072469.324
     -2872.584       -2238.376          47.300          43.700    90541317.153 7
  23072469.355       -2145.109          47.800


 124376887.769 7  96917057.84744  23668141.594                    23668143.625
     -2691.085       -2096.947          43.400          25.900



 103630577.606 7                  19399862.734    19399861.750
      1472.164                          47.200



 123940284.085 6  96398024.830 5  23210035.766    23210032.379    23210039.047
      4448.187        3459.699          36.200          33.700



 121263999.452 7  94491543.16244  23075792.023                    23075795.602
      2966.975        2311.927          42.700          25.000



 125923729.020 6  97940697.457 6  23540113.891    23540112.238    23540115.430
       521.066         405.259          40.000          39.200



 120648261.334 7  93837547.586 7  22538107.781    22538107.484    22538112.656
      3684.556        2865.752          43.600          42.700



 106569346.305 8  83041093.685 8  20279474.867                    20279480.715
       -37.532         -29.248          52.500          51.200    79581051.350 9
  20279480.680         -28.032          56.000


 111336929.060 8  86756076.488 7  21186716.320                    21186720.004
     -1676.734       -1306.544          51.300          47.000



 112693385.676 7  87650436.742 6  21081631.125    21081630.285    21081636.641
     -2879.254       -2239.427          43.900          40.600



 103033605.721 8  80137277.751 8  19308454.609    19308453.523    19308457.164
      1144.430         890.111          49.800          48.400



 108586136.981 8  84612608.550 8  20663259.359                    20663262.574
       800.443         623.721          52.200          48.700



 125870400.425 6  97899226.674 6  23579772.875    23579771.680    23579777.316
     -2524.543       -1963.526          41.400          40.000



 137801532.770 6                  26222759.094
      2390.969                          41.300                   102903748.231 6
  26222761.730        1785.459          41.200   105588183.524 6  26222759.195
      1832.038          39.600   104245973.491 7  26222761.273        1808.744
        46.300
 128901553.918 8                  24529149.391
     -1704.916                          49.600                    96257664.304 8
  24529154.180       -1273.151          50.500    98768728.609 8  24529152.117
     -1306.362          50.100    97513201.565 9  24529153.824       -1289.759
        56.300
 139244821.565 5                  26497410.414
     -1067.224                          34.300                   103981520.465 6
  26497410.484        -796.954          36.200   106694076.968 6  26497411.188
      -817.745          38.600   105337801.823 7  26497411.891        -807.347
        42.800
 120116612.327 8                  22857430.547
     -1134.120                          51.500                    89697485.520 8
  22857434.090        -846.901          51.400    92037409.443 8  22857431.184
      -869.003          49.200    90867451.094 9  22857433.309        -857.954
        56.000
 149926788.475 6                  28530123.141
     -2934.944                          38.900                   111958346.417 5
  28530128.387       -2191.675          34.100   114878986.751 6  28530126.746
     -2248.854          37.000   113418666.190 6  28530128.086       -2220.260
        41.000
  62838337.091 7                  11957736.844
       754.766                          43.000



 202680300.413 6                  38568773.125
       -87.069                          40.400



 18  4  4  7  9 30.0000000  0 22G13R11G09G02R12R13G28R19R03G30G07R01
                                R02G05R18E19E07E12E30E02E20S20
 119303558.267 7  92963825.19544  22702711.789                    22702714.813
      2757.815        2148.953          45.600          29.600



 108907977.097 8  84706213.063 7  20380643.258    20380642.191    20380645.277
     -2423.812       -1885.191          49.300          46.400



 121332684.271 8  94545096.799 7  23088875.555                    23088881.906
     -2877.252       -2242.010          48.000          43.900    90605724.557 7
  23088882.402       -2148.591          47.500


 124457729.874 7  96980051.66644  23683524.594                    23683526.516
     -2698.153       -2102.452          43.900          27.700



 103586806.177 7                  19391668.906    19391667.453
      1446.745                          47.600



 123806923.903 6  96294300.275 5  23185061.969    23185057.996    23185064.660
      4442.606        3455.375          36.200          33.600



 121175111.428 7  94422279.75444  23058877.352                    23058880.969
      2959.111        2305.800          43.200          26.100



 125908493.774 6  97928847.824 6  23537265.898    23537264.949    23537267.578
       495.493         385.371          40.900          38.300



 120537763.169 7  93751604.582 7  22517468.172    22517466.348    22517470.359
      3681.964        2863.747          44.300          42.600



 106570733.045 8  83042174.259 8  20279738.813                    20279744.184
       -54.353         -42.355          53.800          50.700    79582086.897 9
  20279744.676         -40.591          56.200


 111387421.167 8  86795420.967 7  21196324.836                    21196328.320
     -1689.007       -1316.112          52.500          46.000



 112779965.847 7  87717776.848 6  21097828.414    21097826.871    21097833.820
     -2892.340       -2249.593          44.100          40.500



 102999529.409 8  80110773.960 8  19302068.313    19302066.875    19302070.992
      1127.824         877.194          49.200          48.400



 108562402.453 8  84594114.101 8  20658742.523                    20658746.031
       782.430         609.683          51.600          49.000



 125946405.365 6  97958341.556 5  23594012.805    23594010.320    23594013.160
     -2541.871       -1976.974          41.400          35.600



 137729834.555 6                  26209115.492
      2388.993                          41.700                   102850207.362 6
  26209118.090        1783.993          41.600   105533245.927 6  26209115.605
      1830.521          39.900   104191734.251 7  26209117.430        1807.260
        46.200
 128952807.530 8                  24538902.789
     -1711.774                          48.900                    96295938.082 8
  24538907.414       -1278.268          50.300    98808000.837 8  24538905.305
     -1311.618          50.600    97551974.568 9  24538907.004       -1294.948
        56.200
 139277036.863 6                  26503541.953
     -1080.103                          36.800                   104005577.315 6
  26503542.781        -806.561          38.000   106718761.383 6  26503541.000
      -827.603          37.500   105362172.456 7  26503542.211        -817.081
        42.800
 120150840.612 8                  22863943.984
     -1147.335                          51.300                    89723045.599 8
  22863947.625        -856.775          50.700    92063636.315 8  22863944.531
      -879.124          48.600    90893344.567 9  22863946.961        -867.947
        55.900
 150014894.089 6                  28546889.781
     -2938.608                          41.000                   112024139.664 4
  28546894.598       -2194.409          28.300   114946496.211 5  28546892.676
     -2251.660          31.900   113485317.542 5  28546892.883       -2223.040
        34.800
  62815810.217 7                  11953450.211
       747.203                          42.900



 202682914.251 6                  38569280.500
       -87.001                          40.100



 18  4  4  7 10  0.0000000  0 22G13R11G09G02R12R13G28R19R03G30G07R01
                                R02G05R18E19E07E12E30E02E20S20
 119220904.226 7  92899419.43944  22686982.984                    22686986.484
      2752.649        2144.926          46.200          29.400



 108981003.005 8  84763011.036 7  20394309.398    20394309.039    20394311.441
     -2443.896       -1900.804          49.900          47.000



 121419074.070 7  94612413.472 7  23105315.070                    23105321.152
     -2881.883       -2245.622          46.900          43.900    90670236.382 7
  23105321.824       -2152.056          47.700


 124538782.986 7  97043209.88944  23698948.789                    23698951.254
     -2705.118       -2107.883          44.800          28.900



 103543797.176 7                  19383617.242    19383615.555
      1421.348                          47.300



 123673733.518 6  96190707.797 5  23160117.531    23160115.785    23160122.676
      4436.921        3450.936          36.400          32.400



 121086460.228 6  94353200.92343  23042007.930                    23042011.500
      2951.202        2299.628          41.900          22.900



 125894025.439 6  97917594.623 6  23534560.984    23534559.215    23534562.926
       469.956         365.533          40.600          39.000



 120427343.434 7  93665722.532 6  22496839.867    22496838.863    22496842.113
      3679.375        2861.752          43.900          41.600



 106572623.864 8  83043647.629 8  20280098.500                    20280104.281
       -71.108         -55.413          51.500          51.400    79583498.875 9
  20280104.949         -53.099          56.200


 111438280.702 8  86835051.790 7  21206003.805                    21206006.754
     -1701.181       -1325.609          53.800          46.500



 112866938.108 7  87785421.885 6  21114097.211    21114096.371    21114102.715
     -2905.347       -2259.693          44.000          40.400



 102965954.348 8  80084660.013 8  19295776.203    19295775.117    19295779.211
      1111.071         864.170          49.900          49.000



 108539209.072 8  84576041.330 8  20654328.727                    20654332.355
       764.415         595.649          52.400          48.800



 126022928.532 6  98017859.647 6  23608346.734    23608346.012    23608349.500
     -2559.035       -1990.364          39.600          36.700



 137658195.455 6                  26195483.102
      2387.032                          41.300                   102796710.645 6
  26195485.188        1782.520          41.400   105478353.639 6  26195482.844
      1829.023          39.600   104137539.752 7  26195484.992        1805.772
        46.100
 129004267.121 7                  24548695.086
     -1718.609                          47.600                    96334365.673 8
  24548699.574       -1283.375          50.900    98847430.887 8  24548697.277
     -1316.859          50.400    97590903.388 9  24548699.273       -1300.119
        56.100
 139309638.438 6                  26509745.617
     -1092.890                          37.800                   104029922.642 6
  26509746.891        -816.120          37.900   106743741.856 6  26509744.359
      -837.413          37.000   105386835.352 7  26509746.539        -826.764
        43.000
 120185464.559 8                  22870532.586
     -1160.467                          50.900                    89748901.135 8
  22870536.238        -866.578          50.900    92090166.355 8  22870533.613
      -889.190          49.400    90919537.355 9  22870535.797        -877.883
        56.000
 150103107.431 7                  28563676.422
     -2942.128                          42.400                   112090013.309 5
  28563681.648       -2197.041          35.300   115014088.360 5  28563678.035
     -2254.362          30.100   113552050.445 6  28563679.867       -2225.705
        39.300
  62793512.264 7                  11949206.930
       739.574                          43.900



 202685522.223 6                  38569775.141
       -86.758                          39.600



 18  4  4  7 10 30.0000000  0 22G13R11G09G02R12R13G28R19R03G30G07R01
                                R02G05R18E19E07E12E30E02E20S20
 119138406.009 7  92835135.14544  22671284.227                    22671287.625
      2747.487        2140.896          46.300          28.900



 109054630.191 8  84820276.599 8  20408086.195    20408085.953    20408090.785
     -2463.789       -1916.275          48.900          48.700



 121505602.805 7  94679838.455 7  23121780.656                    23121787.453
     -2886.468       -2249.196          47.500          44.100    90734851.972 7
  23121787.949       -2155.481          46.800


 124620043.707 7  97106529.92144  23714411.672                    23714414.078
     -2711.943       -2113.208          43.900          27.300



 103501551.373 7                  19375709.266    19375707.578
      1395.928                          47.600



 123540716.195 6  96087249.893 5  23135208.188    23135206.207    23135212.129
      4431.135        3446.461          36.900          32.700



 120998048.103 7  94284308.37844  23025183.352                    23025187.148
      2943.188        2293.392          42.300          25.200



 125880324.090 6  97906938.040 6  23531999.594    23531997.707    23532001.492
       444.408         345.621          39.000          39.100



 120317004.589 7  93579903.450 7  22476227.508    22476226.035    22476230.566
      3676.694        2859.648          43.500          42.100



 106575017.959 8  83045513.151 8  20280554.156                    20280559.855
       -87.841         -68.450          52.900          50.900    79585286.675 9
  20280559.766         -65.599          56.400


 111489505.630 8  86874967.313 7  21215751.172                    21215754.984
     -1713.312       -1335.047          51.600          47.200



 112954300.581 7  87853370.458 6  21130440.633    21130439.324    21130446.563
     -2918.325       -2269.793          44.100          40.400



 102932883.187 8  80058938.000 8  19289578.266    19289577.648    19289581.586
      1094.287         851.098          49.700          48.500



 108516557.392 8  84558390.668 8  20650018.516                    20650021.867
       746.355         581.577          52.900          48.700



 126099965.854 6  98077777.485 6  23622780.008    23622777.992    23622782.313
     -2576.074       -2003.600          41.200          38.300



 137586616.216 6                  26181862.375
      2385.025                          41.700                   102743258.613 6
  26181864.691        1781.025          41.400   105423507.214 6  26181860.844
      1827.488          39.000   104083390.527 7  26181863.938        1804.249
        46.000
 129055932.452 8                  24558526.625
     -1725.442                          49.200                    96372946.902 8
  24558531.445       -1288.477          50.500    98887018.582 8  24558529.148
     -1322.091          49.700    97629987.853 9  24558531.074       -1305.285
        56.100
 139342625.002 6                  26516023.180
     -1105.708                          37.800                   104054555.462 6
  26516022.938        -825.690          36.400   106769017.250 6  26516021.859
      -847.231          37.100   105411789.465 6  26516023.492        -836.462
        41.800
 120220482.898 8                  22877196.188
     -1173.572                          50.900                    89775051.195 8
  22877199.617        -876.365          50.000    92116998.585 8  22877197.273
      -899.228          49.800    90946028.502 9  22877199.438        -887.799
        55.700
 150191426.774 7                  28580482.922
     -2945.615                          43.500                   112155966.034 6
  28580487.895       -2199.645          38.700   115081761.651 5  28580485.082
     -2257.030          35.500   113618863.452 7  28580487.016       -2228.337
        42.800
  62771443.884 7                  11945007.539
       731.938                          43.200



 202688125.310 6                  38570255.641
       -86.330                          39.300



 18  4  4  7 11  0.0000000  0 22G13R11G09G02R12R13G28R19R03G30G07R01
                                R02G05R18E19E07E12E30E02E20S20
 119056064.721 7  92770973.11344  22655615.188                    22655619.359
      2742.169        2136.751          45.500          29.900



 109128855.698 8  84878007.494 7  20421976.898    20421976.422    20421980.398
     -2483.804       -1931.845          49.400          47.400



 121592270.378 7  94747371.546 7  23138273.352                    23138280.207
     -2891.168       -2252.853          47.900          43.900    90799571.195 7
  23138279.770       -2158.984          47.200


 124701509.758 7  97170009.89344  23729914.898                    23729916.980
     -2718.835       -2118.566          43.600          27.100



 103460070.076 7                  19367943.203    19367941.633
      1370.362                          47.300



 123407874.781 5  95983928.851 5  23110331.164    23110328.949    23110335.508
      4425.141        3441.775          35.400          33.000



 120909878.818 7  94215605.04744  23008405.117                    23008408.602
      2935.014        2287.022          42.800          26.400



 125867390.780 6  97896878.771 6  23529581.750    23529581.156    23529583.414
       418.727         325.692          40.400          38.100



 120206749.272 7  93494149.322 7  22455630.945    22455629.238    22455633.836
      3673.809        2857.415          43.200          42.100



 106577914.977 8  83047770.583 8  20281105.250                    20281111.168
      -104.682         -81.575          52.300          51.500    79587450.039 9
  20281111.605         -78.172          56.000


 111541094.434 8  86915166.338 7  21225567.836                    21225571.652
     -1725.501       -1344.550          52.400          47.100



 113042053.138 7  87921622.403 6  21146856.836    21146854.941    21146861.699
     -2931.403       -2279.981          44.000          40.200



 102900318.036 8  80033609.534 8  19283475.609    19283474.758    19283478.977
      1077.275         837.892          50.100          48.800



 108494449.194 8  84541163.493 8  20645811.664                    20645814.840
       728.145         567.385          52.200          48.800



 126177513.826 6  98138092.567 6  23637305.547    23637304.707    23637310.566
     -2593.173       -2016.923          39.400          38.100



 137515097.961 6                  26168252.492
      2382.906                          41.900                   102689852.137 6
  26168254.617        1779.444          41.300   105368707.516 6  26168252.879
      1825.863          40.200   104029287.431 7  26168254.422        1802.654
        46.000
 129107803.869 8                  24568397.547
     -1732.387                          48.600                    96411682.021 8
  24568402.434       -1293.667          50.500    98926764.180 8  24568399.996
     -1327.410          49.800    97669228.215 9  24568401.992       -1310.543
        56.100
 139375995.802 6                  26522372.148
     -1118.570                          36.500                   104079475.231 5
  26522372.789        -835.293          35.400   106794587.049 5  26522371.898
      -857.085          35.200   105437034.246 6  26522373.305        -846.185
        41.100
 120255894.812 8                  22883934.852
     -1186.756                          50.600                    89801495.158 8
  22883938.145        -886.216          50.000    92144132.387 8  22883936.316
      -909.334          50.200    90972817.379 9  22883938.063        -897.773
        55.600
 150279850.876 7                  28597309.406
     -2949.170                          43.600                   112221997.001 6
  28597314.652       -2202.296          40.300   115149515.174 6  28597311.559
     -2259.754          37.200   113685755.695 7  28597313.648       -2231.024
        44.600
  62749606.296 7                  11940852.141
       724.137                          43.400



 202690725.961 6                  38570769.125
       -86.617                          39.200



 18  4  4  7 11 30.0000000  0 22G13R11G09G02R12R13G28R19R03G30G07R01
                                R02G05R18E19E07E12E30E02E20S20
 118973880.975 7  92706933.85544  22639976.086                    22639979.465
      2736.919        2132.661          45.100          29.900



 109203675.957 8  84936201.035 7  20435979.055    20435977.988    20435980.570
     -2503.563       -1947.207          49.700          46.100



 121679075.886 7  94815012.189 7  23154791.828                    23154797.832
     -2895.711       -2256.400          46.000          43.300    90864393.465 7
  23154799.266       -2162.380          47.400


 124783178.016 7  97233647.45144  23745455.711                    23745457.879
     -2725.494       -2123.760          44.100          28.300



 103419354.705 7                  19360321.609    19360319.805
      1344.839                          47.100



 123275212.880 6  95880747.386 5  23085487.234    23085486.078    23085492.656
      4419.139        3437.125          36.900          35.300



 120821954.780 7  94147092.81844  22991674.023                    22991677.703
      2926.817        2280.630          43.300          27.200



 125855225.622 6  97887416.957 6  23527308.281    23527306.395    23527309.047
       393.122         305.774          40.500          37.700



 120096579.036 7  93408461.375 7  22435050.039    22435048.449    22435052.523
      3670.962        2855.172          43.500          42.400



 106581314.152 8  83050419.282 8  20281752.328                    20281757.605
      -121.380         -94.580          52.000          51.000    79589988.382 9
  20281758.160         -90.640          56.200


 111593045.763 8  86955647.867 7  21235454.297                    21235457.199
     -1737.513       -1353.905          53.300          45.800



 113130194.341 7  87990176.632 6  21163345.758    21163344.684    21163351.152
     -2944.271       -2289.978          44.600          40.400



 102868261.188 8  80008676.432 8  19277468.359    19277467.273    19277471.461
      1060.411         824.767          49.300          49.000



 108472885.755 8  84524360.806 8  20641708.141                    20641711.645
       710.002         553.241          51.800          48.900



 126255568.399 6  98198801.660 6  23651926.750    23651926.965    23651933.086
     -2609.910       -2029.945          38.800          39.300



 137443641.443 6                  26154655.508
      2380.891                          40.900                   102636491.753 6
  26154656.742        1777.938          40.900   105313955.132 6  26154654.023
      1824.323          39.900   103975231.050 7  26154656.746        1801.133
        46.100
 129159881.172 8                  24578307.797
     -1739.190                          49.100                    96450570.891 8
  24578312.305       -1298.747          50.800    98966667.547 8  24578309.676
     -1332.624          50.100    97708624.328 9  24578311.797       -1315.685
        56.000
 139409749.563 6                  26528796.742
     -1131.225                          39.900                   104104680.979 6
  26528796.891        -844.751          37.900   106820450.296 5  26528792.340
      -866.788          31.400   105462568.748 6  26528795.945        -855.766
        41.300
 120291698.994 8                  22890748.391
     -1199.764                          50.200                    89828232.063 8
  22890751.289        -895.932          49.500    92171566.752 8  22890749.602
      -919.297          50.000    90999903.017 9  22890751.230        -907.618
        55.500
 150368377.925 7                  28614156.055
     -2952.540                          42.200                   112288104.857 6
  28614161.090       -2204.822          40.300   115217347.586 6  28614157.715
     -2262.333          37.500   113752725.832 7  28614159.871       -2233.578
        44.800
  62728000.069 7                  11936740.664
       716.505                          43.100



 202693323.070 6                  38571259.531
       -86.235                          39.700



 18  4  4  7 12  0.0000000  0 22G13R11G09G02R12R13G28R19R03G30G07R01
                                R02G05R18E19E07E12E30E02E20S20
 118891855.550 7  92643017.94345  22624366.906                    22624370.547
      2731.591        2128.512          45.100          30.400



 109279087.054 8  84994854.134 7  20450090.281    20450090.508    20450094.059
     -2523.242       -1962.523          49.100          47.000



 121766018.488 7  94882759.601 7  23171336.820                    23171342.445
     -2900.328       -2259.993          46.300          42.600    90929318.086 7
  23171343.590       -2165.827          47.700


 124865045.289 7  97297440.09844  23761034.492                    23761035.621
     -2732.120       -2128.924          44.500          26.700



 103379405.289 7                  19352843.141    19352841.098
      1319.245                          47.200



 123142733.334 6  95777707.801 5  23060678.156    23060676.648    23060682.703
      4412.981        3432.340          36.900          34.300



 120734278.655 7  94078773.77444  22974989.227                    22974993.164
      2918.485        2274.144          42.900          26.700



 125843829.003 6  97878552.948 6  23525177.281    23525176.215    23525179.215
       367.438         285.794          40.400          38.600



 119986496.821 7  93322841.870 7  22414486.055    22414483.996    22414488.621
      3667.905        2852.814          43.800          43.100



 106585214.404 8  83053458.443 8  20282494.469                    20282500.012
      -138.111        -107.624          52.400          51.200    79592900.906 9
  20282500.742        -103.135          56.200


 111645357.253 8  86996410.098 7  21245409.086                    21245411.363
     -1749.552       -1363.291          52.700          45.100



 113218722.416 7  88059031.778 6  21179906.781    21179905.941    21179912.684
     -2957.184       -2300.044          44.900          40.700



 102836714.331 8  79984140.002 8  19271556.789    19271555.938    19271559.629
      1043.226         811.384          50.500          48.600



 108451867.720 8  84507983.095 8  20637708.172                    20637711.750
       691.764         539.042          51.200          48.300



 126334125.329 6  98259901.438 6  23666642.352    23666643.270    23666648.371
     -2626.659       -2042.955          38.400          38.400



 137372247.088 6                  26141069.328
      2378.758                          41.800                   102583177.801 6
  26141070.938        1776.345          41.600   105259250.383 6  26141068.734
      1822.683          40.200   103921221.702 7  26141070.840        1799.513
        46.300
 129212163.936 8                  24588256.758
     -1746.099                          49.000                    96489613.182 8
  24588261.371       -1303.903          50.600    99006728.344 8  24588259.074
     -1337.919          49.200    97748175.873 9  24588260.871       -1320.915
        56.000
 139443884.762 6                  26535292.281
     -1144.047                          38.600                   104130171.497 6
  26535293.918        -854.320          39.400   106846605.894 5  26535290.309
      -876.609          34.100   105488391.806 7  26535292.723        -865.461
        43.100
 120327893.948 8                  22897636.305
     -1212.816                          50.900                    89855260.759 8
  22897639.637        -905.672          50.200    92199300.542 8  22897637.340
      -929.301          50.000    91027284.257 9  22897638.848        -917.483
        55.700
 150457005.991 6                  28631021.492
     -2955.947                          40.900                   112354288.146 6
  28631026.480       -2207.368          41.300   115285257.407 6  28631023.102
     -2264.944          37.200   113819772.386 7  28631025.414       -2236.154
        45.200
  62706625.802 7                  11932673.461
       708.714                          43.900



 202695914.980 6                  38571743.828
       -86.270                          39.800



 18  4  4  7 12 30.0000000  0 22G13R11G09G02R12R13G28R19R03G30G07R01
                                R02G05R18E19E07E12E30E02E20S20
 118809989.462 7  92579226.19645  22608788.531                    22608791.949
      2726.225        2124.326          45.200          30.400



 109355085.726 8  85053964.167 8  20464312.836    20464311.887    20464316.121
     -2542.790       -1977.718          49.200          48.000



 121853097.790 7  94950613.576 7  23187907.258                    23187913.805
     -2904.909       -2263.565          46.400          43.100    90994344.790 7
  23187914.652       -2169.248          46.800


 124947109.171 7  97361385.95944  23776650.984                    23776652.527
     -2738.683       -2134.044          44.100          26.800



 103340223.594 7                  19345508.438    19345506.512
      1293.600                          47.300



 123010439.400 6  95674812.548 5  23035903.203    23035902.164    23035908.477
      4406.705        3427.457          36.800          34.100



 120646853.745 7  94010650.45044  22958352.844                    22958357.457
      2910.004        2267.536          42.800          27.900



 125833201.805 6  97870287.355 6  23523190.906    23523189.254    23523191.938
       341.722         265.792          41.500          38.200



 119876505.014 7  93237292.697 7  22393938.469    22393937.348    22393941.008
      3664.864        2850.469          44.300          43.200



 106589615.297 8  83056887.711 8  20283331.766                    20283337.883
      -154.834        -120.653          52.900          51.300    79596187.289 9
  20283337.965        -115.623          56.100


 111698027.527 8  87037451.860 7  21255431.289                    21255435.105
     -1761.513       -1372.603          51.400          47.000



 113307636.798 7  88128187.408 6  21196539.359    21196538.402    21196545.469
     -2970.079       -2310.096          43.500          39.600



 102805680.232 8  79960002.355 8  19265740.789    19265740.055    19265743.957
      1026.084         798.062          49.200          48.500



 108431396.517 8  84492031.520 8  20633812.852                    20633816.391
       673.478         524.791          51.500          48.100



 126413180.882 6  98321389.097 6  23681454.422    23681453.348    23681458.617
     -2643.216       -2055.840          39.400          38.500



 137300916.136 7                  26127495.281
      2376.601                          42.400                   102529911.176 6
  26127497.285        1774.733          41.700   105204594.193 6  26127494.938
      1821.033          41.000   103867260.292 7  26127497.047        1797.889
        46.500
 129264652.447 8                  24598244.813
     -1753.011                          49.100                    96528809.124 8
  24598249.707       -1309.063          50.800    99046946.789 8  24598247.176
     -1343.215          49.400    97787883.065 9  24598249.367       -1326.140
        56.000
 139478400.454 6                  26541859.922
     -1156.733                          40.300                   104155946.199 6
  26541862.566        -863.793          38.800   106873052.979 5  26541859.191
      -886.329          35.200   105514502.696 7  26541861.039        -875.059
        43.200
 120364478.785 8                  22904597.977
     -1225.836                          51.000                    89882580.603 8
  22904601.566        -915.397          50.700    92227333.073 8  22904599.176
      -939.279          49.000    91054960.448 9  22904600.695        -927.338
        55.900
 150545733.632 6                  28647905.586
     -2959.243                          37.900                   112420545.788 6
  28647910.777       -2209.827          40.300   115353243.513 6  28647907.309
     -2267.469          37.300   113886894.260 7  28647909.660       -2238.645
        44.400
  62685484.700 7                  11928650.117
       700.884                          43.500



 202698502.250 6                  38572241.313
       -85.981                          39.400



 18  4  4  7 13  0.0000000  0 22G13R11G09G02R12R13G28R19R03G30G07R01
                                R02G05R18E19E07E12E30E02E20S20
 118728283.271 7  92515559.04045  22593240.922                    22593243.871
      2720.926        2120.207          45.200          30.900



 109431668.170 8  85113528.273 8  20478644.367    20478644.125    20478647.539
     -2562.151       -1992.776          48.700          48.100



 121940312.793 7  95018573.306 6  23204503.086                    23204508.422
     -2909.384       -2267.057          46.300          41.600    91059472.841 7
  23204509.742       -2172.593          46.800


 125029366.380 7  97425482.45244  23792303.953                    23792305.238
     -2745.047       -2138.996          44.000          24.300



 103301809.781 7                  19338316.305    19338315.555
      1268.037                          47.500



 122878334.294 5  95572064.215 5  23011164.633    23011163.359    23011169.316
      4400.431        3422.518          34.600          33.800



 120559682.196 7  93942724.60044  22941765.133                    22941768.828
      2901.544        2260.945          42.700          29.400



 125823343.388 6  97862619.730 6  23521348.281    23521346.746    23521348.855
       316.181         245.908          41.000          37.200



 119766604.755 7  93151814.756 7  22373408.547    22373407.074    22373410.438
      3661.813        2848.055          44.600          43.400



 106594515.722 8  83060706.222 8  20284264.367                    20284270.605
      -171.418        -133.569          52.700          50.800    79599846.702 9
  20284270.926        -128.006          56.100


 111751054.502 8  87078771.518 7  21265521.828                    21265526.359
     -1773.357       -1381.832          52.600          47.700



 113396935.696 7  88197642.039 6  21213245.141    21213244.066    21213250.742
     -2982.854       -2319.976          44.300          39.900



 102775160.149 8  79936264.517 8  19260021.727    19260020.875    19260024.910
      1008.986         784.749          49.500          49.100



 108411473.165 8  84476506.808 8  20630021.609                    20630024.992
       655.240         510.570          52.200          49.300



 126492730.804 6  98383261.200 6  23696358.078    23696356.063    23696360.059
     -2659.637       -2068.581          41.300          36.600



 137229648.972 7                  26113933.242
      2374.484                          42.100                   102476692.189 7
  26113936.090        1773.152          42.100   105149986.890 6  26113933.465
      1819.407          39.700   103813347.149 7  26113935.473        1796.276
        46.600
 129317346.232 8                  24608272.547
     -1759.820                          48.900                    96568158.345 8
  24608277.281       -1314.149          51.100    99087322.513 8  24608274.516
     -1348.429          49.100    97827745.542 9  24608276.645       -1331.294
        56.100
 139513295.157 6                  26548500.977
     -1169.302                          40.700                   104182003.898 6
  26548500.109        -873.181          37.300   106899790.458 6  26548499.922
      -895.961          36.700   105540900.285 7  26548501.105        -884.569
        42.600
 120401451.935 8                  22911633.703
     -1238.724                          50.600                    89910190.410 8
  22911637.598        -925.021          50.900    92255663.148 8  22911634.316
      -949.151          48.600    91082930.397 9  22911636.512        -937.094
        55.900
 150634559.026 6                  28664808.180
     -2962.443                          36.800                   112486876.420 6
  28664813.891       -2212.210          39.600   115421304.517 6  28664810.516
     -2269.921          36.900   113954090.079 7  28664812.742       -2241.070
        43.900
  62664577.117 7                  11924671.398
       693.092                          43.800



 202701086.406 6                  38572728.500
       -86.295                          40.500



 18  4  4  7 13 30.0000000  0 22G13R11G09G02R12R13G28R19R03G30G07R01
                                R02G05R18E19E07E12E30E02E20S20
 118646738.025 7  92452017.29744  22577722.953                    22577725.719
      2715.556        2116.019          44.000          29.600



 109508831.368 8  85173544.084 7  20493084.688    20493084.211    20493087.844
     -2581.447       -2007.787          48.100          46.500



 122027663.375 7  95086638.635 6  23221125.750                    23221131.574
     -2913.873       -2270.549          46.000          41.400    91124702.127 7
  23221132.367       -2175.940          46.200


 125111814.398 7  97489727.64144  23807993.313                    23807994.684
     -2751.341       -2143.892          42.000          25.200



 103264165.549 7                  19331269.961    19331268.156
      1242.408                          47.300



 122746421.253 5  95469465.206 5  22986461.266    22986459.285    22986465.605
      4393.936        3417.526          33.800          32.900



 120472767.759 7  93874999.08544  22925226.016                    22925229.551
      2892.978        2254.270          44.500          29.700



 125814255.059 6  97855551.018 6  23519649.266    23519646.910    23519649.148
       290.523         225.980          40.500          36.700



 119656799.754 7  93066410.882 7  22352896.523    22352895.168    22352897.918
      3658.585        2845.568          43.900          43.100



 106599915.421 8  83064913.775 8  20285291.633                    20285297.531
      -188.041        -146.524          52.100          50.900    79603878.937 9
  20285297.730        -140.419          56.100


 111804437.143 8  87120368.365 7  21275680.789                    21275683.930
     -1785.124       -1391.008          53.500          45.800



 113486618.361 7  88267395.213 6  21230022.234    21230021.277    21230027.262
     -2995.586       -2329.921          44.200          39.800



 102745157.209 8  79912928.880 8  19254399.063    19254397.508    19254401.520
       991.721         771.332          49.900          48.200



 108392099.280 8  84461410.274 8  20626334.789                    20626338.059
       636.932         496.305          51.800          48.100



 126572771.386 6  98445515.003 6  23711350.750    23711350.262    23711353.957
     -2675.887       -2081.254          41.100          36.800



 137158446.927 6                  26100383.914
      2372.335                          41.200                   102423521.839 7
  26100387.137        1771.546          42.300   105095429.489 6  26100383.758
      1817.756          40.600   103759483.276 7  26100386.176        1794.648
        46.800
 129370245.676 8                  24618338.813
     -1766.643                          48.100                    96607661.150 8
  24618343.641       -1319.250          50.800    99127855.833 8  24618340.781
     -1353.666          49.100    97867763.597 9  24618342.926       -1336.453
        56.000
 139548568.075 6                  26555213.141
     -1181.843                          40.000                   104208344.065 6
  26555214.141        -882.549          38.400   106926817.712 5  26555210.480
      -905.579          34.800   105567583.998 7  26555213.035        -894.064
        42.100
 120438812.674 8                  22918742.883
     -1251.600                          51.100                    89938089.642 8
  22918747.203        -934.635          51.000    92284290.212 8  22918744.246
      -959.014          49.200    91111193.536 9  22918746.395        -946.821
        55.900
 150723481.096 5                  28681729.828
     -2965.637                          35.800                   112553279.238 6
  28681735.207       -2214.602          39.100   115489439.580 6  28681732.066
     -2272.372          36.700   114021359.020 7  28681733.973       -2243.484
        43.400
  62643904.258 7                  11920737.797
       685.333                          43.500



 202703669.122 6                  38573217.578
       -86.062                          40.700



 18  4  4  7 14  0.0000000  0 22G13R11G09G02R12R13G28R19R03G30G07R01
                                R02G05R18E19E07E12E30E02E20S20
 118565354.267 7  92388601.39445  22562236.203                    22562240.141
      2710.175        2111.824          44.300          30.900



 109586571.310 8  85234008.481 7  20507632.773    20507631.941    20507635.527
     -2600.580       -2022.674          49.500          47.300



 122115148.472 7  95154808.812 7  23237773.797                    23237779.711
     -2918.333       -2274.027          44.800          42.600    91190031.857 7
  23237780.738       -2179.271          46.300


 125194450.176 7  97554119.09344  23823718.844                    23823720.930
     -2757.524       -2148.722          42.400          26.100



 103227291.296 7                  19324367.102    19324366.000
      1216.729                          47.200



 122614703.354 5  95367017.997 5  22961796.227    22961793.660    22961799.332
      4387.377        3412.430          35.900          34.300



 120386113.018 7  93807475.91144  22908736.031                    22908740.098
      2884.283        2247.489          44.100          27.900



 125805936.403 6  97849080.978 6  23518093.172    23518092.578    23518095.602
       264.907         206.033          40.500          37.800



 119547091.569 7  92981082.306 7  22332401.359    22332400.355    22332403.695
      3655.330        2843.048          44.700          42.800



 106605813.251 8  83069509.494 8  20286414.602                    20286419.867
      -204.584        -159.412          53.000          51.400    79608283.167 9
  20286420.535        -152.777          56.200


 111858173.236 8  87162240.689 7  21285906.219                    21285908.324
     -1796.882       -1400.169          52.300          44.900



 113576683.242 7  88337445.620 6  21246870.266    21246870.012    21246876.801
     -3008.288       -2339.772          43.900          39.700



 102715673.197 8  79889996.854 8  19248874.242    19248872.688    19248877.098
       974.432         757.898          49.400          49.000



 108373275.675 8  84446742.520 8  20622753.055                    20622756.273
       618.593         482.024          52.200          48.900



 126653298.418 6  98508147.066 6  23726437.305    23726435.289    23726439.750
     -2692.006       -2093.782          41.000          37.300



 137087310.539 6                  26086847.219
      2370.129                          41.400                   102370400.520 6
  26086849.555        1769.904          41.900   105040922.387 6  26086847.305
      1816.071          39.900   103705669.063 7  26086849.160        1792.987
        46.800
 129423350.362 8                  24628444.164
     -1773.451                          49.400                    96647317.216 8
  24628449.023       -1324.329          50.300    99168546.409 8  24628446.445
     -1358.879          49.500    97907936.924 9  24628448.543       -1341.606
        56.000
 139584217.664 6                  26561996.859
     -1194.351                          39.800                   104234965.516 6
  26561997.953        -891.884          40.000   106954133.663 5  26561994.906
      -915.157          35.600   105594552.699 7  26561997.086        -903.522
        43.700
 120476559.427 8                  22925925.883
     -1264.426                          50.900                    89966277.150 8
  22925929.496        -944.212          50.400    92313213.048 8  22925927.246
      -968.849          49.500    91139748.708 9  22925929.250        -956.528
        55.700
 150812497.749 5                  28698669.094
     -2968.726                          35.500                   112619752.693 6
  28698674.566       -2216.902          39.300   115557647.130 6  28698671.191
     -2274.737          37.700   114088699.520 7  28698673.254       -2245.822
        44.100
  62623466.758 7                  11916848.891
       677.475                          43.300



 202706252.971 6                  38573710.797
       -86.283                          39.900



 18  4  4  7 14 30.0000000  0 22G13R11G09G02R12R13G28R19R03G30G07R01
                                R02G05R18E19E07E12E30E02E20S20
 118484132.720 7  92325311.88544  22546780.320                    22546783.230
      2704.792        2107.632          45.900          29.800



 109664884.511 8  85294918.742 7  20522288.008    20522287.410    20522290.895
     -2619.620       -2037.469          49.400          47.800



 122202767.405 7  95223083.273 7  23254447.445                    23254453.762
     -2922.755       -2277.470          45.700          43.000    91255461.542 7
  23254454.023       -2182.577          46.400


 125277270.587 7  97618654.41744  23839478.547                    23839480.637
     -2763.576       -2153.421          42.100          24.700



 103191187.691 7                  19317608.336    19317606.648
      1191.056                          47.100



 122483183.908 6  95264725.146 5  22937166.273    22937164.410    22937169.805
      4380.799        3407.277          36.100          33.700



 120299720.627 7  93740157.18744  22892295.633                    22892299.938
      2875.537        2240.680          43.400          28.800



 125798387.679 6  97843209.798 6  23516681.531    23516680.938    23516684.895
       239.276         186.081          39.800          38.300



 119437482.873 7  92895831.087 7  22311924.680    22311924.262    22311927.043
      3652.009        2840.467          44.600          42.100



 106612208.317 8  83074492.664 8  20287631.258                    20287637.027
      -221.148        -172.328          53.200          51.300    79613058.706 9
  20287637.289        -165.146          56.400


 111912261.220 8  87204387.138 7  21296197.820                    21296202.129
     -1808.560       -1409.265          50.000          46.700



 113667129.158 7  88407792.443 6  21263789.594    21263788.637    21263795.609
     -3020.929       -2349.635          43.400          40.000



 102686709.964 8  79867469.901 8  19243445.695    19243444.609    19243448.547
       957.081         744.393          49.300          48.800



 108355003.040 8  84432504.091 8  20619275.719                    20619279.465
       600.226         467.714          52.500          48.700



 126734307.627 6  98571154.173 6  23741610.531    23741610.629    23741615.727
     -2707.991       -2106.208          39.800          39.800



 137016240.466 6                  26073323.180
      2367.929                          41.300                   102317328.720 7
  26073326.016        1768.256          42.300   104986466.098 6  26073322.871
      1814.388          40.000   103651905.021 7  26073325.063        1791.324
        46.500
 129476660.107 8                  24638588.922
     -1780.267                          48.300                    96687126.407 8
  24638593.668       -1329.418          50.500    99209394.110 8  24638590.996
     -1364.101          49.300    97948265.371 9  24638593.191       -1346.760
        56.000
 139620242.559 6                  26568851.500
     -1206.831                          38.300                   104261867.160 6
  26568853.156        -901.205          40.400   106981737.127 5  26568850.016
      -924.720          35.300   105621805.251 7  26568852.813        -912.956
        44.100
 120514690.818 8                  22933182.148
     -1277.213                          51.200                    89994751.889 8
  22933185.664        -953.760          49.700    92342430.599 8  22933183.320
      -978.646          49.500    91168594.856 9  22933185.410        -966.208
        55.500
 150901607.065 5                  28715626.008
     -2971.802                          32.300                   112686295.355 6
  28715631.520       -2219.203          36.700   115625925.685 5  28715628.098
     -2277.088          34.100   114156110.131 6  28715630.238       -2248.149
        41.300
  62603265.226 7                  11913004.859
       669.636                          43.900



 202708832.573 6                  38574199.188
       -85.840                          40.900



 18  4  4  7 15  0.0000000  0 22G13R11G09G02R12R13G28R19R03G30G07R01
                                R02G05R18E19E07E12E30E02E20S20
 118403074.538 7  92262149.68544  22531355.234                    22531359.012
      2699.297        2103.352          45.300          29.700



 109743767.241 8  85356271.934 7  20537049.156    20537048.914    20537052.617
     -2638.552       -2052.184          48.500          47.500



 122290519.492 7  95291461.492 7  23271145.406                    23271151.746
     -2927.184       -2280.921          45.000          42.200    91320990.672 7
  23271152.594       -2185.888          46.100


 125360272.534 7  97683331.24244  23855273.789                    23855276.145
     -2769.588       -2158.122          42.400          24.200



 103155855.367 7                  19310993.367    19310991.680
      1165.315                          47.100



 122351865.488 5  95162588.604 5  22912574.875    22912573.012    22912577.926
      4374.012        3402.005          34.600          33.600



 120213593.358 7  93673045.06544  22875906.984                    22875910.063
      2866.616        2233.735          43.600          29.300



 125791608.951 6  97837937.401 6  23515415.688    23515414.504    23515417.289
       213.536         166.107          41.100          38.900



 119327975.675 7  92810658.846 7  22291468.328    22291467.441    22291471.645
      3648.596        2837.796          44.700          43.800



 106619099.789 8  83079862.628 8  20288942.563                    20288948.367
      -237.694        -185.215          53.000          50.800    79618204.926 9
  20288948.625        -177.507          56.200


 111966699.145 8  87246806.248 8  21306558.742                    21306562.188
     -1820.211       -1418.344          53.500          48.000



 113757954.660 7  88478434.437 6  21280780.539    21280780.402    21280787.004
     -3033.626       -2359.486          43.100          40.000



 102658269.303 8  79845349.367 8  19238116.492    19238115.523    19238119.230
       939.609         730.824          49.400          48.700



 108337282.444 8  84418695.832 8  20615903.992                    20615907.602
       581.796         453.345          51.900          48.800



 126815795.195 6  98634533.345 6  23756876.719    23756876.816    23756881.367
     -2723.903       -2118.610          41.100          37.800



 136945237.530 6                  26059811.852
      2365.702                          41.500                   102264307.052 6
  26059815.035        1766.589          41.900   104932061.256 6  26059810.816
      1812.676          39.400   103598191.767 7  26059813.668        1789.633
        46.600
 129530174.760 8                  24648772.320
     -1787.108                          48.600                    96727088.621 8
  24648777.219       -1334.529          50.800    99250398.816 8  24648774.730
     -1369.338          49.600    97988748.831 9  24648776.680       -1351.936
        56.100
 139656641.558 6                  26575777.883
     -1219.293                          37.500                   104289048.185 6
  26575780.332        -910.510          40.800   107009627.224 6  26575777.660
      -934.266          37.200   105649340.812 7  26575779.375        -922.383
        44.800
 120553205.614 8                  22940511.484
     -1289.981                          50.800                    90023512.943 8
  22940514.680        -963.297          49.100    92371941.930 8  22940512.852
      -988.428          49.300    91197731.047 9  22940514.504        -975.867
        55.500
 150990807.727 5                  28732600.203
     -2974.772                          31.300                   112752906.199 6
  28732606.016       -2221.417          37.400   115694274.214 5  28732602.637
     -2279.367          34.900   114223589.817 6  28732604.664       -2250.395
        41.800
  62583300.469 7                  11909205.281
       661.714                          43.900



 202711407.271 6                  38574692.813
       -85.836                          39.900



 18  4  4  7 15 30.0000000  0 22G13R11G09G02R12R13G28R19R03G30G07R01
                                R02G05R18E19E07E12E30E02E20S20
 118322180.476 7  92199115.35845  22515961.406                    22515965.090
      2693.834        2099.090          44.700          31.100



 109823216.060 8  85418065.469 7  20551917.633    20551916.684    20551919.969
     -2657.363       -2066.837          49.800          46.300



 122378404.265 7  95359943.062 6  23287869.578                    23287875.590
     -2931.628       -2284.386          43.300          41.800    91386618.835 7
  23287877.203       -2189.203          46.700


 125443453.419 6  97748147.47743  23871102.406                    23871103.922
     -2775.521       -2162.746          40.200          20.600



 103121295.204 7                  19304524.047    19304522.828
      1139.576                          47.300



 122220751.676 5  95060611.245 5  22888021.383    22888019.168    22888024.199
      4367.144        3396.708          35.400          32.300



 120127733.993 7  93606141.67544  22859568.164                    22859572.047
      2857.635        2226.734          42.300          28.200



 125785600.539 6  97833264.265 6  23514292.016    23514291.184    23514293.590
       187.897         146.150          41.300          36.700



 119218572.732 7  92725567.706 7  22271029.547    22271029.367    22271034.438
      3645.095        2835.074          43.900          43.600



 106626486.939 8  83085618.851 8  20290348.156                    20290354.074
      -254.189        -198.072          52.100          50.700    79623721.295 9
  20290354.629        -189.815          56.200


 112021485.597 8  87289496.999 7  21316983.992                    21316986.684
     -1831.788       -1427.372          53.200          46.300



 113849158.619 7  88549370.840 6  21297842.609    21297841.184    21297847.625
     -3046.187       -2369.272          43.900          38.900



 102630353.788 8  79823637.296 8  19232885.250    19232884.750    19232888.523
       922.028         717.142          49.100          48.600



 108320115.319 8  84405318.842 8  20612637.281                    20612640.266
       563.311         438.945          52.900          48.900



 126897757.097 6  98698281.432 6  23772231.461    23772231.324    23772235.605
     -2739.655       -2130.845          40.200          37.500



 136874302.806 6                  26046313.164
      2363.429                          41.500                   102211336.315 7
  26046316.035        1764.900          42.300   104877708.665 6  26046312.988
      1810.934          39.800   103544530.100 7  26046315.031        1787.920
        46.500
 129583894.384 8                  24658994.813
     -1793.941                          48.800                    96767203.890 8
  24658999.723       -1339.630          50.700    99291560.582 8  24658997.141
     -1374.583          48.800    98029387.344 9  24658999.145       -1357.106
        56.000
 139693413.393 6                  26582776.195
     -1231.708                          40.300                   104316507.662 6
  26582778.004        -919.789          40.500   107037803.041 6  26582774.672
      -943.783          38.300   105677158.457 7  26582776.750        -931.778
        44.800
 120592102.701 8                  22947913.078
     -1302.708                          51.100                    90052559.466 8
  22947916.746        -972.804          50.300    92401746.171 8  22947914.402
      -998.176          49.500    91227156.428 9  22947916.227        -985.493
        55.500
 151080098.110 5                  28749590.945
     -2977.767                          30.900                   112819584.024 6
  28749597.387       -2223.655          36.200   115762691.467 5  28749593.727
     -2281.663          32.000   114291137.359 6  28749595.988       -2252.662
        40.400
  62563573.499 7                  11905451.164
       653.777                          44.000



 202713978.466 6                  38575179.406
       -85.518                          39.000



 18  4  4  7 16  0.0000000  0 22G13R11G09G02R12R13G28R19R03G30G07R01
                                R02G05R18E19E07E12E30E02E20S20
 118241451.466 7  92136209.65645  22500599.211                    22500602.969
      2688.336        2094.808          45.200          31.200



 109903227.698 8  85480296.734 7  20566890.609    20566890.133    20566893.336
     -2676.071       -2081.373          49.300          46.600



 122466421.272 7  95428527.724 7  23304618.219                    23304624.906
     -2936.000       -2287.787          43.700          42.300    91452345.785 7
  23304625.992       -2192.460          46.500


 125526810.457 6  97813100.96343  23886964.891                    23886967.164
     -2781.328       -2167.266          40.800          22.300



 103087508.361 7                  19298199.141    19298197.688
      1113.810                          47.600



 122089845.268 6  94958795.204 5  22863505.813    22863503.480    22863509.680
      4360.175        3391.223          36.600          31.600



 120042145.422 7  93539449.29444  22843281.086                    22843284.715
      2848.592        2219.684          44.600          28.500



 125780362.815 6  97829190.483 6  23513313.617    23513312.316    23513314.199
       162.235         126.165          41.100          36.000



 119109276.697 7  92640559.657 7  22250611.797    22250611.500    22250616.477
      3641.479        2832.267          43.800          43.500



 106634369.280 8  83091760.942 8  20291848.109                    20291854.207
      -270.682        -210.928          53.000          51.000    79629607.461 9
  20291854.582        -202.128          56.100


 112076618.870 8  87332457.977 7  21327474.156                    21327476.758
     -1843.303       -1436.337          48.400          44.500



 113940739.944 7  88620600.711 6  21314974.672    21314973.246    21314980.383
     -3058.737       -2379.009          43.200          39.800



 102602965.863 8  79802335.576 8  19227752.336    19227751.367    19227755.125
       904.403         703.416          49.200          48.200



 108303502.895 8  84392374.084 8  20609475.516                    20609479.137
       544.845         424.556          52.500          48.100



 126980189.300 6  98762395.336 6  23787673.898    23787672.234    23787678.137
     -2755.245       -2142.985          39.800          37.700



 136803437.441 7                  26032828.070
      2361.100                          42.900                   102158417.369 7
  26032830.996        1763.161          42.000   104823409.219 6  26032827.293
      1809.158          40.000   103490920.909 7  26032829.836        1786.158
        46.500
 129637819.174 8                  24669256.305
     -1800.757                          48.900                    96807472.373 8
  24669261.395       -1344.721          51.000    99332879.552 8  24669258.676
     -1379.799          49.400    98070181.072 9  24669260.813       -1362.257
        56.200
 139730557.203 6                  26589844.523
     -1244.076                          39.300                   104344244.906 6
  26589845.316        -929.012          39.100   107066263.839 6  26589841.098
      -953.247          36.900   105705257.483 7  26589844.879        -941.133
        43.700
 120631381.072 8                  22955387.906
     -1315.369                          50.700                    90081890.709 8
  22955391.520        -982.257          51.000    92431842.586 8  22955388.563
     -1007.886          48.900    91256870.255 9  22955390.656        -995.068
        55.700
 151169476.901 5                  28766598.656
     -2980.650                          30.900                   112886327.879 5
  28766605.652       -2225.817          35.800   115831176.460 5  28766601.996
     -2283.872          33.400   114358751.779 6  28766604.379       -2254.843
        40.200
  62544085.227 7                  11901742.813
       645.828                          44.200



 202716543.713 6                  38575669.516
       -85.482                          40.700



 18  4  4  7 16 30.0000000  0 22G13R11G09G02R12R13G28R19R03G30G07R01
                                R02G05R18E19E07E12E30E02E20S20
 118160888.070 7  92073432.99045  22485268.758                    22485272.531
      2682.810        2090.506          47.000          30.800



 109983797.911 8  85542962.454 7  20581968.359    20581967.645    20581971.379
     -2694.619       -2095.820          48.000          47.100



 122554569.437 7  95497214.545 6  23321393.070                    23321398.863
     -2940.343       -2291.179          43.900          41.800    91518170.653 7
  23321399.477       -2195.712          46.200


 125610340.448 6  97878189.24044  23902859.984                    23902861.957
     -2787.035       -2171.727          40.500          24.600



 103054494.777 7                  19292018.758    19292016.598
      1088.016                          47.200



 121959150.092 6  94857143.371 5  22839030.508    22839029.703    22839034.621
      4353.112        3385.785          37.000          32.900



 119956830.801 7  93472970.40144  22827046.406                    22827050.098
      2839.436        2212.547          43.700          28.100



 125775895.272 6  97825715.731 6  23512477.953    23512476.652    23512478.691
       136.563         106.213          41.100          36.500



 119000089.379 7  92555636.182 7  22230216.086    22230215.199    22230219.465
      3637.845        2829.441          43.600          43.500



 106642745.426 8  83098287.788 8  20293442.141                    20293448.207
      -287.113        -223.728          53.500          51.100    79635862.363 9
  20293448.406        -214.405          56.000


 112132096.802 8  87375687.548 7  21338032.719                    21338035.859
     -1854.744       -1445.250          53.600          46.500



 114032697.160 7  88692122.952 6  21332176.953    21332176.465    21332183.594
     -3071.223       -2388.735          44.000          39.500



 102576107.070 8  79781445.393 8  19222719.430    19222718.344    19222722.391
       886.758         689.695          49.100          48.500



 108287445.415 8  84379861.760 8  20606419.938                    20606423.469
       526.349         410.137          52.700          49.100



 127063087.542 6  98826871.681 6  23803203.813    23803203.324    23803207.613
     -2770.682       -2154.964          39.500          37.200



 136732641.660 6                  26019355.969
      2358.786                          41.300                   102105550.409 6
  26019358.668        1761.427          41.600   104769163.119 6  26019355.715
      1807.383          40.000   103437364.374 7  26019357.844        1784.404
        46.600
 129691948.496 8                  24679556.703
     -1807.559                          49.000                    96847893.585 8
  24679561.902       -1349.800          50.800    99374355.236 8  24679558.996
     -1385.009          49.400    98111129.520 9  24679561.313       -1367.405
        56.100
 139768071.068 6                  26596982.688
     -1256.373                          36.900                   104372258.514 6
  26596984.504        -938.199          39.400   107095008.246 6  26596982.910
      -962.674          38.300   105733636.486 7  26596983.516        -950.440
        44.400
 120671038.986 8                  22962934.641
     -1327.971                          50.500                    90111505.371 8
  22962937.809        -991.671          50.800    92462229.811 8  22962934.809
     -1017.537          48.600    91286871.202 9  22962937.188       -1004.604
        55.500
 151258942.15514                  28783623.570
     -2983.656                          29.900                   112953136.27015
  28783629.855       -2228.067          34.100   115899727.68215  28783626.621
     -2286.169          30.800   114426431.58716  28783628.984       -2257.120
        38.400
  62524836.155 7                  11898080.156
       637.844                          44.100



 202719103.309 6                  38576144.563
       -85.551                          40.100



 18  4  4  7 17  0.0000000  0 21G13R11G09G02R12R13G28R19R03G30G07R01
                                R02G05R18E19E07E12E30E20S20
 118080491.229 7  92010786.10545  22469969.859                    22469973.074
      2677.207        2086.131          47.000          30.100



 110064923.382 8  85606060.009 7  20597149.719    20597149.711    20597152.957
     -2713.100       -2110.176          49.500          46.700



 122642848.210 7  95566003.148 6  23338191.852                    23338197.809
     -2944.707       -2294.572          44.100          41.800    91584093.040 7
  23338199.363       -2198.968          46.700


 125694040.732 6  97943410.16943  23918787.844                    23918789.348
     -2792.718       -2176.152          40.700          22.000



 103022255.413 7                  19285983.820    19285981.426
      1062.173                          47.200



 121828669.091 6  94755658.205 5  22814595.320    22814593.574    22814600.074
      4345.921        3380.125          36.100          33.700



 119871792.675 7  93406706.92644  22810863.938                    22810867.859
      2830.102        2205.277          44.100          27.600



 125772197.858 6  97822839.984 6  23511784.992    23511784.043    23511789.766
       110.863          86.214          39.400          38.700



 118891013.350 7  92470799.277 7  22209840.188    22209839.184    22209842.383
      3634.049        2826.499          44.300          43.300



 106651614.633 8  83105198.869 8  20295130.078                    20295135.930
      -303.577        -236.553          53.600          51.800    79642485.470 9
  20295136.484        -226.699          56.100


 112187917.609 8  87419184.277 8  21348655.430                    21348659.059
     -1866.209       -1454.187          53.400          48.200



 114125028.737 7  88763936.367 6  21349450.125    21349448.582    21349455.688
     -3083.738       -2398.456          43.000          39.300



 102549779.423 8  79760968.328 8  19217784.891    19217784.156    19217788.254
       869.002         675.887          49.300          48.600



 108271944.312 8  84367782.962 8  20603470.031                    20603473.848
       507.732         395.637          52.600          48.400



 127146447.826 6  98891707.433 6  23818819.688    23818819.082    23818824.672
     -2786.038       -2166.946          38.200          37.300



 136661916.534 6                  26005896.977
      2356.374                          41.600                   102052736.177 6
  26005900.129        1759.624          41.500   104714971.135 6  26005897.223
      1805.530          40.400   103383861.263 7  26005899.301        1782.583
        46.600
 129746282.347 8                  24689896.398
     -1814.413                          49.200                    96888467.534 8
  24689901.637       -1354.917          50.800    99415987.641 8  24689898.871
     -1390.267          49.400    98152232.699 9  24689900.895       -1372.592
        56.100
 139805953.932 6                  26604191.172
     -1268.695                          36.400                   104400547.639 6
  26604191.820        -947.401          40.600   107124035.327 6  26604188.914
      -972.117          36.900   105762294.594 7  26604192.258        -959.757
        44.400
 120711075.247 8                  22970552.758
     -1340.613                          51.000                    90141402.571 8
  22970556.801       -1001.108          50.800    92492906.945 8  22970553.520
     -1027.222          48.600    91317158.370 9  22970556.094       -1014.165
        55.600
  62505827.050 7                  11894462.508
       629.835                          43.600



 202721661.048 6                  38576644.250
       -85.027                          40.500



 18  4  4  7 17 30.0000000  0 21G13R11G09G02R12R13G28R19R03G30G07R01
                                R02G05R18E19E07E12E30E20S20
 118000261.715 7  91948269.60745  22454702.320                    22454705.680
      2671.670        2081.814          47.000          30.600



 110146600.196 8  85669586.428 7  20612434.961    20612434.012    20612437.512
     -2731.343       -2124.368          49.600          46.400



 122731256.843 7  95634892.968 6  23355015.828                    23355021.715
     -2948.996       -2297.911          45.100          41.500    91650112.452 7
  23355022.328       -2202.176          45.700


 125777908.290 6  98008761.46543  23934747.484                    23934749.738
     -2798.233       -2180.442          39.100          22.500



 102990790.423 7                  19280093.305    19280091.852
      1036.397                          47.500



 121698404.517 6  94654341.342 5  22790201.602    22790200.094    22790205.918
      4338.692        3374.497          36.100          31.800



 119787033.521 7  93340660.86444  22794734.367                    22794738.117
      2820.815        2198.034          43.800          27.300



 125769270.591 6  97820563.127 6  23511239.508    23511238.090    23511241.605
        85.193          66.271          40.200          38.200



 118782051.212 7  92386050.991 7  22189485.234    22189484.465    22189488.023
      3630.270        2823.531          44.100          43.200



 106660975.869 9  83112493.331 8  20296911.750                    20296917.012
      -319.911        -249.285          54.000          51.000    79649476.000 9
  20296917.508        -238.897          56.100


 112244079.938 8  87462947.068 7  21359341.008                    21359345.906
     -1877.512       -1462.991          50.500          47.200



 114217733.267 7  88836039.852 6  21366791.375    21366791.355    21366797.539
     -3096.128       -2408.079          43.400          39.100



 102523984.787 8  79740905.819 8  19212951.359    19212950.156    19212954.441
       851.265         662.115          49.800          48.500



 108257000.303 8  84356138.277 8  20600626.133                    20600630.039
       489.186         381.183          52.400          49.400



 127230265.852 6  98956899.198 6  23834521.211    23834520.254    23834526.129
     -2801.204       -2178.727          36.400          37.700



 136591262.743 6                  25992452.414
      2354.029                          41.700                   101999975.235 6
  25992455.109        1757.881          41.600   104660833.831 6  25992452.434
      1803.735          40.400   103330412.143 7  25992454.461        1780.803
        46.800
 129800820.495 8                  24700274.383
     -1821.194                          48.500                    96929194.040 8
  24700279.750       -1359.978          50.800    99457776.581 8  24700277.125
     -1395.463          49.400    98193490.417 9  24700279.113       -1377.717
        56.000
 139844204.283 6                  26611470.078
     -1280.894                          36.900                   104429111.146 6
  26611473.016        -956.508          41.900   107153344.005 6  26611470.063
      -981.464          39.600   105791230.684 7  26611471.375        -968.988
        46.300
 120751488.458 8                  22978243.422
     -1353.111                          50.600                    90171581.247 8
  22978247.102       -1010.441          50.800    92523872.908 8  22978244.195
     -1036.799          48.800    91347730.688 9  22978246.656       -1023.623
        55.600
  62487058.606 7                  11890891.406
       621.782                          44.300



 202724213.675 6                  38577125.297
       -85.134                          40.500



 18  4  4  7 18  0.0000000  0 21G13R11G09G02R12R13G28R19R03G30G07R01
                                R02G05R18E19E07E12E30E20S20
 117920200.363 7  91885884.14245  22439467.336                    22439471.098
      2665.977        2077.383          47.600          31.600



 110228824.789 8  85733538.862 7  20627821.586    20627821.109    20627825.203
     -2749.614       -2138.575          48.600          47.400



 122819794.695 7  95703883.428 7  23371862.727                    23371870.980
     -2953.339       -2301.302          44.800          43.000    91716228.295 7
  23371871.359       -2205.415          46.800


 125861939.917 6  98074240.59744  23950738.039                    23950739.387
     -2803.655       -2184.656          39.000          24.800



 102960100.650 7                  19274348.664    19274346.738
      1010.495                          47.400



 121568360.206 6  94553195.747 5  22765849.797    22765845.824    22765852.586
      4331.183        3368.694          36.300          32.300



 119702556.455 7  93274834.61244  22778658.820                    22778662.266
      2811.313        2190.631          43.300          27.300



 125767113.434 6  97818885.374 6  23510834.188    23510833.238    23510837.574
        59.456          46.260          39.000          38.100



 118673204.848 7  92301392.701 7  22169151.469    22169150.934    22169153.559
      3626.272        2820.445          44.200          42.400



 106670828.242 9  83120170.509 8  20298786.086                    20298792.355
      -336.314        -262.067          54.300          50.900    79656833.296 9
  20298792.438        -251.143          56.200


 112300581.834 8  87506974.506 7  21370094.289                    21370095.508
     -1888.852       -1471.840          52.300          44.100



 114310809.620 7  88908432.540 6  21384204.555    21384203.480    21384210.020
     -3108.530       -2417.757          43.200          39.400



 102498725.443 8  79721259.668 8  19208217.961    19208217.227    19208221.102
       833.305         648.116          49.100          48.400



 108242614.458 8  84344928.522 8  20597889.078                    20597892.633
       470.523         366.642          52.400          49.300



 127314537.420 6  99022443.672 5  23850308.617    23850309.184    23850313.438
     -2816.298       -2190.442          38.300          33.300



 136520681.190 7                  25979021.406
      2351.543                          42.200                   101947268.232 7
  25979023.836        1756.021          42.400   104606751.869 6  25979021.070
      1801.828          41.100   103277017.660 7  25979023.277        1778.922
        46.900
 129855562.795 8                  24710691.516
     -1828.039                          48.700                    96970073.000 8
  24710697.117       -1365.093          50.800    99499721.948 8  24710694.211
     -1400.709          49.200    98234902.582 9  24710696.254       -1382.901
        56.000
 139882820.712 6                  26618819.367
     -1293.103                          37.500                   104457948.082 6
  26618819.820        -965.631          40.800   107182933.213 6  26618817.805
      -990.821          39.400   105820443.751 7  26618819.762        -978.219
        45.400
 120792277.335 8                  22986005.297
     -1365.684                          50.300                    90202040.460 8
  22986008.633       -1019.830          50.800    92555126.710 8  22986006.242
     -1046.431          49.300    91378587.194 9  22986008.438       -1033.133
        55.500
  62468531.643 7                  11887365.523
       613.677                          43.800



 202726759.678 6                  38577616.688
       -84.806                          39.500



 18  4  4  7 18 30.0000000  0 21G13R11G09G02R12R13G28R19R03G30G07R01
                                R02G05R18E19E07E12E30E20S20
 117840308.061 7  91823630.40945  22424264.352                    22424268.180
      2660.321        2072.975          47.400          31.400



 110311593.684 8  85797914.636 7  20643310.523    20643310.164    20643314.094
     -2767.712       -2152.658          49.000          47.000



 122908461.289 7  95772974.263 7  23388736.461                    23388742.422
     -2957.652       -2304.669          44.300          42.900    91782440.336 7
  23388742.980       -2208.638          45.400


 125946132.755 6  98139845.40044  23966759.859                    23966762.094
     -2809.005       -2188.842          41.200          26.300



 102930186.636 7                  19268748.227    19268746.539
       984.596                          47.300



 121438539.462 6  94452224.100 5  22741537.461    22741535.363    22741541.402
      4323.735        3362.844          36.200          34.500



 119618364.146 7  93209230.21944  22762637.664                    22762641.668
      2801.753        2183.183          43.400          27.400



 125765726.551 6  97817806.631 6  23510576.766    23510575.816    23510579.891
        33.773          26.302          39.700          38.100



 118564477.523 7  92216827.003 7  22148839.859    22148839.324    22148842.867
      3622.265        2817.299          43.900          42.600



 106681171.012 8  83128229.808 8  20300754.195                    20300759.945
      -352.676        -274.818          53.200          50.600    79664556.788 9
  20300760.559        -263.358          56.200


 112357421.665 8  87551265.349 7  21380910.984                    21380913.078
     -1900.125       -1480.614          53.000          46.300



 114404256.409 7  88981113.328 6  21401684.656    21401684.168    21401690.930
     -3120.891       -2427.354          43.200          39.600



 102474003.370 8  79702031.378 8  19203584.938    19203584.086    19203588.402
       815.352         634.166          49.300          48.500



 108228787.631 8  84334154.369 8  20595257.938                    20595261.211
       451.837         352.082          52.700          49.400



 127399258.581 6  99088337.901 5  23866180.117    23866179.980    23866183.703
     -2831.262       -2202.080          37.700          34.600



 136450172.888 7                  25965604.109
      2349.077                          42.300                   101894615.945 7
  25965606.414        1754.181          42.300   104552726.032 6  25965604.117
      1799.946          40.700   103223678.596 7  25965606.082        1777.066
        47.000
 129910509.332 8                  24721147.664
     -1834.879                          48.600                    97011104.473 8
  24721152.938       -1370.204          50.600    99541823.806 8  24721149.934
     -1405.943          49.300    98276469.248 9  24721152.129       -1388.068
        56.000
 139921802.175 6                  26626236.664
     -1305.249                          36.200                   104487057.585 6
  26626238.109        -974.702          40.600   107212802.101 6  26626236.000
     -1000.127          40.000   105849932.949 7  26626237.695        -987.414
        45.100
 120833440.721 8                  22993838.398
     -1378.171                          51.000                    90232779.340 8
  22993841.715       -1029.151          50.000    92586667.475 8  22993839.840
     -1056.002          49.400    91409727.016 9  22993841.551       -1042.575
        55.500
  62450247.332 7                  11883885.992
       605.588                          43.600



 202729302.912 6                  38578092.750
       -84.609                          38.900



 18  4  4  7 19  0.0000000  0 21G13R11G09G02R12R13G28R19R03G30G07R01
                                R02G05R18E19E07E12E30E20S20
 117760585.748 7  91761509.13845  22409093.898                    22409097.637
      2654.627        2068.530          47.800          31.300



 110394903.063 8  85862710.821 7  20658901.188    20658900.355    20658903.180
     -2785.692       -2166.654          49.300          46.100



 122997255.939 7  95842164.827 7  23405633.508                    23405640.219
     -2961.908       -2307.972          45.000          42.600    91848747.951 7
  23405640.363       -2211.812          46.300


 126030484.113 6  98205573.65944  23982810.297                    23982812.133
     -2814.268       -2192.931          41.000          24.500



 102901048.542 7                  19263293.578    19263291.773
       958.742                          47.200



 121308945.112 6  94351428.517 5  22717267.406    22717266.836    22717271.898
      4316.116        3356.997          36.100          34.200



 119534459.382 7  93143849.88944  22746671.578                    22746674.816
      2792.135        2175.695          44.200          28.100



 125765109.468 6  97817326.662 6  23510462.414    23510460.059    23510463.016
         8.130           6.341          40.500          38.100



 118455871.297 7  92132355.518 7  22128551.047    22128549.809    22128554.887
      3618.181        2814.125          43.400          44.200



 106692003.233 8  83136670.496 8  20302815.859                    20302821.391
      -368.991        -287.531          53.700          51.200    79672645.782 9
  20302821.711        -275.544          56.100


 112414597.822 8  87595818.169 7  21391790.125                    21391794.621
     -1911.312       -1489.332          50.000          47.000



 114498072.195 7  89054081.118 6  21419235.391    21419234.434    21419240.754
     -3133.155       -2436.888          42.600          39.500



 102449820.661 8  79683222.599 8  19199053.039    19199052.422    19199056.254
       797.355         620.146          49.500          48.700



 108215521.050 8  84323816.754 8  20592733.648                    20592737.051
       433.153         337.520          52.800          48.700



 127484425.099 5  99154578.531 6  23882133.852    23882132.305    23882138.680
     -2846.088       -2213.618          35.700          36.500



 136379738.751 7                  25952200.797
      2346.587                          42.600                   101842019.024 7
  25952203.266        1752.318          42.600   104498757.017 6  25952200.781
      1798.035          40.600   103170395.628 7  25952202.691        1775.179
        47.100
 129965659.853 8                  24731642.766
     -1841.657                          48.300                    97052288.275 8
  24731647.281       -1375.260          50.300    99584081.973 8  24731644.797
     -1411.137          48.600    98318190.232 9  24731646.891       -1393.201
        55.800
 139961147.30215                  26633723.398
     -1317.242                          33.200                   104516438.65716
  26633725.344        -983.655          39.000   107242949.60516  26633723.281
     -1009.325          38.700   105879697.23817  26633724.543        -996.479
        44.500
 120874977.238 8                  23001742.680
     -1390.576                          50.400                    90263796.871 8
  23001745.852       -1038.414          50.100    92618494.146 8  23001744.023
     -1065.504          50.200    91441149.119 9  23001745.594       -1051.962
        55.500
  62432206.216 7                  11880453.297
       597.470                          44.700



 202731842.453 6                  38578577.453
       -84.655                          40.100



 18  4  4  7 19 30.0000000  0 21G13R11G09G02R12R13G28R19R03G30G07R01
                                R02G05R18E19E07E12E30E20S20
 117681034.192 7  91699520.92245  22393955.320                    22393958.922
      2648.943        2064.113          47.200          31.900



 110478749.422 8  85927924.669 7  20674591.625    20674590.793    20674594.441
     -2803.502       -2180.508          48.900          46.500



 123086178.006 7  95911454.674 7  23422554.945                    23422562.156
     -2966.115       -2311.260          45.200          42.700    91915150.734 7
  23422562.598       -2214.953          46.800


 126114991.165 6  98271423.26043  23998892.008                    23998894.305
     -2819.375       -2196.917          41.200          22.900



 102872687.104 7                  19257983.734    19257982.398
       932.861                          47.100



 121179580.429 5  94250811.573 5  22693041.305    22693039.207    22693046.910
      4308.417        3350.983          34.200          35.300



 119450845.079 7  93078695.91144  22730760.344                    22730763.852
      2782.445        2168.126          45.400          27.700



 125765262.216 6  97817445.469 6  23510490.742    23510489.441    23510490.902
       -17.459         -13.601          40.800          36.800



 118347389.089 7  92047980.488 7  22108286.297    22108284.824    22108289.230
      3614.050        2810.909          43.900          43.800



 106703323.987 9  83145491.857 8  20304970.094                    20304975.891
      -385.213        -300.161          54.100          51.000    79681099.582 9
  20304975.973        -287.659          56.100


 112472108.394 8  87640631.504 7  21402734.258                    21402738.461
     -1922.398       -1497.966          51.000          47.000



 114592255.894 7  89127335.069 6  21436855.125    21436853.816    21436860.988
     -3145.371       -2446.377          43.100          40.100



 102426179.497 8  79664835.020 8  19194622.414    19194621.445    19194625.383
       779.281         606.113          49.000          48.500



 108202815.413 8  84313916.249 8  20590315.305                    20590318.652
       414.474         322.969          52.200          48.600



 127570032.924 6  99221162.354 5  23898171.492    23898171.355    23898174.379
     -2860.656       -2224.991          37.400          33.500



 136309379.592 7                  25938812.242
      2344.106                          43.400                   101789478.099 7
  25938814.648        1750.470          42.100   104444845.452 6  25938811.273
      1796.132          40.900   103117169.387 7  25938813.777        1773.302
        47.100
 130021014.371 8                  24742176.016
     -1848.421                          48.600                    97093624.409 8
  24742181.434       -1380.311          50.400    99626496.445 8  24742178.762
     -1416.321          49.200    98360065.537 9  24742180.758       -1398.316
        55.800
 140000854.721 6                  26641280.477
     -1329.397                          37.600                   104546090.237 6
  26641281.285        -992.738          40.600   107273374.745 6  26641278.566
     -1018.637          37.500   105909735.601 7  26641281.133       -1005.687
        44.700
 120916885.645 8                  23009717.453
     -1402.920                          50.800                    90295092.112 8
  23009720.938       -1047.637          50.000    92650605.773 8  23009718.922
     -1074.965          49.400    91472852.547 9  23009720.367       -1061.299
        55.500
  62414409.195 7                  11877066.391
       589.299                          43.700



 202734378.932 6                  38579065.734
       -84.547                          39.700



 18  4  4  7 20  0.0000000  0 21G13R11G09G02R12R13G28R19R03G30G07R01
                                R02G05R18E19E07E12E30E20S20
 117601654.213 7  91637666.39545  22378849.883                    22378853.805
      2643.235        2059.672          47.000          32.400



 110563129.075 8  85993553.262 7  20690382.211    20690381.734    20690385.602
     -2821.144       -2194.238          48.400          47.000



 123175226.845 7  95980843.340 6  23439500.453                    23439507.051
     -2970.303       -2314.522          45.700          41.300    91981648.169 7
  23439506.785       -2218.085          45.300


 126199650.773 6  98337391.75943  24015001.563                    24015004.625
     -2824.391       -2200.810          39.000          20.600



 102845102.354 7                  19252820.063    19252818.961
       906.988                          47.200



 121050448.840 6  94150375.956 5  22668860.359    22668857.793    22668864.813
      4300.653        3344.949          36.200          35.400



 119367523.969 7  93013770.38544  22714904.086                    22714908.734
      2772.653        2160.500          45.200          28.700



 125766184.441 6  97818162.753 6  23510662.469    23510661.875    23510664.902
       -43.121         -33.511          41.000          37.700



 118239032.834 7  91963703.394 7  22088044.734    22088043.496    22088047.258
      3609.836        2807.660          45.800          43.200



 106715132.240 9  83154693.092 8  20307217.219                    20307222.512
      -401.433        -312.804          54.100          51.600    79689917.436 9
  20307223.008        -299.772          56.100


 112529951.322 8  87685703.951 7  21413742.023                    21413743.941
     -1933.420       -1506.565          53.700          44.600



 114686805.986 7  89200873.988 6  21454542.320    21454541.832    21454548.477
     -3157.514       -2455.837          43.600          40.000



 102403081.725 8  79646870.065 8  19190293.922    19190292.953    19190297.031
       761.166         592.022          49.000          49.100



 108190671.379 8  84304453.363 8  20588005.023                    20588007.691
       395.763         308.388          52.600          49.000



 127656077.828 6  99288086.079 5  23914290.836    23914290.465    23914295.395
     -2875.113       -2236.222          36.000          33.600



 136239096.276 7                  25925437.531
      2341.564                          43.500                   101736993.807 7
  25925439.434        1748.571          42.300   104390992.011 6  25925436.715
      1794.186          40.200   103064000.521 7  25925439.348        1771.373
        46.700
 130076572.629 8                  24752748.258
     -1855.205                          48.300                    97135112.689 8
  24752753.492       -1385.378          50.700    99669067.036 8  24752751.145
     -1421.514          49.400    98402094.970 9  24752753.164       -1403.447
        55.900
 140040922.899 6                  26648904.930
     -1341.383                          38.500                   104576011.252 6
  26648906.715       -1001.682          40.600   107304076.328 6  26648903.996
     -1027.809          39.100   105940046.897 7  26648906.070       -1014.743
        45.500
 120959164.513 8                  23017762.891
     -1415.222                          50.600                    90326663.984 8
  23017766.699       -1056.821          50.200    92683001.254 8  23017764.121
     -1084.388          48.400    91504836.225 9  23017765.824       -1070.604
        55.500
  62396856.958 7                  11873726.477
       581.140                          42.800



 202736915.248 6                  38579543.875
       -84.160                          40.200



 18  4  4  7 20 30.0000000  0 22G15G13R11G09G02R12R13G28R19R03G30G07
                                R01R02G05R18E19E07E12E30E20S20
 132594528.784 5 103320406.305 5  25231895.875
      3363.079        2620.576          33.100          32.500



 117522446.794 7  91575946.34345  22363777.383                    22363780.852
      2637.419        2055.133          46.700          31.400



 110648038.178 8  86059593.639 7  20706272.258    20706271.543    20706275.145
     -2838.815       -2207.989          49.200          46.700



 123264401.655 7  96050330.137 6  23456469.695                    23456476.777
     -2974.551       -2317.822          45.600          41.300    92048239.716 7
  23456477.098       -2221.256          46.400


 126284459.959 6  98403476.77943  24031141.430                    24031142.422
     -2829.401       -2204.723          39.400          20.100



 102818294.658 7                  19247802.359    19247800.555
       881.038                          47.000



 120921552.726 5  94050123.499 5  22644721.328    22644719.699    22644726.402
      4292.667        3338.729          35.700          35.400



 119284498.994 7  92949075.61644  22699104.734                    22699108.895
      2762.677        2152.732          46.000          28.800



 125767875.618 6  97819478.122 6  23510978.070    23510978.531    23510980.566
       -68.795         -53.493          40.900          37.000



 118130805.435 7  91879526.546 7  22067827.672    22067825.848    22067829.387
      3605.439        2804.214          45.800          43.400



 106727426.996 8  83164273.420 8  20309557.070                    20309562.445
      -417.683        -325.467          53.000          50.900    79699098.579 9
  20309563.176        -311.900          56.000


 112588125.291 8  87731034.370 7  21424811.180                    21424814.684
     -1944.470       -1515.168          50.900          45.400



 114781720.810 7  89274696.602 6  21472298.711    21472296.934    21472303.438
     -3169.741       -2465.340          43.400          39.600



 102380529.199 8  79629329.220 8  19186068.023    19186066.938    19186071.020
       742.908         577.812          49.300          48.700



 108179090.196 8  84295429.053 8  20585800.766                    20585803.988
       376.937         293.713          52.800          48.900



 127742555.560 5  99355346.531 5  23930490.469    23930491.035    23930494.430
     -2889.569       -2247.418          35.900          33.600



 136168889.583 7                  25912077.297
      2338.937                          42.300                   101684566.730 7
  25912080.395        1746.609          42.300   104337197.261 6  25912077.816
      1792.172          40.500   103010889.602 7  25912079.414        1769.392
        47.000
 130132334.425 8                  24763359.875
     -1862.036                          48.500                    97176752.955 8
  24763365.152       -1390.482          50.800    99711793.574 8  24763362.480
     -1426.756          49.600    98444278.373 9  24763364.258       -1408.615
        55.900
 140081350.496 6                  26656597.938
     -1353.409                          39.300                   104606200.682 6
  26656599.020       -1010.667          39.700   107335053.292 6  26656596.297
     -1037.025          39.100   105970630.097 7  26656598.961       -1023.846
        44.600
 121001812.467 8                  23025878.164
     -1427.562                          50.500                    90358511.464 8
  23025882.715       -1066.032          50.300    92715679.553 8  23025879.246
     -1093.847          48.800    91537099.118 9  23025881.668       -1079.939
        55.700
  62379550.244 7                  11870433.094
       572.874                          43.300



 202739448.434 6                  38580025.797
       -84.450                          40.200



 18  4  4  7 21  0.0000000  0 21G13R11G09G02R12R13G28R19R03G30G07R01
                                R02G05R18E19E07E12E30E20S20
 117443412.551 7  91514361.23445  22348737.125                    22348740.773
      2631.694        2050.665          44.900          31.800



 110733473.085 8  86126042.980 7  20722260.078    20722259.836    20722262.922
     -2856.269       -2221.532          48.600          45.900



 123353702.046 7  96119914.809 6  23473463.055                    23473469.867
     -2978.677       -2321.053          44.400          40.900    92114924.990 7
  23473471.305       -2224.329          47.000


 126369415.999 6  98469676.28543  24047307.188                    24047310.473
     -2834.189       -2208.463          37.100          20.900



 102792264.841 7                  19242928.672    19242927.453
       855.139                          46.600



 120792895.758 5  93950057.008 5  22620627.836    22620626.328    22620633.219
      4284.679        3332.537          34.900          35.000



 119201772.681 7  92884613.57545  22683362.898                    22683367.391
      2752.711        2144.979          45.700          30.000



 125770335.891 6  97821391.699 6  23511437.766    23511436.699    23511439.520
       -94.384         -73.419          40.300          38.500



 118022709.421 7  91795451.885 7  22047633.648    22047632.645    22047636.445
      3601.077        2800.816          44.400          42.800



 106740207.398 8  83174232.176 8  20311988.602                    20311994.121
      -433.812        -338.037          53.400          50.500    79708642.388 9
  20311994.730        -323.950          56.200


 112646628.585 8  87776621.284 7  21435944.148                    21435948.535
     -1955.354       -1523.654          50.700          47.200



 114876999.370 7  89348802.137 6  21490120.891    21490120.520    21490127.656
     -3181.778       -2474.719          43.000          39.800



 102358524.020 8  79612214.054 8  19181944.141    19181942.703    19181947.273
       724.663         563.635          48.900          48.700



 108168072.584 8  84286843.895 8  20583703.945                    20583707.824
       358.185         279.103          52.400          49.100



 127829462.074 5  99422940.384 5  23946771.305    23946771.402    23946776.309
     -2903.718       -2258.484          35.400          35.300



 136098760.579 7                  25898732.328
      2336.394                          43.600                   101632197.666 6
  25898734.527        1744.708          41.900   104283462.054 6  25898732.086
      1790.222          40.900   102957837.469 7  25898734.195        1767.466
        47.100
 130188299.711 8                  24774009.539
     -1868.764                          48.800                    97218545.182 8
  24774014.910       -1395.503          50.400    99754676.041 8  24774011.816
     -1431.909          49.300    98486615.723 9  24774014.227       -1413.706
        55.800
 140122136.275 6                  26664359.539
     -1365.262                          38.400                   104636657.583 6
  26664361.313       -1019.515          38.600   107366304.704 6  26664358.828
     -1046.115          38.600   106001484.250 7  26664359.797       -1032.812
        44.100
 121044828.285 8                  23034063.930
     -1439.757                          50.100                    90390633.639 8
  23034068.051       -1075.141          50.900    92748639.710 8  23034064.953
     -1103.187          48.300    91569640.286 9  23034067.227       -1089.167
        55.700
  62362490.021 7                  11867186.617
       564.696                          43.200



 202741978.584 6                  38580506.188
       -83.974                          39.800



 18  4  4  7 21 30.0000000  0 22G15G13R11G09G02R12R13G28R19R03G30G07
                                R01R02G05R18E19E07E12E30E20S20
 132392776.851 5 103163198.361 5  25193503.250
      3362.056        2619.775          33.800          32.700



 117364552.655 7  91452911.97245  22333730.938                    22333734.422
      2625.902        2046.160          45.800          31.500



 110819430.176 8  86192898.514 7  20738345.938    20738345.340    20738348.715
     -2873.516       -2234.975          48.400          46.100



 123443127.070 7  96189596.622 6  23490480.008                    23490486.457
     -2982.770       -2324.240          45.100          41.800    92181703.370 7
  23490487.484       -2227.392          45.900


 126454515.888 6  98535987.83643  24063501.859                    24063503.797
     -2838.898       -2212.116          37.900          19.300



 102767012.607 7                  19238201.398    19238199.828
       829.253                          46.800



 120664480.870 5  93850178.782 5  22596580.375    22596578.984    22596584.711
      4276.616        3326.270          35.400          34.100



 119119347.547 7  92820386.24644  22667678.320                    22667682.281
      2742.661        2137.134          45.100          29.900



 125773564.434 6  97823902.791 6  23512040.172    23512040.164    23512043.805
      -119.901         -93.273          39.900          37.900



 117914746.776 7  91711480.951 7  22027464.813    22027463.809    22027467.484
      3596.647        2797.366          44.700          43.300



 106753472.225 8  83184568.393 8  20314512.859                    20314518.395
      -449.885        -350.558          53.000          51.500    79718547.927 9
  20314519.008        -335.950          56.100


 112705459.155 8  87822463.253 7  21447139.969                    21447143.352
     -1966.226       -1532.123          52.600          46.200



 114972639.821 7  89423189.102 6  21508012.750    21508012.262    21508019.273
     -3193.794       -2484.042          43.200          39.500



 102337067.846 8  79595525.915 8  19177923.008    19177922.273    19177926.383
       706.387         549.410          49.300          49.100



 108157618.871 8  84278698.134 8  20581715.102                    20581718.617
       339.407         264.473          52.100          49.500



 127916792.907 5  99490864.394 5  23963131.891    23963130.816    23963135.957
     -2917.796       -2269.425          35.100          34.300



 136028709.932 7                  25885402.352
      2333.776                          43.100                   101579887.119 7
  25885404.762        1742.755          42.400   104229786.889 6  25885402.371
      1788.220          41.400   102904844.611 7  25885404.156        1765.490
        47.400
 130244468.163 8                  24784697.773
     -1875.487                          48.600                    97260489.127 8
  24784702.875       -1400.526          50.400    99797714.173 8  24784699.969
     -1437.055          49.100    98529106.764 9  24784702.586       -1418.795
        55.700
 140163278.559 6                  26672188.648
     -1377.080                          38.500                   104667380.704 6
  26672190.215       -1028.333          38.500   107397829.277 6  26672186.840
     -1055.160          37.700   106032608.104 7  26672188.926       -1041.754
        43.600
 121088210.365 8                  23042319.336
     -1451.891                          51.300                    90423029.329 8
  23042323.328       -1084.204          50.900    92781880.513 8  23042320.094
     -1112.484          48.500    91602458.530 9  23042322.824       -1098.341
        55.600
  62345676.827 7                  11863986.797
       556.488                          43.600



 202744504.461 6                  38580992.313
       -84.155                          39.800



 18  4  4  7 22  0.0000000  0 22G15G13R11G09G02R12R13G28R19R03G30G07
                                R01R02G05R18E19E07E12E30E20S20
 132291927.005 4 103084614.078 5  25174310.180
      3361.417        2619.289          28.900          31.000



 117285867.822 7  91391599.12745  22318757.836                    22318761.277
      2620.014        2041.565          44.300          31.500



 110905905.462 8  86260157.037 7  20754528.008    20754527.531    20754531.230
     -2890.791       -2248.391          49.000          46.600



 123532676.085 7  96259375.024 6  23507520.836                    23507527.789
     -2986.951       -2327.500          45.500          41.900    92248574.336 7
  23507528.758       -2230.515          46.600


 126539756.780 6  98602409.28443  24079722.617                    24079724.164
     -2843.550       -2215.748          38.800          18.600



 102742538.172 7                  19233619.859    19233618.641
       803.307                          47.500



 120536310.862 6  93750491.063 5  22572579.602    22572577.270    22572582.438
      4268.381        3319.839          36.900          34.400



 119037226.683 7  92756395.97644  22652051.133                    22652054.207
      2732.424        2129.166          43.800          29.900



 125777560.818 6  97827011.078 6  23512788.844    23512787.895    23512790.430
      -145.580        -113.246          40.000          37.600



 117806920.441 7  91627616.008 7  22007322.023    22007321.137    22007325.699
      3591.975        2793.771          45.000          43.400



 106767220.440 8  83195281.290 8  20317129.289                    20317134.977
      -466.040        -363.147          53.200          51.100    79728814.458 9
  20317135.531        -348.021          56.100


 112764614.986 8  87868558.736 7  21458396.297                    21458398.891
     -1977.090       -1540.590          50.900          45.200



 115068640.915 7  89497856.578 6  21525973.125    21525971.230    21525978.469
     -3205.807       -2493.391          42.600          38.900



 102316162.570 8  79579266.270 8  19174005.586    19174004.969    19174008.980
       688.006         535.108          48.800          49.200



 108147730.381 8  84270992.802 8  20579833.172                    20579836.852
       320.516         249.752          52.000          49.300



 128004543.677 5  99559114.910 5  23979572.125    23979569.641    23979573.926
     -2931.735       -2280.198          35.400          33.600



 135958738.445 7                  25872087.336
      2331.109                          42.700                   101527635.690 7
  25872089.195        1740.765          42.300   104176172.386 7  25872087.930
      1786.180          42.200   102851911.648 7  25872089.105        1763.466
        47.400
 130300839.539 8                  24795425.453
     -1882.302                          48.900                    97302584.605 8
  24795430.438       -1405.613          50.500    99840907.801 8  24795427.484
     -1442.279          49.500    98571751.312 9  24795429.773       -1423.945
        55.700
 140204775.880 6                  26680085.211
     -1388.906                          36.800                   104698368.964 6
  26680086.078       -1037.177          38.300   107429625.919 6  26680084.531
     -1064.226          37.000   106064000.552 7  26680085.781       -1050.709
        43.400
 121131957.310 8                  23050644.523
     -1464.088                          51.300                    90455697.491 8
  23050647.871       -1093.314          50.000    92815400.900 8  23050645.246
     -1121.836          49.000    91635552.805 9  23050647.559       -1107.572
        55.400
  62329111.330 7                  11860834.906
       548.216                          43.500



 202747023.289 6                  38581469.469
       -83.820                          39.900



 18  4  4  7 22 30.0000000  0 22G15G13R11G09G02R12R13G28R19R03G30G07
                                R01R02G05R18E19E07E12E30E20S20
 132191096.488 5 103006044.802 5  25155125.391
      3360.754        2618.768          34.000          34.900



 117207358.887 7  91330423.32945  22303818.438                    22303822.129
      2614.129        2036.987          46.000          32.400



 110992895.412 8  86327815.873 7  20770807.320    20770807.078    20770810.723
     -2907.906       -2261.716          49.000          46.800



 123622348.581 7  96329249.645 6  23524585.117                    23524591.301
     -2991.063       -2330.702          44.700          40.500    92315537.495 7
  23524592.973       -2233.586          46.300


 126625135.413 5  98668938.08242  24095970.234                    24095971.020
     -2848.150       -2219.318          35.600          16.900



 102718841.385 7                  19229184.094    19229182.289
       777.374                          47.100



 120408389.306 6  93650996.550 5  22548622.617    22548621.227    22548626.766
      4260.057        3313.387          38.200          33.800



 118955412.538 7  92692644.75444  22636482.383                    22636486.207
      2722.171        2121.151          45.300          28.600



 125782324.807 6  97830716.410 6  23513679.367    23513677.949    23513681.289
      -171.173        -133.130          40.000          39.400



 117699233.013 7  91543859.147 7  21987205.625    21987205.207    21987209.410
      3587.345        2790.132          44.700          44.100



 106781451.148 8  83206370.142 8  20319837.117                    20319842.984
      -482.114        -375.673          53.000          51.200    79739441.274 9
  20319843.301        -360.019          56.100


 112824094.704 8  87914906.546 7  21469714.680                    21469718.109
     -1987.845       -1548.968          50.700          44.500



 115165001.088 7  89572803.371 6  21543998.813    21543997.621    21544003.992
     -3217.783       -2502.722          42.100          39.300



 102295810.491 8  79563436.854 8  19170191.273    19170191.012    19170194.973
       669.486         520.712          49.200          48.700



 108138407.400 8  84263728.139 8  20578059.094                    20578062.637
       301.665         235.066          52.400          48.600



 128092710.282 5  99627689.033 5  23996085.273    23996085.840    23996090.605
     -2945.515       -2290.918          32.500          31.000



 135888847.223 7                  25858787.375
      2328.420                          43.400                   101475444.197 7
  25858789.914        1738.754          42.600   104122619.382 6  25858787.195
      1784.113          41.500   102799039.400 7  25858789.168        1761.430
        47.600
 130357413.886 8                  24806191.094
     -1889.073                          48.800                    97344831.661 8
  24806195.992       -1410.669          50.500    99884256.960 8  24806193.598
     -1447.471          49.100    98614549.421 9  24806195.512       -1429.072
        55.700
 140246627.090 6                  26688049.258
     -1400.675                          36.600                   104729621.407 6
  26688050.262       -1045.957          38.300   107461693.678 6  26688046.980
     -1073.242          36.100   106095660.656 7  26688049.938       -1059.603
        42.600
 121176067.905 8                  23059038.344
     -1476.205                          51.000                    90488637.222 8
  23059041.199       -1102.357          49.800    92849199.919 8  23059039.324
     -1131.116          49.100    91668922.180 9  23059041.297       -1116.737
        55.300
  62312794.629 7                  11857729.688
       539.866                          43.500



 202749536.380 6                  38581950.984
       -83.736                          40.500



 18  4  4  7 23  0.0000000  0 22G15G13R11G09G02R12R13G28R19R03G30G07
                                R01R02G05R18E19E07E12E30E20S20
 132090285.868 5 102927491.080 5  25135940.703                    25135945.293
      3359.991        2618.169          34.900          31.800



 117129026.538 7  91269385.14545  22288911.414                    22288915.078
      2608.207        2032.375          46.400          32.100



 111080396.071 8  86395871.914 7  20787181.891    20787180.824    20787184.184
     -2924.869       -2274.892          49.500          47.000



 123712143.711 7  96399219.848 6  23541673.055                    23541678.559
     -2995.150       -2333.882          45.800          41.700    92382592.255 7
  23541679.992       -2236.638          46.000


 126710649.004 6  98735571.95743  24112241.180                    24112244.293
     -2852.616       -2222.806          36.500          19.000



 102695922.832 7                  19224893.422    19224891.852
       751.408                          46.700



 120280719.289 6  93551697.652 5  22524715.703    22524712.551    22524717.543
      4251.586        3306.764          38.400          34.000



 118873908.099 7  92629134.82744  22620972.383                    22620976.621
      2711.788        2113.076          45.600          29.600



 125787855.604 6  97835018.118 6  23514713.344    23514712.867    23514716.965
      -196.719        -153.004          39.100          40.400



 117591686.911 7  91460212.179 7  21967114.031    21967114.203    21967118.574
      3582.563        2786.436          44.800          44.000



 106796163.220 8  83217834.098 8  20322636.633                    20322642.641
      -498.140        -388.166          53.200          51.100    79750427.558 9
  20322643.254        -371.990          56.100


 112883896.615 8  87961505.431 7  21481095.047                    21481098.688
     -1998.581       -1557.342          52.500          46.200



 115261718.949 6  89648028.322 6  21562091.961    21562090.652    21562097.551
     -3229.667       -2511.964          41.900          38.700



 102276013.003 8  79548038.790 8  19166481.453    19166480.719    19166485.023
       650.961         506.311          49.100          49.300



 108129650.947 8  84256904.922 8  20576392.836                    20576396.090
       282.718         220.299          51.800          48.900



 128181288.586 5  99696583.064 5  24012681.898    24012681.410    24012686.055
     -2959.196       -2301.543          35.100          31.000



 135819037.047 7                  25845503.188
      2325.682                          42.600                   101423313.221 7
  25845505.484        1736.711          42.600   104069128.476 6  25845502.766
      1782.020          40.600   102746228.455 7  25845505.023        1759.367
        47.500
 130414190.879 8                  24816995.102
     -1895.840                          48.300                    97387230.032 8
  24817000.324       -1415.718          50.600    99927761.377 8  24816997.652
     -1452.658          49.000    98657500.817 9  24816999.797       -1434.189
        55.700
 140288830.543 6                  26696080.547
     -1412.461                          38.200                   104761136.978 6
  26696082.332       -1054.761          38.900   107494031.373 6  26696078.813
     -1082.275          36.300   106127587.286 7  26696080.840       -1068.514
        43.300
 121220540.618 8                  23067501.047
     -1488.263                          50.600                    90521847.365 8
  23067504.609       -1111.363          49.800    92883276.403 8  23067502.543
     -1140.357          49.500    91702565.495 9  23067504.203       -1125.861
        55.600
  62296727.323 7                  11854672.016
       531.514                          43.600



 202752045.821 6                  38582421.609
       -83.451                          40.600



 18  4  4  7 23 30.0000000  0 23G27G15G13R11G09G02R12R13G28R19R03G30
                                G07R01R02G05R18E19E07E12E30E20S20
 133540786.003 5 104057811.986 5  25411973.875
       685.112         533.853          30.500          30.400    99722074.075 5
  25411983.027         511.620          35.400


 131989496.044 5 102848953.526 4  25116760.672                    25116765.316
      3359.295        2617.637          35.900          28.600



 117050872.178 7  91208485.68045  22274039.508                    22274042.672
      2602.244        2027.717          46.900          31.400



 111168404.121 8  86464322.625 7  20803651.398    20803650.449    20803653.949
     -2941.790       -2288.067          48.600          46.100



 123802061.221 7  96469285.380 7  23558783.352                    23558790.266
     -2999.260       -2337.080          45.700          42.300    92449738.398 7
  23558791.055       -2239.707          46.300


 126796294.767 6  98802308.91742  24128541.102                    24128541.895
     -2856.988       -2226.252          36.700          16.300



 102673782.901 7                  19220748.461    19220746.535
       725.426                          47.200



 120153303.741 6  93452596.664 5  22500854.945    22500851.676    22500856.727
      4243.055        3300.181          37.900          32.600



 118792716.186 7  92565868.42344  22605521.570                    22605526.262
      2701.292        2104.906          44.300          27.700



 125794153.093 6  97839916.127 6  23515891.492    23515889.957    23515893.430
      -222.303        -172.897          39.300          39.100



 117484284.942 7  91376677.302 7  21947050.773    21947049.887    21947054.109
      3577.684        2782.659          45.400          44.100



 106811355.904 8  83229672.547 8  20325527.539                    20325533.629
      -514.180        -400.653          53.600          51.100    79761772.740 9
  20325533.887        -383.962          56.000


 112944018.867 8  88008353.919 7  21492535.891                    21492539.656
     -2009.248       -1565.652          51.600          46.000



 115358793.119 7  89723530.455 6  21580250.133    21580249.996    21580257.293
     -3241.530       -2521.219          42.500          37.800



 102256772.801 8  79533074.174 8  19162875.625    19162875.246    19162879.129
       632.338         491.832          49.000          49.200



 108121462.189 8  84250524.063 8  20574834.789                    20574837.934
       263.772         205.542          52.500          48.700



 128270274.687 6  99765794.556 4  24029351.094    24029350.605    24029353.773
     -2972.726       -2312.144          36.900          24.600



 135749309.072 7                  25832234.641
      2322.900                          43.200                   101371243.643 7
  25832236.629        1734.633          42.600   104015700.558 7  25832234.473
      1779.882          42.100   102693479.706 7  25832236.031        1757.259
        47.700
 130471170.612 8                  24827837.961
     -1902.616                          48.100                    97429779.803 8
  24827842.988       -1420.784          50.100    99971421.146 8  24827840.504
     -1457.851          48.800    98700605.587 9  24827842.770       -1439.318
        55.500
 140331385.023 6                  26704177.938
     -1424.135                          38.600                   104792914.623 6
  26704179.879       -1063.477          39.600   107526638.047 6  26704177.301
     -1091.224          37.700   106159779.445 7  26704178.938       -1077.348
        44.000
 121265374.416 8                  23076032.508
     -1500.289                          50.200                    90555327.142 8
  23076036.184       -1120.344          49.900    92917629.554 8  23076034.027
     -1149.566          48.900    91736481.959 9  23076035.781       -1134.959
        55.400
  62280910.488 7                  11851662.703
       523.124                          43.700



 202754553.678 6                  38582893.484
       -83.223                          39.400



 18  4  4  7 24  0.0000000  0 23G27G15G13R11G09G02R12R13G28R19R03G30
                                G07R01R02G05R18E19E07E12E30E20S20
 133520501.966 5 104042006.207 5  25408115.406
       667.716         520.305          31.000          32.300    99706926.901 6
  25408122.746         498.623          39.000


 131888727.403 6 102770432.465 4  25097585.242                    25097590.059
      3358.619        2617.107          37.900          28.600



 116972896.013 7  91147725.02645  22259200.820                    22259203.965
      2596.318        2023.105          45.900          31.800



 111256915.243 8  86533164.589 7  20820214.000    20820214.344    20820217.824
     -2958.434       -2301.010          48.500          46.400



 123892099.784 7  96539445.283 6  23575916.984                    23575922.414
     -3003.198       -2340.157          45.800          41.300    92516974.911 7
  23575924.262       -2242.648          46.100


 126882069.374 5  98869146.23242  24144862.352                    24144864.871
     -2861.142       -2229.455          33.800          14.800



 102652421.040 7                  19216749.383    19216747.930
       699.555                          46.800



 120026145.218 6  93353695.618 5  22477041.141    22477039.512    22477043.402
      4234.489        3293.471          36.500          31.900



 118711838.691 7  92502847.05444  22590131.297                    22590135.734
      2690.852        2096.764          44.700          28.500



 125801216.039 6  97845409.573 6  23517212.609    23517210.137    23517212.273
      -247.757        -192.686          39.800          37.900



 117377029.395 7  91293256.335 7  21927014.148    21927013.730    21927017.785
      3572.847        2778.886          45.200          44.000



 106827027.543 8  83241884.215 8  20328509.922                    20328515.809
      -530.086        -413.054          53.000          50.800    79773475.591 9
  20328516.125        -395.844          55.900


 113004459.582 8  88055450.564 7  21504036.898                    21504040.523
     -2019.776       -1573.852          51.400          45.700



 115456221.801 7  89799308.263 6  21598477.609    21598476.184    21598482.609
     -3253.312       -2530.339          42.600          37.700



 102238090.613 8  79518543.586 8  19159374.961    19159373.641    19159377.965
       613.719         477.337          49.100          49.300



 108113840.838 8  84244585.336 8  20573384.063                    20573387.945
       244.916         190.846          52.300          49.400



 128359663.639 6  99835319.231 5  24046097.789    24046095.188    24046099.383
     -2986.073       -2322.513          36.100          31.900



 135679663.662 7                  25818981.094
      2320.200                          43.000                   101319235.700 7
  25818983.703        1732.621          43.200   103962335.888 6  25818981.172
      1777.817          41.200   102640793.406 7  25818983.145        1755.211
        47.700
 130528352.389 8                  24838719.484
     -1909.296                          48.400                    97472480.455 8
  24838724.398       -1425.770          50.200   100015235.728 8  24838722.523
     -1462.966          48.800    98743863.203 9  24838724.070       -1444.369
        55.500
 140374288.600 6                  26712342.898
     -1435.704                          38.300                   104824952.973 6
  26712342.746       -1072.119          37.500   107559512.161 6  26712342.184
     -1100.087          38.900   106192235.672 7  26712343.137       -1086.106
        43.200
 121310567.292 8                  23084632.219
     -1512.175                          50.300                    90589075.054 8
  23084636.652       -1129.224          50.900    92952257.840 8  23084633.840
     -1158.675          48.600    91770670.055 9  23084635.680       -1143.951
        55.600
  62265344.311 7                  11848700.250
       514.834                          43.100



 202757062.529 6                  38583379.766
       -84.007                          39.100



 18  4  4  7 24 30.0000000  0 22G15G13R11G09G02R12R13G28R19R03G30G07
                                R01R02G05R18E19E07E12E30E20S20
 131787981.396 6 102691929.018 5  25078414.406                    25078418.547
      3357.810        2616.464          37.800          31.400



 116895099.279 7  91087104.20445  22244396.859                    22244400.180
      2590.301        2018.420          46.800          32.300



 111345926.092 8  86602395.225 7  20836871.867    20836871.742    20836875.184
     -2975.060       -2313.934          48.500          46.800



 123982259.346 7  96609699.426 7  23593073.789                    23593080.387
     -3007.277       -2343.337          45.800          42.300    92584301.850 7
  23593080.477       -2245.696          45.300


 126967970.246 5  98936081.87842  24161209.461                    24161211.625
     -2865.384       -2232.751          35.400          16.300



 102631837.649 7                  19212896.125    19212895.023
       673.559                          46.800



 119899247.922 5  93254997.747 5  22453276.398    22453274.652    22453280.176
      4225.622        3286.637          35.100          33.700



 118631279.169 7  92440073.42444  22574801.164                    22574805.348
      2680.159        2088.430          43.900          28.900



 125809044.417 6  97851498.340 6  23518675.523    23518672.582    23518675.777
      -273.289        -212.554          38.800          37.800



 117269923.199 7  91209951.521 7  21907006.188    21907005.418    21907008.891
      3567.735        2774.924          45.400          43.100



 106843177.567 8  83254468.644 8  20331583.219                    20331589.488
      -546.060        -425.500          53.800          50.900    79785535.660 9
  20331589.805        -407.768          55.900


 113065217.052 8  88102794.057 7  21515599.469                    21515602.070
     -2030.356       -1582.090          51.500          45.400



 115554003.789 7  89875360.893 6  21616769.570    21616768.613    21616774.711
     -3265.087       -2539.516          42.400          37.700



 102219969.218 8  79504449.164 8  19155978.805    19155977.836    19155982.043
       594.985         462.770          48.800          49.100



 108106788.309 8  84239089.860 8  20572042.172                    20572045.766
       225.887         176.016          52.900          49.500



 128449451.618 5  99905154.251 6  24062917.563    24062917.191    24062922.652
     -2999.346       -2332.794          35.000          37.100



 135610102.226 7                  25805743.938
      2317.338                          43.000                   101267290.470 7
  25805745.996        1730.481          43.300   103909035.562 6  25805743.418
      1775.625          41.400   102588170.625 7  25805745.883        1753.052
        47.800
 130585736.490 8                  24849639.078
     -1916.086                          48.800                    97515332.184 8
  24849644.449       -1430.844          50.300   100059205.334 8  24849641.824
     -1468.174          49.400    98787273.868 9  24849643.941       -1449.511
        55.500
 140417540.243 6                  26720572.906
     -1447.297                          39.300                   104857251.229 5
  26720575.203       -1080.772          35.600   107592652.996 6  26720572.297
     -1108.970          38.600   106224955.218 7  26720573.715       -1094.870
        42.300
 121356118.347 8                  23093300.266
     -1524.140                          50.100                    90623090.426 8
  23093304.977       -1138.153          51.300    92987160.588 8  23093301.832
     -1167.844          48.300    91805129.120 9  23093303.785       -1153.003
        55.600
  62250030.059 7                  11845785.797
       506.355                          43.600



 202759568.426 6                  38583849.266
       -83.520                          39.400



 18  4  4  7 25  0.0000000  0 22G15G13R11G09G02R12R13G28R19R03G30G07
                                R01R02G05R18E19E07E12E30E20S20
 131687258.707 6 102613443.846 5  25059247.313                    25059252.246
      3357.017        2615.853          37.100          35.900



 116817482.989 7  91026623.98945  22229626.727                    22229630.613
      2584.265        2013.709          46.000          32.400



 111435432.820 8  86672011.551 7  20853622.344    20853621.867    20853625.727
     -2991.534       -2326.763          48.700          47.000



 124072539.043 7  96680047.155 7  23610254.156                    23610260.430
     -3011.269       -2346.441          45.400          42.200    92651718.406 7
  23610261.453       -2248.669          46.300


 127053994.692 6  99003113.88942  24177580.070                    24177581.016
     -2869.438       -2235.883          36.300          16.900



 102612032.527 7                  19209189.289    19209187.719
       647.605                          47.100



 119772614.346 6  93156505.031 5  22429563.414    22429560.613    22429566.395
      4216.839        3279.789          37.000          35.000



 118551039.936 7  92377549.40844  22559532.438                    22559535.883
      2669.423        2080.062          43.300          28.700



 125817637.013 6  97858181.484 6  23520281.203    23520280.020    23520281.977
      -298.784        -232.375          39.200          38.100



 117162969.124 7  91126765.034 7  21887026.453    21887025.449    21887029.602
      3562.630        2770.936          45.300          43.600



 106859804.720 8  83267424.869 8  20334747.406                    20334753.406
      -561.939        -437.880          53.300          51.100    79797952.042 9
  20334754.074        -419.634          56.100


 113126289.582 8  88150383.031 7  21527221.141                    21527225.039
     -2040.840       -1590.265          51.400          46.400



 115652137.482 7  89951687.075 6  21635126.789    21635126.301    21635132.699
     -3276.774       -2548.615          42.700          38.500



 102202410.272 8  79490792.190 8  19152688.359    19152687.742    19152691.961
       576.141         448.119          49.100          48.600



 108100305.027 8  84234037.936 8  20570808.813                    20570812.293
       206.909         161.229          52.400          49.400



 128539634.025 5  99975296.223 6  24079813.766    24079812.336    24079816.172
     -3012.440       -2343.014          33.500          36.500



 135540625.459 7                  25792523.031
      2314.506                          42.800                   101215408.484 7
  25792524.902        1728.367          42.900   103855800.129 6  25792522.742
      1773.452          41.900   102535611.915 7  25792524.840        1750.907
        47.800
 130643322.549 8                  24860597.523
     -1922.819                          48.100                    97558334.727 8
  24860602.477       -1435.868          49.800   100103329.684 8  24860600.461
     -1473.323          49.200    98830837.314 9  24860602.105       -1454.598
        55.500
 140461138.272 6                  26728869.234
     -1458.854                          37.600                   104889808.202 5
  26728869.590       -1089.403          34.300   107626059.271 6  26728869.074
     -1117.823          36.200   106257936.843 6  26728869.969       -1103.610
        40.700
 121402025.992 8                  23102036.563
     -1536.012                          50.800                    90657372.094 8
  23102040.668       -1147.023          50.500    93022336.576 8  23102037.340
     -1176.944          48.900    91839857.948 9  23102039.824       -1161.984
        55.600
  62234968.334 7                  11842919.938
       497.916                          44.100



 202762070.814 6                  38584333.875
       -83.346                          38.900



 18  4  4  7 25 30.0000000  0 22G15G13R11G09G02R12R13G28R19R03G30G07
                                R01R02G05R18E19E07E12E30E20S20
 131586560.341 5 102534977.613 6  25040084.422                    25040090.156
      3356.188        2615.218          34.200          37.100



 116740048.058 8  90966285.09645  22214891.594                    22214895.664
      2578.213        2008.995          48.400          32.400



 111525431.985 8  86742010.878 7  20870463.711    20870463.938    20870466.859
     -3007.912       -2339.482          48.600          46.000



 124162938.415 7  96750488.216 6  23627456.164                    23627462.609
     -3015.259       -2349.548          46.300          41.100    92719224.400 7
  23627463.223       -2251.648          46.600


 127140139.532 5  99070239.74842  24193969.266                    24193973.820
     -2873.490       -2239.097          30.300          13.900



 102593006.138 7                  19205626.836    19205625.500
       621.657                          47.200



 119646247.492 6  93058219.724 5  22405898.141    22405896.395    22405902.699
      4207.875        3272.803          37.400          35.500



 118471124.060 7  92315277.31544  22544325.070                    22544328.344
      2658.620        2071.656          45.700          29.600



 125826993.888 6  97865459.045 6  23522029.641    23522029.047    23522032.270
      -324.182        -252.160          39.300          39.000



 117056169.620 7  91043698.763 7  21867075.414    21867073.355    21867077.852
      3557.421        2766.863          45.000          43.700



 106876908.124 8  83280752.182 8  20338001.992                    20338007.824
      -577.792        -450.228          53.700          51.300    79810724.051 9
  20338007.965        -431.469          55.900


 113187675.214 8  88198215.944 7  21538901.805                    21538905.918
     -2051.238       -1598.368          50.800          46.900



 115750621.562 7  90028285.782 6  21653550.266    21653549.895    21653556.324
     -3288.475       -2557.690          42.800          37.400



 102185415.774 8  79477574.260 8  19149503.516    19149502.781    19149506.773
       557.364         433.486          49.500          48.700



 108094392.014 8  84229430.376 8  20569683.469                    20569686.965
       187.890         146.408          51.900          49.500



 128630207.060 5 100045741.818 5  24096778.148    24096778.012    24096783.113
     -3025.342       -2353.037          35.200          33.900



 135471234.540 7                  25779318.516
      2311.634                          43.400                   101163590.598 7
  25779320.434        1726.220          43.100   103802630.462 6  25779317.855
      1771.252          41.400   102483118.139 7  25779320.234        1748.733
        47.900
 130701110.582 8                  24871594.266
     -1929.559                          48.600                    97601488.096 8
  24871599.418       -1440.905          50.400   100147608.792 8  24871596.840
     -1478.492          49.000    98874553.553 9  24871598.906       -1459.699
        55.500
 140505081.518 6                  26737231.328
     -1470.341                          36.600                   104922622.978 6
  26737233.074       -1097.982          37.800   107659730.060 5  26737229.793
     -1126.630          34.300   106291179.629 6  26737232.023       -1112.306
        41.600
 121448288.996 8                  23110840.367
     -1547.833                          50.000                    90691919.130 8
  23110844.059       -1155.850          50.300    93057784.849 8  23110841.293
     -1186.004          48.500    91874855.597 9  23110843.410       -1170.926
        55.500
  62220160.107 7                  11840102.148
       489.475                          43.600



 202764567.251 6                  38584805.750
       -82.780                          39.300



 18  4  4  7 26  0.0000000  0 24G27G15G20G13R11G09G02R12R13G28R19R03
                                G30G07R01R02G05R18E19E07E12E30E20S20
 133444650.058 5 103982895.84215  25393678.516
       597.326                          31.300          30.400    99650277.70516
  25393686.016                          37.200


 131485886.952 6 102456530.824 6  25020928.219                    25020932.375
      3355.328        2614.549          37.600          37.300



 132206190.862 5                  25158000.547
      3591.003                          33.500



 116662795.008 7  90906087.90445  22200190.656                    22200194.703
      2572.169        2004.289          47.600          32.100



 111615919.546 8  86812390.094 7  20887397.734    20887397.609    20887401.078
     -3024.074       -2352.074          48.400          45.700



 124253456.534 7  96821021.743 6  23644681.789                    23644687.520
     -3019.182       -2352.613          45.000          41.600    92786819.016 7
  23644688.484       -2254.582          46.000


 127226401.520 6  99137456.76342  24210387.156                    24210388.320
     -2877.322       -2242.057          36.900          16.300



 102574757.767 7                  19202211.180    19202209.727
       595.769                          46.800



 119520150.063 6  92960144.045 5  22382283.156    22382281.883    22382288.055
      4198.880        3265.778          36.000          35.500



 118391533.906 7  92253259.04644  22529179.531                    22529183.508
      2647.733        2063.171          46.300          29.600



 125837113.736 6  97873329.995 6  23523921.828    23523920.527    23523924.102
      -349.665        -271.920          39.800          38.400



 116949526.970 7  90960754.455 7  21847154.227    21847153.223    21847156.605
      3552.196        2762.820          45.300          43.500



 106894486.287 8  83294449.454 8  20341346.859                    20341353.027
      -593.582        -462.531          53.100          51.100    79823850.605 9
  20341352.992        -443.254          55.900


 113249372.228 8  88246291.522 7  21550643.500                    21550645.738
     -2061.583       -1606.431          52.800          44.600



 115849454.347 7  90105155.669 6  21672039.000    21672039.332    21672045.395
     -3300.049       -2566.694          42.400          38.100



 102168986.978 8  79464796.299 8  19146424.672    19146424.055    19146428.246
       538.458         418.801          49.300          49.300



 108089049.391 8  84225267.290 8  20568666.680                    20568670.277
       168.888         131.601          52.200          48.600



 128721166.251 6 100116487.768 5  24113818.523    24113818.270    24113823.109
     -3038.152       -2363.012          36.600          35.300



 135401930.081 7                  25766129.953
      2308.742                          44.000                   101111837.274 7
  25766132.363        1724.065          43.100   103749527.044 6  25766130.066
      1769.039          41.500   102430689.770 8  25766132.055        1746.550
        48.000
 130759100.084 8                  24882629.391
     -1936.235                          48.500                    97644791.912 8
  24882634.898       -1445.888          49.800   100192042.281 8  24882632.082
     -1483.607          49.200    98918422.205 9  24882634.207       -1464.749
        55.500
 140549368.135 6                  26745658.688
     -1481.736                          37.800                   104955694.056 6
  26745661.188       -1106.490          38.900   107693663.938 5  26745657.438
     -1135.357          35.100   106324682.111 7  26745660.070       -1120.922
        43.100
 121494905.623 8                  23119711.234
     -1559.568                          50.500                    90726730.244 8
  23119714.559       -1164.609          49.800    93093504.083 8  23119712.121
     -1194.995          48.800    91910120.778 9  23119714.410       -1179.808
        55.300
  62205605.731 7                  11837332.219
       480.993                          43.900



 202767057.594 6                  38585280.516
       -83.362                          38.300



 18  4  4  7 26 30.0000000  0 24G27G15G20G13R11G09G02R12R13G28R19R03
                                G30G07R01R02G05R18E19E07E12E30E20S20
 133427005.943 5 103969147.258 5  25390322.078
       579.607         451.632          32.900          30.000    99637101.929 6
  25390328.715         432.829          36.000


 131385239.386 6 102378104.201 6  25001774.086                    25001779.051
      3354.549        2613.939          38.700          37.100



 132098524.846 5                  25137513.164
      3587.015                          33.200



 116585724.664 7  90846033.12545  22185524.391                    22185528.617
      2566.060        1999.526          46.800          31.900



 111706891.326 8  86883145.896 7  20904422.336    20904421.504    20904424.754
     -3040.142       -2364.547          48.800          46.500



 124344092.585 7  96891647.189 7  23661928.609                    23661935.105
     -3023.076       -2355.647          45.000          42.300    92854501.719 7
  23661936.426       -2257.494          45.700


 127312777.932 5  99204763.04842  24226822.727                    24226826.891
     -2881.051       -2244.914          34.500          15.600



 102557287.188 7                  19198940.047    19198939.180
       569.844                          47.000



 119394325.644 6  92862280.631 5  22358721.109    22358719.246    22358724.547
      4189.745        3258.717          36.800          34.800



 118312271.839 7  92191496.41944  22514096.641                    22514099.859
      2636.759        2054.619          45.700          29.400



 125847995.703 6  97881793.747 6  23525956.516    23525955.566    23525959.402
      -375.022        -291.673          39.200          40.000



 116843044.034 7  90877934.421 7  21827262.016    21827260.543    21827264.574
      3546.872        2758.672          45.600          43.900



 106912538.069 9  83308515.770 8  20344781.922                    20344788.035
      -609.321        -474.794          54.000          51.200    79837330.824 9
  20344788.766        -455.011          56.100


 113311378.893 8  88294608.421 7  21562442.867                    21562445.590
     -2071.844       -1614.424          52.800          44.500



 115948633.841 7  90182295.256 6  21690593.188    21690592.465    21690599.020
     -3311.506       -2575.623          42.300          38.000



 102153125.954 8  79452459.928 8  19143452.797    19143451.477    19143455.934
       519.594         404.125          49.000          48.800



 108084277.764 8  84221549.124 8  20567758.398                    20567761.930
       149.865         116.783          51.900          49.400



 128812506.800 5 100187530.280 5  24130930.250    24130928.703    24130934.543
     -3050.769       -2372.804          35.900          35.200



 135332712.890 7                  25752958.688
      2305.845                          42.800                   101060149.109 7
  25752961.160        1721.898          43.200   103696490.500 6  25752958.957
      1766.818          41.400   102378327.415 7  25752960.406        1744.356
        47.900
 130817290.795 7                  24893702.609
     -1942.903                          47.900                    97688245.978 8
  24893707.934       -1450.867          50.400   100236629.932 8  24893705.680
     -1488.720          48.800    98962443.065 9  24893707.457       -1469.795
        55.400
 140593996.426 6                  26754152.078
     -1493.072                          39.500                   104989020.369 6
  26754152.270       -1114.955          38.000   107727859.651 6  26754151.145
     -1144.036          38.000   106358443.117 7  26754152.855       -1129.495
        43.400
 121541874.413 8                  23128648.875
     -1571.265                          50.100                    90761804.342 8
  23128652.266       -1173.348          50.100    93129493.146 8  23128650.391
     -1203.954          49.100    91945652.350 9  23128652.156       -1188.652
        55.100
  62191306.030 7                  11834611.320
       472.576                          43.400



 202769541.146 6                  38585752.094
       -82.592                          38.100



 18  4  4  7 27  0.0000000  0 24G27G15G20G13R11G09G02R12R13G28R19R03
                                G30G07R01R02G05R18E19E07E12E30E20S20
 133409893.11714                  25387064.484
       562.129                          28.300



 131284618.284 6 102299698.181 5  24982627.750                    24982631.914
      3353.626        2613.212          40.900          34.500



 131990981.664 5                  25117048.828
      3582.828                          33.600



 116508838.163 8  90786121.56545  22170893.602                    22170898.039
      2559.942        1994.762          48.200          32.500



 111798344.102 8  86954275.815 7  20921535.773    20921535.883    20921539.684
     -3056.070       -2376.945          49.000          47.000



 124434846.047 7  96962364.123 7  23679197.938                    23679205.512
     -3026.949       -2358.657          43.800          44.100    92922272.134 7
  23679206.008       -2260.380          46.700


 127399265.855 6  99272156.12642  24243282.313                    24243284.109
     -2884.639       -2247.758          36.100          14.800



 102540594.173 7                  19195815.359    19195813.906
       543.935                          47.300



 119268777.401 6  92764632.024 5  22335209.758    22335208.602    22335213.828
      4180.459        3251.480          38.900          35.900



 118233340.737 7  92129991.67744  22499076.344                    22499079.543
      2625.709        2046.008          46.400          29.700



 125859638.993 6  97890849.630 6  23528133.352    23528131.348    23528134.820
      -400.310        -311.346          38.900          39.400



 116736723.582 7  90795240.730 7  21807400.938    21807398.996    21807402.527
      3541.396        2754.430          45.000          44.500



 106931062.395 8  83322950.314 8  20348307.195                    20348312.836
      -625.046        -487.049          53.400          51.500    79851163.923 9
  20348313.156        -466.755          55.800


 113373693.333 8  88343165.113 7  21574300.211                    21574304.098
     -2082.043       -1622.375          51.600          45.900



 116048158.867 7  90259703.581 6  21709211.961    21709210.301    21709216.539
     -3323.000       -2584.557          42.000          38.000



 102137834.447 8  79440566.520 8  19140586.938    19140585.500    19140589.617
       500.544         389.319          48.800          49.400



 108080077.479 8  84218276.166 8  20566959.484                    20566963.328
       130.815         101.934          52.200          49.500



 128904224.794 5 100258866.515 5  24148109.805    24148109.902    24148115.266
     -3063.204       -2382.506          33.700          35.100



 135263584.006 7                  25739803.688
      2302.873                          43.700                   101008526.905 7
  25739805.980        1719.682          43.300   103643521.624 6  25739802.980
      1764.541          41.600   102326031.877 7  25739805.473        1742.111
        47.900
 130875682.600 8                  24904814.336
     -1949.617                          48.800                    97731850.222 8
  24904819.637       -1455.878          50.300   100281371.676 8  24904817.242
     -1493.858          48.900    99006616.059 9  24904819.016       -1474.873
        55.400
 140638965.087 6                  26762708.039
     -1504.415                          36.000                   105022600.796 6
  26762710.023       -1123.419          38.100   107762316.094 6  26762708.664
     -1152.723          38.500   106392461.558 7  26762710.039       -1138.077
        43.600
 121589193.935 8                  23137653.258
     -1582.942                          50.500                    90797140.331 8
  23137656.480       -1182.067          49.400    93165750.934 8  23137655.121
     -1212.897          49.500    91981449.239 9  23137656.617       -1197.481
        55.100
  62177261.874 7                  11831938.953
       464.036                          43.900



 202772020.973 6                  38586223.203
       -82.434                          38.700



 18  4  4  7 27 30.0000000  0 24G27G15G20G13R11G09G02R12R13G28R19R03
                                G30G07R01R02G05R18E19E07E12E30E20S20
 133393312.567 5 103942892.708 4  25383909.000
       544.138         423.983          33.800          28.000    99611941.302 6
  25383917.336         406.333          37.400


 131184025.681 6 102221314.302 5  24963485.695                    24963489.227
      3352.595        2612.415          39.600          33.900



 131883563.731 6                  25096608.313
      3578.568                          36.900



 116432136.550 8  90726354.09045  22156297.891                    22156301.543
      2553.726        1989.919          49.100          32.700



 111890274.060 8  87025776.871 7  20938739.438    20938739.313    20938743.020
     -3072.026       -2389.354          48.200          46.300



 124525716.655 7  97033172.358 6  23696490.148                    23696496.813
     -3030.928       -2361.756          42.300          41.000    92990129.997 7
  23696498.250       -2263.349          47.400


 127485862.781 6  99339634.26242  24259762.180                    24259762.828
     -2888.325       -2250.656          36.700          13.900



 102524679.424 7                  19192836.883    19192834.723
       517.914                          46.800



 119143508.421 6  92667200.634 6  22311750.883    22311748.902    22311755.418
      4171.029        3244.146          37.900          36.800



 118154743.388 7  92068747.00145  22484119.773                    22484123.488
      2614.496        2037.274          46.800          30.600



 125872043.258 6  97900497.414 6  23530451.672    23530449.316    23530453.184
      -425.709        -331.154          39.200          38.300



 116630568.226 7  90712675.491 7  21787569.000    21787568.465    21787572.598
      3535.815        2750.066          45.300          44.600



 106950058.537 8  83337752.479 8  20351921.805                    20351928.043
      -640.805        -499.321          53.600          50.900    79865349.349 9
  20351928.246        -478.525          55.900


 113436314.193 8  88391960.509 7  21586216.969                    21586220.320
     -2092.288       -1630.355          52.300          46.000



 116148028.251 6  90337379.686 6  21727894.281    21727893.793    21727900.523
     -3334.543       -2593.510          41.800          37.300



 102123114.353 8  79429117.552 8  19137828.469    19137827.383    19137831.602
       481.404         374.430          49.300          49.000



 108076450.127 8  84215449.648 8  20566269.227                    20566272.832
       111.659          87.004          52.500          49.300



 128996316.227 5 100330493.241 5  24165362.945    24165362.340    24165366.945
     -3075.689       -2392.183          34.100          31.200



 135194544.720 7                  25726665.438
      2299.847                          43.200                   100956971.593 7
  25726668.023        1717.416          43.200   103590621.385 6  25726665.770
      1762.221          41.200   102273804.096 8  25726667.719        1739.821
        48.000
 130934275.659 8                  24915964.156
     -1956.360                          48.800                    97775604.744 8
  24915969.566       -1460.918          49.900   100326267.622 8  24915966.797
     -1499.027          48.900    99050941.295 9  24915968.836       -1479.974
        55.300
 140684272.900 5                  26771330.125
     -1515.769                          34.100                   105056434.570 6
  26771332.184       -1131.904          37.200   107797032.441 6  26771329.652
     -1161.433          36.900   106426736.615 7  26771331.563       -1146.672
        42.100
 121636863.163 8                  23146724.453
     -1594.605                          50.100                    90832737.472 8
  23146728.273       -1190.778          49.700    93202276.696 8  23146725.836
     -1221.841          48.600    92017510.695 9  23146727.805       -1206.314
        55.100
  62163474.298 7                  11829315.000
       455.446                          43.400



 202774499.176 6                  38586695.281
       -82.559                          39.900



 18  4  4  7 28  0.0000000  0 25G27G15G20G13R11G09G02R12G21R13G28R19
                                R03G30G07R01R02G05R18E19E07E12E30E20
                                S20
 133377265.133 5 103930388.152 3  25380853.141
       526.300         410.131          30.500          20.900    99599958.059 5
  25380863.641         393.011          32.200


 131083461.571 6 102142952.682 5  24944348.438                    24944352.180
      3351.648        2611.676          38.600          32.600



 131776273.030 6 102682836.77842  25076191.320                    25076195.813
      3574.280        2785.180          38.100          17.800



 116355620.589 8  90666731.25745  22141737.234                    22141740.715
      2547.525        1985.080          48.400          32.400



 111982677.250 8  87097646.009 7  20956032.172    20956030.988    20956034.703
     -3087.691       -2401.550          48.700          45.900



 124616703.277 7  97104070.969 6  23713804.914                    23713811.738
     -3034.761       -2364.745          42.000          41.700    93058074.479 7
  23713811.711       -2266.216          44.900


 127572565.74015                  24276258.391
     -2891.508                          30.700



 102509541.395 7                  19190002.484    19190000.680
       492.084                          46.900



 138454174.917 4                  26346951.750
      1782.487                          26.400



 119018521.457 6  92569988.571 5  22288344.438    22288342.809    22288349.707
      4161.626        3236.866          38.300          35.700



 118076482.551 7  92007764.55945  22469226.492                    22469231.227
      2603.225        2028.484          45.800          30.300



 125885207.037 6  97910735.901 6  23532912.289    23532910.402    23532913.621
      -451.023        -350.803          38.100          37.600



 116524580.871 7  90630240.882 7  21767770.664    21767770.012    21767773.363
      3530.154        2745.675          45.900          44.100



 106969524.837 8  83352921.038 8  20355626.461                    20355632.172
      -656.444        -511.517          53.500          50.800    79879885.874 9
  20355632.902        -490.206          56.100


 113499239.234 8  88440993.002 7  21598191.141                    21598193.785
     -2102.390       -1638.222          52.200          45.100



 116248239.778 6  90415321.979 6  21746640.930    21746640.090    21746647.266
     -3345.855       -2602.353          41.500          37.500



 102108967.262 8  79418114.249 8  19135176.453    19135175.953    19135180.000
       462.293         359.564          49.300          48.500



 108073395.528 8  84213069.442 8  20565687.641                    20565691.188
        92.570          72.131          51.300          49.300



 129088776.261 5 100402420.132 3  24182683.844    24182683.355    24182687.215
     -3087.953       -2401.724          32.900          22.700



 135125595.518 7                  25713544.984
      2296.868                          43.000                   100905483.560 7
  25713547.418        1715.187          43.800   103537790.189 6  25713545.074
      1759.934          41.400   102221644.482 8  25713547.039        1737.562
        48.200
 130993069.312 8                  24927152.555
     -1963.032                          48.500                    97819509.052 8
  24927157.340       -1465.893          49.800   100371317.265 8  24927154.949
     -1504.136          48.500    99095418.271 9  24927156.883       -1485.023
        55.100
 140729918.027 6                  26780016.398
     -1526.926                          36.200                   105090520.204 5
  26780016.895       -1140.235          35.100   107832007.184 5  26780015.816
     -1169.984          34.400   106461266.800 6  26780016.613       -1155.112
        40.500
 121684880.197 8                  23155862.094
     -1606.172                          50.400                    90868594.333 8
  23155865.754       -1199.411          50.100    93239068.956 8  23155863.551
     -1230.702          49.000    92053835.251 9  23155865.082       -1215.057
        55.200
  62149943.772 7                  11826740.055
       446.841                          43.900



 202776975.309 6                  38587165.984
       -82.443                          38.100



 18  4  4  7 28 30.0000000  0 25G27G15G20G13R11G09G02R12G21R13G28R19
                                R03G30G07R01R02G05R18E19E07E12E30E20
                                S20
 133361752.034 5 103918300.148 4  25377903.391
       508.488         396.215          31.800          27.600    99588373.639 4
  25377909.477         379.712          28.100


 130982926.810 6 102064613.909 5  24925217.805                    24925219.566
      3350.712        2610.939          41.200          32.000



 131669111.940 6 102599334.60142  25055798.633                    25055803.695
      3569.951        2781.742          36.600          16.900



 116279291.146 7  90607253.78545  22127212.500                    22127215.457
      2541.317        1980.249          47.800          32.200



 112075549.955 8  87169880.325 7  20973411.758    20973410.926    20973414.855
     -3103.246       -2413.638          48.400          46.100



 124707805.551 6  97175059.689 7  23731139.938                    23731147.891
     -3038.598       -2367.740          41.300          42.600    93126105.343 7
  23731148.328       -2269.083          45.800


 127659370.518 5                  24292780.625
     -2895.081                          30.700



 102495180.778 7                  19187313.508    19187312.055
       466.181                          46.900



 138400878.600 5                  26336810.789
      1770.956                          33.300



 118893819.863 6  92472998.537 5  22264992.594    22264989.441    22264996.250
      4152.149        3229.430          37.300          35.200



 117998560.828 7  91947046.35445  22454398.961                    22454402.461
      2591.930        2019.689          45.600          30.900



 125899129.435 6  97921564.421 6  23535515.664    23535514.480    23535517.777
      -476.267        -370.465          39.200          38.700



 116418764.164 7  90547939.000 7  21748002.703    21748001.934    21748004.953
      3524.451        2741.230          45.400          44.800



 106989460.390 8  83368455.236 8  20359419.898                    20359425.914
      -672.051        -523.673          53.500          51.200    79894772.811 9
  20359426.348        -501.857          56.000


 113562467.085 8  88490261.479 7  21610222.344                    21610225.500
     -2112.427       -1646.050          51.100          44.700



 116348792.471 6  90493529.557 6  21765451.930    21765450.973    21765457.578
     -3357.212       -2611.159          41.200          37.800



 102095394.971 8  79407558.020 8  19132634.148    19132633.180    19132637.246
       443.098         344.626          49.600          48.500



 108070914.253 8  84211135.964 8  20565215.570                    20565219.551
        73.483          57.263          51.000          48.900



 129181601.061 5 100474616.580 4  24200072.539    24200071.699    24200076.590
     -3099.951       -2411.083          33.400          28.600



 135056737.648 7                  25700441.984
      2293.795                          43.200                   100854063.719 7
  25700444.465        1712.899          42.800   103485028.971 6  25700442.309
      1757.579          41.900   102169553.953 8  25700444.047        1735.242
        48.100
 131052063.594 8                  24938378.680
     -1969.695                          48.600                    97863563.198 8
  24938383.930       -1470.879          50.100   100416520.652 8  24938381.348
     -1509.248          48.600    99140047.036 9  24938383.332       -1490.063
        55.100
 140775898.893 6                  26788766.742
     -1538.039                          39.600                   105124856.557 6
  26788768.680       -1148.530          39.900   107867239.338 5  26788765.305
     -1178.502          32.400   106496051.058 7  26788767.219       -1163.521
        43.000
 121733243.764 8                  23165065.555
     -1617.666                          50.800                    90904709.982 8
  23165068.746       -1207.999          50.500    93276126.746 8  23165066.164
     -1239.513          49.000    92090421.971 9  23165068.297       -1223.753
        55.200
  62136671.067 7                  11824214.508
       438.307                          43.600



 202779450.207 6                  38587640.297
       -82.560                          38.700



 18  4  4  7 29  0.0000000  0 24G27G15G20G13R11G09R12G21R13G28R19R03
                                G30G07R01R02G05R18E19E07E12E30E20S20
 133346774.328 5 103906629.559 4  25375053.492
       490.630         382.312          32.200          26.200    99577189.134 5
  25375060.719         366.383          34.000


 130882422.809 7 101986299.066 5  24906091.906                    24906095.273
      3349.593        2610.077          43.000          34.800



 131562083.415 6 102515935.69042  25035431.383                    25035437.230
      3565.444        2778.279          36.900          16.300



 116203149.224 8  90547922.42545  22112723.508                    22112726.578
      2535.028        1975.346          49.000          33.500



 112168888.687 8  87242477.108 7  20990878.039    20990877.563    20990881.754
     -3118.746       -2425.697          48.200          46.700



 124799022.952 6  97246138.085 7  23748498.828                    23748506.555
     -3042.421       -2370.718          41.300          42.800    93194222.137 7
  23748505.645       -2271.932          44.500


 102481597.068 7                  19184771.219    19184769.648
       440.287                          46.700



 138347930.956 5                  26326735.172
      1759.301                          33.600



 118769406.557 6  92376232.649 5  22241693.805    22241691.355    22241696.707
      4142.422        3221.910          38.100          32.700



 117920980.786 7  91886594.39845  22439635.695                    22439640.074
      2580.464        2010.758          45.400          30.700



 125913810.040 6  97932982.640 6  23538259.852    23538259.258    23538262.371
      -501.540        -390.102          40.100          39.800



 116313120.830 7  90465771.972 7  21728268.250    21728266.660    21728270.691
      3518.662        2736.724          45.400          44.800



 107009864.275 8  83384354.364 8  20363302.859                    20363308.570
      -687.649        -535.823          53.600          51.000    79910009.482 9
  20363308.887        -513.506          55.900


 113625995.905 8  88539764.428 7  21622311.766                    21622315.844
     -2122.457       -1653.863          51.400          46.100



 116449684.448 6  90572001.065 6  21784325.367    21784324.410    21784331.086
     -3368.517       -2619.956          40.800          37.700



 102082399.580 8  79397450.479 8  19130199.172    19130197.734    19130201.898
       423.859         329.673          48.600          48.900



 108069007.145 8  84209649.896 8  20564853.008                    20564856.152
        54.311          42.319          51.400          49.200



 129274786.067 6 100547093.812 5  24217531.102    24217529.906    24217534.426
     -3111.934       -2420.417          37.500          31.500



 134987972.109 7                  25687356.820
      2290.677                          43.700                   100802712.833 7
  25687358.586        1710.575          43.500   103432338.493 6  25687356.430
      1755.194          41.600   102117533.272 8  25687358.375        1732.883
        48.200
 131111258.400 7                  24949643.133
     -1976.400                          47.700                    97907767.080 8
  24949648.500       -1475.886          49.600   100461877.679 8  24949645.402
     -1514.377          48.200    99184827.489 9  24949647.551       -1495.130
        55.100
 140822214.239 6                  26797580.133
     -1549.203                          39.100                   105159442.659 6
  26797581.359       -1156.879          40.600   107902727.753 6  26797578.734
     -1187.062          36.600   106531088.312 7  26797581.320       -1171.964
        44.400
 121781952.616 8                  23174334.219
     -1629.185                          49.900                    90941083.466 8
  23174338.191       -1216.595          50.400    93313449.115 8  23174335.520
     -1248.335          49.000    92127269.899 9  23174337.449       -1232.469
        55.400
  62123657.236 7                  11821738.258
       429.666                          43.200



 202781921.382 6                  38588112.203
       -82.290                          38.800



 18  4  4  7 29 30.0000000  0 23G15G20G13R11G09R12G21R13G28R19R03G30
                                G07R01R02G05R18E19E07E12E30E20S20
 130781950.829 6 101908009.210 5  24886972.547                    24886975.688
      3348.512        2609.225          41.100          34.800



 131455189.848 6 102432641.99742  25015090.391                    25015095.938
      3560.909        2774.737          36.900          17.400



 116127196.017 7  90488738.11145  22098269.742                    22098273.215
      2528.686        1970.409          46.400          33.600



 112262689.602 7  87315433.338 7  21008431.594    21008430.996    21008435.199
     -3134.119       -2437.653          47.800          46.300



 124890354.848 6  97317305.763 6  23765879.414                    23765885.328
     -3046.253       -2373.708          41.600          41.300    93262424.487 7
  23765886.586       -2274.796          45.700


 102468790.129 7                  19182374.297    19182372.371
       414.371                          46.400



 138295333.701 5                  26316727.273
      1747.543                          34.100



 118645284.921 6  92279693.577 5  22218448.430    22218446.801    22218452.996
      4132.675        3214.252          36.300          34.100



 117843745.203 7  91826410.85345  22424938.594                    22424942.348
      2568.925        2001.765          44.300          30.200



 125929247.761 6  97944989.751 6  23541144.945    23541142.824    23541147.395
      -526.804        -409.713          37.600          39.200



 116207654.006 7  90383742.212 7  21708565.102    21708564.332    21708568.855
      3512.630        2732.042          45.500          44.900



 107030735.139 8  83400617.377 8  20367274.023                    20367279.797
      -703.237        -547.978          53.400          50.800    79925594.863 9
  20367280.348        -525.148          56.000


 113689824.122 8  88589500.656 7  21634458.602                    21634461.941
     -2132.436       -1661.644          51.900          46.600



 116550914.334 6  90650735.378 6  21803262.180    21803261.457    21803269.145
     -3379.786       -2628.738          41.200          38.300



 102069982.392 8  79387792.660 8  19127871.398    19127870.078    19127874.398
       404.518         314.620          48.800          49.000



 108067674.670 8  84208611.591 8  20564599.391                    20564603.000
        35.123          27.370          50.700          49.100



 129368327.100 6 100619847.917 5  24235054.063    24235053.223    24235056.910
     -3123.771       -2429.612          37.900          31.400



 134919300.027 7                  25674288.750
      2287.502                          43.300                   100751431.739 7
  25674290.598        1708.198          43.000   103379719.619 6  25674288.582
      1752.763          41.200   102065583.289 8  25674290.449        1730.482
        48.000
 131170653.632 8                  24960945.383
     -1983.093                          48.300                    97952120.633 8
  24960950.938       -1480.880          49.900   100507388.288 8  24960948.359
     -1519.511          48.300    99229759.571 9  24960950.215       -1500.197
        55.100
 140868862.576 6                  26806456.703
     -1560.346                          37.200                   105194277.440 6
  26806458.680       -1165.192          40.900   107938471.285 6  26806457.035
     -1195.589          38.800   106566377.469 7  26806458.434       -1180.391
        45.600
 121831005.329 8                  23183668.453
     -1640.651                          49.400                    90977713.732 8
  23183672.277       -1225.163          50.200    93351034.952 8  23183669.934
     -1257.119          48.900    92164377.951 9  23183671.844       -1241.140
        55.200
  62110903.207 7                  11819311.250
       420.963                          43.500



 202784390.515 6                  38588586.688
       -82.442                          38.300



 18  4  4  7 30  0.0000000  0 24G27G15G20G13R11G09R12G21R13G28R19R03
                                G30G07R01R02G05R18E19E07E12E30E20S20
 133318429.285 5                  25369659.094
       454.868                          32.900                    99556020.870 5
  25369666.250         339.641          33.600


 130681510.910 6 101829744.349 5  24867859.891                    24867863.184
      3347.475        2608.426          40.500          35.400



 131348432.909 6 102349454.73642  24994775.320                    24994780.082
      3556.421        2771.253          37.700          17.800



 116051431.852 8  90429701.11645  22083852.117                    22083855.816
      2522.458        1965.549          48.200          33.200



 112356948.491 8  87388745.769 7  21026070.992    21026070.984    21026075.039
     -3149.290       -2449.421          48.000          46.200



 124981800.009 6  97388561.672 6  23783280.523                    23783287.445
     -3049.958       -2376.591          41.300          41.200    93330711.398 7
  23783287.063       -2277.561          44.500


 102456758.746 7                  19180121.234    19180119.547
       388.590                          47.200



 138243087.681 5                  26306784.773
      1735.877                          31.800



 118521457.113 6  92183383.101 5  22195261.820    22195259.020    22195264.621
      4122.868        3206.685          37.700          34.800



 117766856.236 7  91766497.39845  22410306.438                    22410310.703
      2557.382        1992.764          45.400          30.600



 125945440.596 6  97957584.190 6  23544171.992    23544171.160    23544174.508
      -551.877        -429.265          38.800          39.800



 116102365.748 7  90301851.369 7  21688897.117    21688896.230    21688900.242
      3506.761        2727.475          45.700          45.000



 107052071.282 8  83417242.942 8  20371334.469                    20371340.488
      -718.664        -559.991          53.600          51.600    79941527.698 9
  20371340.926        -536.667          56.100


 113753949.068 8  88639468.110 7  21646660.914                    21646664.199
     -2142.245       -1669.277          52.200          45.700



 116652480.269 6  90729731.040 6  21822262.734    21822261.777    21822269.383
     -3390.889       -2637.351          40.800          38.100



 102058144.910 8  79378585.715 8  19125653.344    19125652.258    19125656.355
       385.242         299.638          49.200          48.500



 108066916.699 8  84208020.961 8  20564454.875                    20564458.773
        16.037          12.497          50.700          49.300



 129462219.478 6 100692875.299 5  24252640.359    24252641.863    24252646.012
     -3135.318       -2438.572          36.900          31.900



 134850721.666 7                  25661238.742
      2284.476                          44.200                   100700220.628 7
  25661240.805        1705.941          43.300   103327172.577 6  25661238.789
      1750.440          41.100   102013704.208 8  25661240.445        1728.193
        48.300
 131230248.451 8                  24972286.445
     -1989.673                          48.300                    97996623.228 8
  24972291.535       -1485.799          50.300   100553051.817 8  24972288.297
     -1524.549          48.700    99274842.631 9  24972290.707       -1505.173
        55.100
 140915841.721 5                  26815396.766
     -1571.249                          35.600                   105229359.187 6
  26815398.246       -1173.334          40.600   107974468.208 6  26815396.652
     -1203.939          39.800   106601916.804 7  26815398.063       -1188.633
        45.700
 121880399.815 8                  23193067.898
     -1651.931                          49.900                    91014599.208 8
  23193071.867       -1233.586          49.800    93388882.665 8  23193069.477
     -1265.768          48.200    92201744.542 9  23193071.512       -1249.674
        55.000
  62098409.047 7                  11816933.828
       412.344                          43.500



 202786857.422 6                  38589051.063
       -82.102                          39.600



 18  4  4  7 30 30.0000000  0 24G27G15G20G13R11G09R12G21R13G28R19R03
                                G30G07R01R02G05R18E19E07E12E30E20S20
 133305062.580 5                  25367115.180
       436.847                          31.000                    99546039.408 3
  25367120.070         326.207          23.500


 130581104.006 7 101751505.215 6  24848753.313                    24848757.105
      3346.330        2607.523          42.300          36.000



 131241815.332 6 102266376.11243  24974487.617                    24974491.047
      3551.673        2767.545          38.400          18.600



 115975857.792 8  90370812.23945  22069470.836                    22069474.871
      2516.042        1960.548          48.300          33.100



 112451661.741 7  87462411.616 7  21043795.227    21043795.102    21043798.781
     -3164.390       -2461.183          47.500          45.700



 125073358.235 7  97459905.690 6  23800702.875                    23800710.246
     -3053.793       -2379.574          42.000          41.100    93399082.724 7
  23800710.742       -2280.428          45.500


 102445502.825 7                  19178014.750    19178013.063
       362.702                          46.800



 138191194.697 5                  26296909.664
      1724.080                          34.500



 118397926.675 6  92087303.910 6  22172127.922    22172125.707    22172131.199
      4112.835        3198.863          37.000          36.500



 117690316.844 7  91706856.32944  22395742.117                    22395745.758
      2545.621        1983.602          44.900          28.700



 125962387.885 6  97970765.382 6  23547339.688    23547339.328    23547342.598
      -577.104        -448.867          38.700          39.600



 115997258.910 7  90220101.644 7  21669261.914    21669261.145    21669264.953
      3500.588        2722.675          45.800          45.000



 107073871.911 8  83434230.452 8  20375483.164                    20375489.105
      -734.172        -572.083          53.500          50.900    79957807.386 9
  20375489.715        -548.248          56.000


 113818369.734 8  88689666.025 7  21658919.273                    21658922.133
     -2152.121       -1676.974          50.700          44.600



 116754380.395 6  90808986.690 6  21841324.039    21841324.254    21841331.301
     -3402.064       -2646.061          41.200          37.900



 102046889.230 8  79369831.293 8  19123543.500    19123542.883    19123546.949
       365.778         284.488          49.100          48.700



 108066733.946 8  84207878.540 8  20564420.320                    20564424.109
        -3.202          -2.494          50.800          49.500



 129556458.866 6 100766172.569 5  24270297.555    24270297.301    24270301.168
     -3146.862       -2447.551          37.800          33.500



 134782238.415 7                  25648207.234
      2281.188                          44.300                   100649080.546 7
  25648208.629        1703.487          43.100   103274698.400 6  25648206.426
      1747.922          41.500   101961897.076 8  25648208.477        1725.705
        48.300
 131290042.987 8                  24983664.672
     -1996.384                          48.300                    98041274.967 8
  24983670.207       -1490.808          50.100   100598868.387 8  24983667.066
     -1529.692          48.900    99320076.786 9  24983669.344       -1510.246
        55.100
 140963150.536 6                  26824398.766
     -1582.264                          36.400                   105264687.112 6
  26824401.164       -1181.555          39.800   108010717.725 6  26824399.570
     -1212.385          39.400   106637705.528 7  26824400.707       -1196.971
        44.800
 121930135.017 8                  23202532.414
     -1663.338                          49.000                    91051739.117 8
  23202536.438       -1242.103          49.600    93426991.447 8  23202533.859
     -1274.504          48.400    92239368.892 9  23202535.828       -1258.302
        55.100
  62086175.891 7                  11814605.648
       403.548                          43.600



 202789323.347 6                  38589521.359
       -81.993                          39.700



 18  4  4  7 31  0.0000000  0 24G27G15G20G13R11G09R12G21R13G28R19R03
                                G30G07R01R02G05R18E19E07E12E30E20S20
 133292234.839 4                  25364675.227
       418.932                          26.800                    99536460.250 5
  25364682.211         312.828          31.700


 130480731.732 7 101673293.061 6  24829652.828                    24829657.816
      3345.150        2606.607          44.700          37.900



 131135339.753 5 102183408.10342  24954225.016                    24954229.602
      3546.810        2763.717          35.200          16.300



 115900474.783 7  90312072.23245  22055125.891                    22055129.625
      2509.644        1955.569          47.800          32.900



 112546825.894 8  87536428.190 7  21061604.117    21061603.285    21061606.848
     -3179.346       -2472.844          48.400          45.100



 125165028.892 6  97531337.315 6  23818148.320                    23818155.180
     -3057.528       -2382.483          41.800          41.800    93467538.024 7
  23818154.680       -2283.217          44.300


 102435022.612 7                  19176051.984    19176051.000
       336.815                          47.000



 138139656.482 5                  26287103.688
      1712.222                          34.100



 118274697.203 6  91991458.810 5  22149050.727    22149048.746    22149054.246
      4102.714        3191.047          38.100          35.000



 117614129.723 7  91647489.77345  22381243.820                    22381248.055
      2533.821        1974.406          45.100          30.400



 125980089.080 6  97984532.978 6  23550648.164    23550647.805    23550652.152
      -602.227        -468.371          37.700          39.300



 115892336.842 7  90138495.578 7  21649662.266    21649661.027    21649665.332
      3494.365        2717.831          46.100          45.100



 107096135.995 8  83451579.077 8  20379719.773                    20379725.680
      -749.629        -584.119          53.200          51.300    79974433.157 9
  20379725.707        -559.786          55.900


 113883084.681 8  88740093.253 7  21671234.586                    21671237.707
     -2161.923       -1684.619          50.800          44.800



 116856613.957 7  90888501.600 6  21860450.305    21860449.230    21860456.328
     -3413.156       -2654.700          42.100          37.800



 102036216.881 8  79361530.562 8  19121543.867    19121542.664    19121547.043
       346.320         269.352          48.900          48.500



 108067127.255 8  84208185.008 8  20564495.016                    20564498.875
       -22.415         -17.464          50.500          49.900



 129651041.596 6 100839736.914 5  24288016.766    24288015.336    24288019.762
     -3158.248       -2456.439          36.700          34.400



 134713851.431 7                  25635192.992
      2277.979                          43.700                   100598012.339 7
  25635195.629        1701.094          43.600   103222297.985 6  25635192.766
      1745.465          41.400   101910162.769 8  25635194.941        1723.283
        48.300
 131350037.256 8                  24995081.320
     -2003.046                          48.300                    98086075.844 8
  24995087.004       -1495.781          50.300   100644837.997 8  24995083.676
     -1534.801          48.300    99365462.028 9  24995085.902       -1515.289
        55.100
 141010787.590 6                  26833464.289
     -1593.206                          38.000                   105300260.236 6
  26833466.211       -1189.734          38.300   108047218.793 6  26833463.867
     -1220.770          37.800   106673742.626 7  26833465.203       -1205.253
        43.500
 121980209.627 8                  23212061.398
     -1674.646                          50.200                    91089132.478 8
  23212064.852       -1250.550          50.100    93465360.285 8  23212062.695
     -1283.173          48.600    92277249.990 9  23212064.715       -1266.859
        54.900
  62074204.712 7                  11812327.625
       394.800                          44.100



 202791783.617 6                  38590000.203
       -81.939                          39.000



 18  4  4  7 31 30.0000000  0 23G15G20G13R11G09R12G21R13G28R19R03G30
                                G07R01R02G05R18E19E07E12E30E20S20
 130380394.142 6 101595107.905 5  24810559.242                    24810563.445
      3343.937        2605.663          41.900          35.300



 131029008.322 5 102100552.45742  24933991.070                    24933994.887
      3542.032        2760.061          32.300          16.300



 115825283.738 8  90253481.81345  22040817.539                    22040820.805
      2503.209        1950.554          49.000          33.400



 112642436.640 7  87610792.057 7  21079496.375    21079496.484    21079500.270
     -3194.236       -2484.407          47.800          45.500



 125256811.024 6  97602855.797 6  23835612.813                    23835620.508
     -3061.231       -2385.370          40.700          40.600    93536076.542 7
  23835620.594       -2285.977          42.800


 102425316.646 7                  19174235.039    19174233.586
       310.994                          47.300



 138088474.138 4                  26277361.102
      1700.269                          28.300



 118151770.697 6  91895849.346 5  22126031.094    22126027.824    22126033.148
      4092.549        3183.122          38.800          34.800



 117538296.965 7  91588399.34745  22366814.031                    22366817.617
      2521.963        1965.157          45.800          31.100



 125998542.247 6  97998885.430 6  23554098.086    23554097.492    23554101.992
      -627.246        -487.822          38.800          40.400



 115787601.505 7  90057034.776 7  21630096.500    21630095.262    21630099.469
      3488.051        2712.943          46.700          44.900



 107118861.788 8  83469287.483 8  20384044.180                    20384050.203
      -765.027        -596.125          52.900          51.500    79991403.713 9
  20384050.406        -571.283          56.000


 113948091.141 8  88790747.603 7  21683605.211                    21683609.074
     -2171.634       -1692.178          52.000          46.200



 116959178.271 6  90968273.825 6  21879636.781    21879635.473    21879643.578
     -3424.159       -2663.243          41.700          37.700



 102026129.255 8  79353684.625 8  19119653.320    19119652.703    19119656.887
       326.768         254.157          48.600          49.300



 108068096.358 8  84208940.143 8  20564679.609                    20564683.301
       -41.657         -32.458          50.300          49.400



 129745962.641 5 100913564.309 5  24305798.203    24305797.246    24305801.145
     -3169.476       -2465.116          35.000          30.800



 134645561.227 7                  25622198.039
      2274.719                          43.900                   100547016.410 7
  25622200.273        1698.650          43.700   103169971.724 6  25622196.992
      1742.966          41.800   101858501.676 8  25622199.727        1720.810
        48.200
 131410230.463 7                  25006535.758
     -2009.700                          47.900                    98131025.283 8
  25006540.617       -1500.752          49.800   100690960.036 8  25006538.320
     -1539.898          48.600    99410997.767 9  25006540.199       -1520.323
        55.100
 141058750.731 6                  26842591.969
     -1604.074                          39.200                   105336076.891 6
  26842592.336       -1197.853          38.900   108083969.787 6  26842591.023
     -1229.098          36.500   106710026.446 7  26842592.168       -1213.473
        43.200
 122030621.642 8                  23221654.383
     -1685.886                          49.400                    91126777.806 8
  23221658.004       -1258.941          50.100    93503987.670 8  23221655.895
     -1291.777          49.000    92315386.345 9  23221657.691       -1275.361
        55.100
  62062495.762 7                  11810099.484
       386.082                          43.400



 202794239.368 6                  38590453.313
       -81.767                          38.300



 18  4  4  7 32  0.0000000  0 24G15G20G13R11G09G02R12G21R13G28R19R03
                                G30G07R01R02G05R18E19E07E12E30E20S20
 130280093.047 6 101516951.218 5  24791472.164                    24791476.582
      3342.759        2604.747          38.100          33.900



 130922823.573 5 102017811.08243  24913785.141                    24913788.961
      3537.078        2756.153          34.800          18.300



 115750285.725 8  90195041.81845  22026546.344                    22026549.461
      2496.815        1945.569          48.100          32.800



 112738490.297 7  87685500.433 7  21097471.555    21097470.840    21097474.961
     -3208.873       -2495.781          47.800          45.100



 125348704.010 7  97674460.646 6  23853099.766                    23853107.270
     -3064.891       -2388.226          42.700          40.400    93604697.895 7
  23853107.883       -2288.723          42.900


 128269875.786 5                  24408910.461
     -2916.117                          32.300



 102416384.522 7                  19172562.742    19172561.641
       285.293                          47.000



 138037651.370 5                  26267687.945
      1688.405                          31.000



 118029150.337 6  91800477.951 5  22103067.445    22103064.762    22103070.566
      4082.364        3175.216          38.400          35.800



 117462821.250 7  91529587.12045  22352451.773                    22352455.238
      2510.063        1955.898          46.700          31.800



 126017746.273 6  98013821.872 6  23557690.172    23557688.754    23557691.969
      -652.251        -507.300          38.100          40.800



 115683055.909 7  89975721.535 7  21610566.109    21610565.340    21610569.004
      3481.749        2708.020          46.700          44.600



 107142048.123 8  83487354.751 8  20388456.547                    20388462.254
      -780.295        -608.023          53.000          50.700    80008718.177 9
  20388462.512        -582.690          55.900


 114013387.574 8  88841627.899 7  21696030.203                    21696034.023
     -2181.189       -1699.620          50.800          45.800



 117062072.200 6  91048302.356 6  21898885.156    21898884.902    21898892.543
     -3435.080       -2671.711          41.700          37.900



 102016627.954 8  79346294.706 8  19117873.156    19117871.953    19117876.160
       307.309         239.011          48.600          48.600



 108069641.970 8  84210144.509 8  20564973.781                    20564977.547
       -60.815         -47.388          51.800          49.400



 129841217.631 5 100987651.519 5  24323644.313    24323640.539    24323646.230
     -3180.421       -2473.672          31.900          31.200



 134577368.799 7                  25609221.563
      2271.482                          44.100                   100496093.493 7
  25609224.285        1696.240          43.900   103117720.381 6  25609220.719
      1740.490          41.300   101806914.548 8  25609223.281        1718.362
        48.500
 131470622.482 8                  25018027.906
     -2016.262                          48.500                    98176123.200 8
  25018033.191       -1505.650          50.400   100737234.418 8  25018030.051
     -1544.926          48.200    99456683.923 9  25018032.496       -1525.289
        55.100
 141107038.538 6                  26851780.398
     -1614.797                          37.900                   105372135.954 6
  26851781.188       -1205.856          38.800   108120969.539 6  26851779.219
     -1237.319          37.200   106746555.853 7  26851781.207       -1221.584
        43.400
 122081369.703 8                  23231311.711
     -1696.996                          50.300                    91164674.078 8
  23231315.059       -1267.239          49.300    93542872.542 8  23231312.855
     -1300.295          48.400    92353776.920 9  23231314.766       -1283.768
        54.900
  62051049.832 7                  11807921.391
       377.322                          43.800



 202796687.035 6                  38590924.313
       -81.251                          39.700



 18  4  4  7 32 30.0000000  0 24G27G15G20G13R11G09R12G21R13G28R19R03
                                G30G07R01R02G05R18E19E07E12E30E20S20
 133256939.581 5 103836661.474 4  25357967.484
       364.814         284.280          32.900          29.900    99510134.214 4
  25357973.277         272.426          28.700


 130179829.150 6 101438823.581 5  24772392.875                    24772396.129
      3341.518        2603.773          41.600          34.600



 130816788.280 6 101935186.18643  24893607.570                    24893610.918
      3532.078        2752.266          37.800          19.900



 115675481.903 8  90136753.13145  22012311.523                    22012313.938
      2490.335        1940.518          48.700          32.800



 112834983.484 7  87760550.688 7  21115529.305    21115528.590    21115532.281
     -3223.397       -2507.104          47.600          45.500



 125440707.495 7  97746151.627 6  23870608.070                    23870615.328
     -3068.532       -2391.069          43.100          40.200    93673401.740 7
  23870615.707       -2291.430          45.300


 102408226.299 7                  19171035.977    19171034.641
       259.531                          47.000



 137987185.547 6                  26258087.203
      1676.406                          36.100



 117906839.645 6  91705347.477 6  22080162.781    22080160.801    22080166.207
      4072.021        3167.127          38.700          37.000



 117387705.466 7  91471055.36745  22338156.953                    22338160.820
      2498.054        1946.530          46.500          31.400



 126037700.430 6  98029341.796 6  23561419.289    23561417.520    23561421.973
      -677.173        -526.725          37.100          39.700



 115578703.743 7  89894558.747 7  21591071.336    21591071.273    21591075.383
      3475.308        2703.000          45.800          44.700



 107165694.239 9  83505780.297 8  20392956.453                    20392962.191
      -795.559        -619.921          54.000          51.000    80026375.987 9
  20392962.273        -594.087          55.900


 114078973.132 8  88892733.506 7  21708510.273                    21708514.117
     -2190.791       -1707.109          50.300          44.600



 117165294.048 7  91128585.978 6  21918196.008    21918194.582    21918202.035
     -3445.986       -2680.199          42.600          37.900



 102007714.983 8  79339362.387 8  19116202.789    19116201.586    19116205.855
       287.652         223.740          49.500          48.800



 108071764.787 8  84211798.647 8  20565377.969                    20565381.230
       -80.029         -62.364          51.300          49.500



 129936802.874 5 101061995.553 4  24341548.016    24341547.176    24341552.754
     -3191.392       -2482.221          33.100          27.500



 134509275.622 7                  25596263.461
      2268.172                          44.100                   100445244.698 7
  25596266.422        1693.767          43.600   103065545.092 6  25596263.094
      1737.948          41.600   101755402.503 8  25596265.410        1715.862
        48.500
 131531213.540 8                  25029557.602
     -2022.878                          48.800                    98221369.740 8
  25029563.207       -1510.591          50.000   100783661.316 8  25029560.719
     -1549.993          48.100    99502520.642 9  25029562.598       -1530.296
        55.100
 141155649.824 6                  26861030.984
     -1625.523                          36.800                   105408436.556 6
  26861032.160       -1213.865          40.500   108158217.123 6  26861031.035
     -1245.525          38.200   106783329.946 7  26861031.898       -1229.694
        45.000
 122132452.709 8                  23241032.477
     -1708.128                          50.500                    91202820.464 8
  23241036.051       -1275.547          49.600    93582014.050 8  23241033.754
     -1308.829          49.000    92392420.866 9  23241035.590       -1292.189
        54.800
  62039868.128 7                  11805793.977
       368.492                          44.500



 202799131.921 6                  38591379.141
       -81.351                          38.900



 18  4  4  7 33  0.0000000  0 23G15G20G13R11G09R12G21R13G28R19R03G30
                                G07R01R02G05R18E19E07E12E30E20S20
 130079603.365 7 101360725.457 6  24753320.836                    24753325.250
      3340.261        2602.801          42.300          36.000



 130710904.093 6 101852679.03343  24873457.961                    24873462.039
      3526.998        2748.328          38.000          20.900



 115600872.225 8  90078615.70645  21998113.172                    21998116.984
      2483.846        1935.459          48.100          33.500



 112931911.892 7  87835939.422 7  21133667.633    21133667.625    21133671.441
     -3237.892       -2518.355          47.500          46.800



 125532820.427 6  97817927.913 6  23888136.391                    23888142.984
     -3072.173       -2393.904          41.800          40.500    93742187.296 7
  23888144.477       -2294.156          44.700


 102400840.499 7                  19169653.313    19169651.859
       233.753                          46.700



 137937080.263 6                  26248553.383
      1664.370                          37.500



 117784841.154 6  91610459.817 6  22057316.344    22057314.363    22057320.238
      4061.568        3158.992          38.700          37.900



 117312951.617 7  91412805.62445  22323932.484                    22323935.695
      2485.949        1937.102          47.500          32.300



 126058402.565 6  98045443.414 6  23565290.234    23565288.582    23565291.566
      -702.095        -546.071          37.400          39.500



 115474546.609 7  89813547.630 7  21571614.891    21571614.238    21571617.992
      3468.717        2697.896          45.800          44.400



 107189798.205 8  83524562.603 8  20397543.086                    20397548.957
      -810.815        -631.808          53.500          50.900    80044375.692 9
  20397549.625        -605.478          56.100


 114144845.037 8  88944062.267 7  21721045.563                    21721048.559
     -2200.309       -1714.524          50.800          44.300



 117268841.857 6  91209123.124 6  21937566.070    21937564.879    21937572.531
     -3456.830       -2688.625          41.200          36.800



 101999391.576 8  79332888.629 8  19114643.305    19114641.867    19114646.102
       267.954         208.399          49.000          48.900



 108074464.162 8  84213902.035 8  20565891.211                    20565894.695
       -99.241         -77.328          51.000          49.500



 130032713.182 5 101136592.446 4  24359514.305    24359513.465    24359519.570
     -3202.112       -2490.628          33.700          25.200



 134441281.984 7                  25583324.945
      2264.859                          43.600                   100394470.228 7
  25583327.172        1691.292          43.600   103013446.068 6  25583324.734
      1735.417          41.800   101703965.759 8  25583326.645        1713.350
        48.500
 131592002.719 7                  25041125.742
     -2029.479                          47.800                    98266764.225 8
  25041130.945       -1515.520          50.000   100830240.008 8  25041128.227
     -1555.052          48.200    99548507.227 9  25041130.508       -1535.288
        55.000
 141204582.311 5                  26870341.531
     -1636.220                          35.100                   105444976.977 6
  26870344.527       -1221.844          41.500   108195710.799 6  26870340.637
     -1253.725          37.400   106820347.002 7  26870343.719       -1237.787
        45.200
 122183868.536 8                  23250816.336
     -1719.190                          50.700                    91241215.395 8
  23250820.320       -1283.814          49.500    93621410.575 8  23250817.832
     -1317.301          48.700    92431316.593 9  23250819.762       -1300.553
        54.800
  62028950.752 7                  11803715.953
       359.654                          43.900



 202801572.215 6                  38591847.781
       -81.098                          39.900



 18  4  4  7 33 30.0000000  0 25G27G15G20G13R11G09G02R12G21R13G28R19
                                R03G30G07R01R02G05R18E19E07E12E30E20
                                S20
 133236152.03114                  25354009.742
       328.517                          28.300



 129979416.581 6 101282657.852 6  24734254.758                    24734259.879
      3338.969        2601.794          37.900          37.600



 130605174.116 6 101770292.05543  24853337.453                    24853342.121
      3521.867        2744.319          37.100          21.100



 115526458.419 8  90020630.92445  21983953.195                    21983956.379
      2477.328        1930.382          48.100          33.100



 113029271.921 8  87911663.886 7  21151887.055    21151886.813    21151890.574
     -3252.228       -2529.516          48.300          45.800



 125625042.371 7  97889789.090 6  23905685.930                    23905692.563
     -3075.791       -2396.716          42.200          40.500    93811054.230 7
  23905693.293       -2296.857          44.300


 128532472.235 4                  24458920.922
     -2923.607                          29.900



 102394226.704 7                  19168414.898    19168414.031
       208.067                          46.800



 137887336.753 6 107444681.81742  26239086.516                    26239090.016
      1652.339        1287.552          37.300          16.300



 117663158.551 6  91515817.877 6  22034528.484    22034526.152    22034532.793
      4050.994        3150.738          38.700          36.800



 117238562.754 7  91354840.29645  22309776.273                    22309779.586
      2473.731        1927.582          46.800          32.100



 126079851.987 6  98062126.299 6  23569298.047    23569297.805    23569301.367
      -727.011        -565.453          36.000          39.700



 115370587.913 7  89732690.867 7  21552194.703    21552194.168    21552197.348
      3462.065        2692.711          46.900          45.500



 107214359.105 8  83543700.964 8  20402216.898                    20402222.609
      -826.022        -643.659          53.600          51.400    80062716.616 9
  20402222.809        -616.834          55.700


 114211001.802 8  88995612.988 7  21733635.391                    21733638.363
     -2209.764       -1721.898          51.400          45.300



 117372714.037 6  91289912.558 6  21956996.328    21956995.840    21957003.000
     -3467.588       -2697.020          40.900          36.200



 101991659.193 8  79326874.523 8  19113194.016    19113192.695    19113197.238
       248.232         193.074          48.800          48.900



 108077741.081 8  84216455.468 8  20566514.633                    20566518.082
      -118.514         -92.346          50.200          49.100



 130128944.939 5 101211439.279 4  24377543.336    24377542.848    24377546.230
     -3212.875       -2498.873          34.300          28.400



 134373389.293 7                  25570405.133
      2261.484                          43.500                   100343771.142 7
  25570407.379        1688.771          43.700   102961424.389 6  25570405.504
      1732.831          41.800   101652605.373 8  25570407.195        1710.799
        48.300
 131652990.135 8                  25052731.414
     -2036.097                          48.600                    98312306.752 8
  25052736.469       -1520.465          49.900   100876970.605 8  25052733.563
     -1560.127          48.100    99594643.786 9  25052736.102       -1540.292
        55.000
 141253834.795 5                  26879714.195
     -1646.877                          34.700                   105481756.380 6
  26879716.297       -1229.810          40.000   108233449.671 6  26879714.699
     -1261.895          38.800   106857606.132 7  26879716.180       -1245.848
        45.200
 122235616.042 8                  23260663.438
     -1730.215                          49.500                    91279857.989 8
  23260667.477       -1292.042          49.900    93661061.243 8  23260664.664
     -1325.752          48.200    92470463.223 9  23260666.809       -1308.893
        54.800
  62018298.845 7                  11801688.992
       350.798                          43.800



 202804007.036 6                  38592312.766
       -81.370                          38.900



 18  4  4  7 34  0.0000000  0 24G27G15G20G13R11G09R12G21R13G28R19R03
                                G30G07R01R02G05R18E19E07E12E30E20S20
 133226573.067 5 103813012.277 4  25352188.211
       310.609         242.012          30.100          25.800    99487459.008 4
  25352195.688         231.946          29.200


 129879269.576 6 101204621.388 6  24715198.289                    24715202.340
      3337.595        2600.723          41.800          36.600



 130499600.712 6 101688027.06743  24833248.320                    24833252.582
      3516.593        2740.193          38.600          19.900



 115452241.246 8  89962799.36645  21969830.180                    21969833.398
      2470.729        1925.247          48.600          34.000



 113127059.768 7  87987721.071 7  21170187.203    21170186.020    21170189.703
     -3266.415       -2540.544          47.700          45.300



 125717372.635 7  97961734.687 6  23923254.930                    23923262.523
     -3079.384       -2399.523          42.500          39.900    93880002.094 7
  23923262.844       -2299.549          42.900


 102388384.223 7                  19167321.688    19167319.410
       182.348                          46.800



 137837956.404 6 107406203.60842  26229690.656                    26229693.754
      1640.173        1278.074          37.100          16.900



 117541793.625 6  91421422.938 5  22011800.930    22011799.184    22011805.016
      4040.393        3142.493          39.000          35.800



 117164541.220 7  91297161.19945  22295690.414                    22295693.613
      2461.483        1918.038          46.800          31.000



 126102046.949 5  98079389.053 6  23573447.734    23573446.316    23573451.465
      -751.820        -584.764          35.400          39.900



 115266830.205 7  89651990.438 7  21532810.945    21532810.527    21532814.992
      3455.328        2687.458          46.000          45.300



 107239375.617 8  83563194.339 8  20406977.188                    20406983.133
      -841.183        -655.463          53.200          50.600    80081397.777 9
  20406983.391        -628.151          55.800


 114277441.590 8  89047384.212 7  21746278.258                    21746281.961
     -2219.173       -1729.223          50.200          45.300



 117476909.220 6  91370953.214 6  21976489.320    21976487.895    21976494.441
     -3478.325       -2705.374          41.900          36.200



 101984519.632 8  79321321.524 8  19111855.938    19111854.969    19111859.258
       228.433         177.679          48.800          49.000



 108081595.869 8  84219459.193 8  20567248.242                    20567252.004
      -137.772        -107.352          49.800          49.200



 130225493.27414 101286532.323 5  24395630.484    24395628.586    24395633.672
     -3223.559       -2506.969          29.100          30.200



 134305598.431 7                  25557504.836
      2258.081                          43.600                   100293148.091 7
  25557506.859        1686.231          43.700   102909480.744 6  25557505.172
      1730.215          41.900   101601322.030 8  25557506.840        1708.219
        48.300
 131714175.473 8                  25064374.453
     -2042.664                          48.100                    98357997.067 8
  25064379.813       -1525.366          49.700   100923852.850 8  25064377.090
     -1565.156          48.200    99640930.068 9  25064379.344       -1545.258
        54.900
 141303405.383 6                  26889147.813
     -1657.436                          36.700                   105518773.379 6
  26889148.852       -1237.696          39.900   108271432.310 6  26889147.492
     -1269.985          38.900   106895105.950 7  26889148.859       -1253.840
        44.700
 122287693.619 8                  23270573.656
     -1741.189                          49.500                    91318747.067 8
  23270577.578       -1300.237          50.100    93700964.826 7  23270574.813
     -1334.155          47.900    92509859.557 9  23270576.961       -1317.200
        54.800
  62007913.163 7                  11799712.883
       341.879                          43.300



 202806436.091 6                  38592779.219
       -80.903                          38.200



 18  4  4  7 34 30.0000000  0 25G27G15G20G13R11G09G02R12G21R13G28R19
                                R03G30G07R01R02G05R18E19E07E12E30E20
                                S20
 133217537.882 5 103805972.077 4  25350469.734
       292.444         227.894          32.000          28.600    99480712.114 5
  25350477.387         218.382          32.000


 129779163.327 7 101126616.473 6  24696149.508                    24696152.332
      3336.246        2599.673          46.600          37.100



 130394185.790 6 101605885.54643  24813189.055                    24813193.227
      3511.277        2736.068          39.200          20.400



 115378221.587 8  89905121.71545  21955744.906                    21955748.293
      2464.146        1920.118          48.100          34.200



 113225271.299 7  88064107.786 7  21188566.570    21188564.918    21188569.102
     -3280.492       -2551.492          47.600          45.100



 125809810.206 6  98033763.886 6  23940845.953                    23940852.914
     -3082.949       -2402.300          41.200          39.000    93949030.080 7
  23940854.816       -2302.199          44.900


 128707976.341 5                  24492326.516
     -2928.191                          30.800



 102383312.404 7                  19166372.023    19166370.570
       156.686                          46.700



 137788940.471 6 107368009.39743  26220362.359                    26220365.348
      1627.965        1268.581          38.200          18.600



 117420749.929 6  91327277.809 6  21989133.609    21989131.746    21989137.230
      4029.624        3134.167          38.000          36.400



 117090889.166 7  91239770.01645  22281674.492                    22281678.625
      2449.124        1908.406          46.000          31.600



 126124985.814 6  98097230.353 6  23577737.008    23577734.535    23577738.449
      -776.607        -604.022          36.600          39.400



 115163276.650 7  89571448.784 7  21513466.750    21513465.863    21513469.961
      3448.522        2682.185          45.900          44.400



 107264846.112 8  83583041.473 8  20411824.141                    20411830.039
      -856.287        -667.235          53.500          50.700    80100417.943 9
  20411830.590        -639.430          55.900


 114344162.566 8  89099374.547 7  21758974.563                    21758978.152
     -2228.521       -1736.512          50.200          45.100



 117581425.095 6  91452243.305 6  21996040.578    21996040.324    21996047.219
     -3488.963       -2713.653          40.800          37.000



 101977974.150 8  79316230.581 8  19110629.148    19110628.770    19110632.910
       208.655         162.299          49.100          48.900



 108086028.031 8  84222912.812 8  20568091.875                    20568095.391
      -157.013        -122.351          49.200          49.500



 130322353.785 4 101361868.363 5  24413778.086    24413774.664    24413779.965
     -3233.732       -2515.150          29.600          31.800



 134237910.132 7                  25544624.539
      2254.615                          43.600                   100242601.650 7
  25544626.305        1683.638          43.600   102857615.699 6  25544624.520
      1727.564          41.400   101550116.283 8  25544626.090        1705.598
        48.400
 131775558.172 8                  25076055.422
     -2049.238                          48.100                    98403834.777 8
  25076060.676       -1530.274          49.800   100970886.321 8  25076058.098
     -1570.193          48.300    99687365.660 9  25076060.188       -1550.234
        54.900
 141353292.367 6                  26898641.258
     -1667.952                          38.700                   105556026.563 6
  26898642.297       -1245.549          38.900   108309657.341 6  26898640.141
     -1278.046          37.800   106932845.059 7  26898642.172       -1261.791
        43.600
 122340099.466 8                  23280546.211
     -1752.115                          50.200                    91357881.283 8
  23280550.047       -1308.394          49.700    93741119.938 7  23280547.371
     -1342.525          47.800    92549504.224 9  23280549.484       -1325.464
        54.700
  61997794.056 7                  11797787.391
       333.004                          43.800



 202808859.356 6                  38593230.844
       -80.484                          40.000



 18  4  4  7 35  0.0000000  0 24G15G20G13R11G09G02R12G21R13G28R19R03
                                G30G07R01R02G05R18E19E07E12E30E20S20
 129679098.985 6 101048644.248 6  24677106.344                    24677110.855
      3334.776        2598.518          41.000          39.100



 130288932.639 6 101523870.06443  24793159.734                    24793163.672
      3505.763        2731.771          38.400          19.600



 115304400.737 8  89847598.97845  21941696.492                    21941700.258
      2457.443        1914.893          48.100          33.700



 113323903.501 7  88140821.707 7  21207023.914    21207022.965    21207026.488
     -3294.490       -2562.375          47.400          45.100



 125902355.201 7  98105876.811 6  23958456.797                    23958464.391
     -3086.586       -2405.134          42.300          38.600    94018138.296 7
  23958464.945       -2304.918          44.600


 128795853.942 5                  24509047.375
     -2930.270                          30.800



 102379010.802 7                  19165566.906    19165565.102
       130.966                          46.800



 137740291.017 6 107330100.72043  26211105.555                    26211108.109
      1615.693        1258.968          40.900          19.900



 117300030.940 6  91233385.332 6  21966527.047    21966524.949    21966530.645
      4018.688        3125.655          38.500          37.100



 117017609.523 7  91182669.00645  22267729.328                    22267733.547
      2436.604        1898.657          46.900          31.400



 126148667.700 6  98115649.575 6  23582161.969    23582161.844    23582165.715
      -801.340        -623.265          36.200          39.500



 115059930.076 7  89491068.128 7  21494160.766    21494160.230    21494164.258
      3441.484        2676.696          46.000          45.000



 107290769.979 8  83603241.888 8  20416757.297                    20416763.285
      -871.447        -679.050          52.700          50.600    80119776.675 9
  20416763.660        -650.759          55.600


 114411163.537 8  89151583.089 7  21771724.688                    21771727.281
     -2237.880       -1743.802          50.200          44.500



 117686260.737 6  91533782.103 6  22015653.453    22015652.496    22015659.660
     -3499.656       -2721.980          41.800          37.100



 101972024.941 8  79311603.418 8  19109514.617    19109514.000    19109517.891
       188.649         146.729          49.000          48.600



 108091038.994 8  84226817.449 8  20569045.336                    20569049.207
      -176.382        -137.437          49.500          49.300



 130419522.68014 101437444.166 4  24431977.930    24431977.324    24431982.492
     -3243.541       -2522.989          29.600          25.300



 134170326.025 7                  25531763.609
      2251.059                          43.300                   100192132.998 7
  25531766.234        1680.987          44.000   102805830.480 7  25531764.125
      1724.840          42.600   101498989.347 8  25531765.313        1702.914
        48.500
 131837138.628 8                  25087773.586
     -2055.875                          48.200                    98449820.165 8
  25087779.297       -1535.232          49.800   101018071.329 8  25087775.969
     -1575.281          48.400    99733950.855 9  25087778.352       -1555.254
        54.800
 141403494.631 6                  26908194.078
     -1678.516                          38.000                   105593515.281 6
  26908194.953       -1253.437          37.500   108348124.008 6  26908193.875
     -1286.136          37.300   106970822.755 7  26908195.332       -1269.790
        42.800
 122392832.696 8                  23290580.953
     -1763.068                          50.400                    91397259.974 8
  23290584.840       -1316.578          49.800    93781525.903 8  23290582.121
     -1350.922          48.700    92589396.546 9  23290584.352       -1333.744
        54.600
  61987942.934 7                  11795912.906
       324.003                          43.600



 202811279.127 6                  38593694.906
       -80.538                          39.900



 18  4  4  7 35 30.0000000  0 24G27G15G20G13R11G09G02R12G21R13G28R19
                                R03G30G07R01R02G05E19E07E12E30E20S20
 133201248.720 6 103793149.011 4  25347342.703
       256.013         199.518          36.300          28.300    99468445.569 5
  25347350.066         191.187          31.500


 129579077.837 7 100970705.807 6  24658074.492                    24658077.691
      3333.366        2597.429          44.600          38.800



 130183843.413 6 101441982.37942  24773161.938                    24773164.840
      3500.365        2727.564          37.400          17.400



 115230779.371 8  89790231.69545  21927687.438                    21927690.164
      2450.822        1909.732          48.700          32.700



 113422952.203 7  88217859.550 7  21225559.867    21225559.625    21225562.902
     -3308.279       -2573.108          47.500          45.200



 125995006.534 7  98178072.602 6  23976088.711                    23976095.113
     -3090.042       -2407.828          43.400          40.500    94087325.869 7
  23976096.020       -2307.496          44.100


 128883794.35914                  24525782.563
     -2932.423                          28.900



 102375478.143 7                  19164905.148    19164903.930
       105.400                          47.200



 137692009.073 6 107292478.42143  26201917.406                    26201919.730
      1603.460        1249.444          39.900          18.300



 117179639.266 6  91139747.408 6  21943981.953    21943978.918    21943984.113
      4007.788        3117.173          39.100          36.900



 116944704.673 7  91125860.05445  22253856.367                    22253860.320
      2424.138        1888.937          45.800          31.200



 126173091.013 5  98134645.535 6  23586728.047    23586726.043    23586731.090
      -825.958        -642.485          35.800          40.000



 114956793.451 7  89410850.766 7  21474894.117    21474892.762    21474896.367
      3434.518        2671.298          46.300          45.300



 107317145.527 8  83623794.266 8  20421776.250                    20421782.094
      -886.422        -690.722          52.700          50.700    80139472.696 9
  20421782.703        -661.942          56.100


 114478442.378 8  89204008.161 7  21784527.688                    21784530.215
     -2247.068       -1750.961          51.300          43.700



 117791414.079 7  91615567.994 6  22035323.766    22035323.863    22035329.902
     -3510.175       -2730.154          42.000          36.400



 101966672.783 8  79307440.618 8  19108511.711    19108510.625    19108514.504
       168.822         131.324          48.600          49.200



 108096628.553 8  84231172.933 8  20570108.828                    20570112.434
      -195.604        -152.417          50.200          49.500



 134102846.799 7                  25518922.594
      2247.640                          43.400                   100141742.657 7
  25518925.215        1678.436          44.000   102754125.613 6  25518922.586
      1722.218          41.600   101447941.743 8  25518924.477        1700.327
        48.600
 131898916.233 8                  25099529.750
     -2062.391                          48.600                    98495952.768 8
  25099534.723       -1540.097          49.300   101065407.400 7  25099532.285
     -1580.276          47.700    99780685.194 9  25099534.328       -1560.186
        54.700
 141454010.197 6                  26917807.320
     -1688.850                          37.700                   105631237.899 6
  26917809.133       -1261.149          38.300   108386830.701 6  26917806.555
     -1294.048          36.700   107009037.413 7  26917808.074       -1277.606
        43.100
 122445891.447 8                  23300677.594
     -1773.821                          49.300                    91436881.754 8
  23300681.398       -1324.604          49.300    93822181.296 8  23300678.914
     -1359.157          48.400    92629535.138 9  23300681.031       -1341.885
        54.500
  61978360.212 7                  11794089.289
       315.096                          43.500



 202813693.871 6                  38594157.266
       -80.583                          40.200



