     2.11           OBSERVATION DATA    M (MIXED)           RINEX VERSION / TYPE
teqc  2016Nov7                          20180405 04:56:57UTCPGM / RUN BY / DATE
PRNY                                                        MARKER NAME
19857M001                                                   MARKER NUMBER
Automatic           EXAGONE                                 OBSERVER / AGENCY
1294-10805          TPS NET-G5          5.0                 REC # / TYPE / VERS
383-0738            TPSCR.G3        TPSH                    ANT # / TYPE
  4339328.3590   482005.6830  4635194.1790                  APPROX POSITION XYZ
        0.0000        0.0000        0.0000                  ANTENNA: DELTA H/E/N
     1     1                                                WAVELENGTH FACT L1/2
     9    C1    L1    D1    P2    L2    D2    P1    S1    S2# / TYPES OF OBSERV
    30.0000                                                 INTERVAL
    18                                                      LEAP SECONDS
Linux 2.4.21-27.ELsmp|Opteron|gcc|Linux x86_64|=+           COMMENT
teqc  2016Nov7                          20180405 04:56:57UTCCOMMENT
teqc  2016Nov7      IGN-RGP             20180404 08:08:13UTCCOMMENT
teqc  2016Nov7      Administrateur RGP  20180404 08:08:13UTCCOMMENT
teqc  2016Nov7      IGN-RGP             20180404 08:08:11UTCCOMMENT
teqc_2016 edited: GLONASS # 25 - 30 excluded                COMMENT
GN-RINEX 1.3        Geo++ Teria         04-APR-18 08:00     COMMENT
Forced Modulo Decimation to 30 seconds                      COMMENT
teqc_2016 edited: GLONASS # 25 - 30 excluded                COMMENT
teqc_2016 edited: all SBAS satellites excluded              COMMENT
teqc_2016 edited: all Galileo satellites excluded           COMMENT
  2018     4     4     7     0    0.0000000     GPS         TIME OF FIRST OBS
                                                            END OF HEADER
 18  4  4  7  0  0.0000000  0 15G30G05G07G09G13G28G02R02R12R11R01R03
                                R18R19R13
  20291776.718   106634011.961 9       261.040    20291780.560    83091447.073 8
       203.404                          55.000          50.000
  20758972.956   109089136.368 9      1118.063    20758974.064    85004522.824 8
       871.210                          52.000          45.000
  21031774.201   110522723.040 9     -1452.614    21031775.291    86121592.674 7
     -1131.904                          53.000          44.000
  22789936.711   119761919.189 8     -2784.733    22789940.464    93320994.810 6
     -2169.922                          49.000          35.000
  22999719.273   120864348.632 8      2846.211    22999720.756    94180020.059 5
      2217.827                          45.000          28.000
  23387044.552   122899756.079 7      3087.882    23387045.838    95766057.342 4
      2406.193                          40.000          23.000
  23388710.374   122908487.457 7     -2545.474    23388710.106    95772830.574 5
     -1983.515                          43.000          30.000
  19440186.919   103736568.973 9      1429.165    19440187.366    80684064.524 8
      1111.583                          56.000          50.000
  19569951.371   104539184.425 9      1915.350
                                        52.000
  20149866.566   107674780.572 9     -2025.734    20149867.656    83747114.252 8
     -1575.571                          54.000          47.000
  20807212.420   111226471.957 8     -2634.866    20807215.136    86509486.168 7
     -2049.343                          49.000          40.000
  22909175.397   122634621.836 7      3714.445    22909179.704    95382484.720 7
      2889.005                          42.000          42.000
  23336072.253   124569528.119 7     -2183.995    23336074.379    96887461.217 7
     -1698.658                          44.000          39.000
  23619718.351   126349574.691 7       983.088    23619719.602    98271929.526 7
       764.619                          40.000          39.000
  23655750.074   126320396.236 6      4530.960    23655754.345    98249199.088 5
      3524.101                          36.000          30.000
 18  4  4  7  0 30.0000000  0 15G30G05G07G09G13G28G02R02R12R11R01R03
                                R18R19R13
  20290335.027   106626435.353 9       243.964    20290338.744    83085543.225 8
       190.103                          56.000          49.000
  20752638.619   109055848.950 9      1100.987    20752639.691    84978584.569 8
       857.913                          54.000          45.000
  21040104.185   110566497.677 9     -1465.801    21040105.311    86155702.765 7
     -1142.186                          53.000          44.000
  22805848.951   119845534.671 8     -2789.704    22805852.239    93386149.706 6
     -2173.808                          49.000          35.000
  22983483.711   120779030.859 7      2841.563    22983484.801    94113538.691 5
      2214.196                          44.000          28.000
  23369433.075   122807208.714 7      3081.843    23369435.237    95693942.574 4
      2401.433                          40.000          24.000
  23403266.676   122984981.496 7     -2554.222    23403266.283    95832436.285 5
     -1990.306                          44.000          29.000
  19432194.087   103693921.961 9      1413.907    19432195.517    80650894.640 8
      1099.709                          56.000          49.000
  19559263.211   104482089.572 9      1890.862
                                        52.000
  20161301.508   107735883.318 9     -2047.854    20161301.973    83794638.621 8
     -1592.782                          55.000          48.000
  20822037.652   111305720.375 8     -2648.452    20822040.725    86571123.790 7
     -2059.905                          48.000          41.000
  22888364.454   122523205.771 8      3713.239    22888366.688    95295827.810 7
      2888.058                          45.000          43.000
  23348401.432   124635340.752 7     -2203.558    23348403.522    96938648.818 7
     -1713.883                          44.000          39.000
  23614274.428   126320454.787 7       958.225    23614275.857    98249280.742 6
       745.274                          39.000          38.000
  23630305.711   126184520.219 6      4527.342    23630306.372    98143517.820 5
      3521.254                          38.000          30.000
 18  4  4  7  1  0.0000000  0 15G30G05G07G09G13G28G02R02R12R11R01R03
                                R18R13R19
  20288991.080   106619372.984 9       226.812    20288994.779    83080040.080 8
       176.737                          55.000          49.000
  20746402.455   109023077.215 9      1083.758    20746403.385    84953048.141 8
       844.491                          54.000          45.000
  21048509.649   110610669.087 9     -1479.009    21048510.792    86190122.034 7
     -1152.475                          52.000          43.000
  22821789.085   119929301.151 8     -2794.747    22821792.766    93451422.251 6
     -2177.721                          46.000          34.000
  22967275.132   120693854.644 7      2836.805    22967276.704    94047167.624 5
      2210.494                          44.000          28.000
  23351856.211   122714845.609 7      3075.609    23351859.070    95621971.366 4
      2396.571                          40.000          23.000
  23417873.566   123061738.673 7     -2562.959    23417872.655    95892247.029 5
     -1997.110                          44.000          29.000
  19424288.260   103651734.923 9      1398.595    19424289.510    80618082.476 8
      1087.795                          55.000          49.000
  19548712.768   104425732.007 9      1866.252
                                        52.000
  20172859.853   107797650.547 9     -2070.019    20172860.926    83842679.801 8
     -1610.010                          55.000          48.000
  20836938.880   111385378.837 8     -2662.119    20836942.776    86633080.330 7
     -2070.530                          48.000          41.000
  22867559.229   122411829.793 8      3711.827    22867559.819    95209202.087 7
      2886.978                          47.000          41.000
  23360840.327   124701739.890 7     -2223.109    23360842.042    96990292.569 6
     -1729.079                          43.000          38.000
  23604880.968   126048757.546 6      4523.515    23604884.006    98037924.669 5
      3518.310                          38.000          29.000
  23608969.651   126292084.702 6       933.085    23608972.260    98227215.165 6
       725.750                          38.000          37.000
 18  4  4  7  1 30.0000000  0 15G30G05G07G09G13G28G02R02R12R11R01R03
                                R18R13R19
  20287744.930   106612824.865 9       209.813    20287748.772    83074937.649 8
       163.491                          56.000          49.000
  20740264.696   108990822.794 9      1066.610    20740265.572    84927914.826 8
       831.120                          53.000          45.000
  21056990.484   110655236.108 9     -1492.061    21056991.609    86224849.573 7
     -1162.644                          53.000          44.000
  22837757.165   120013218.359 8     -2799.700    22837761.132    93516812.263 6
     -2181.597                          46.000          34.000
  22951093.695   120608821.289 7      2832.154    22951095.267    93980907.885 5
      2206.872                          43.000          29.000
  23334316.764   122622670.423 7      3069.459    23334318.247    95550146.601 4
      2391.780                          41.000          23.000
  23432528.774   123138756.497 7     -2571.495    23432528.970    95952260.878 5
     -2003.742                          44.000          29.000
  19416468.972   103610010.328 9      1383.157    19416470.383    80585630.022 8
      1075.793                          56.000          50.000
  19538301.078   104370114.124 9      1841.663
                                        52.000
  20184542.263   107860079.683 9     -2091.869    20184543.675    83891235.794 8
     -1627.009                          54.000          48.000
  20851917.374   111465446.852 8     -2675.651    20851920.894    86695355.412 7
     -2081.057                          48.000          41.000
  22846762.885   122300496.322 8      3710.476    22846760.955    95122609.336 7
      2885.919                          47.000          39.000
  23373387.311   124768722.466 7     -2242.300    23373390.688    97042390.108 6
     -1744.012                          42.000          38.000
  23579478.115   125913111.949 6      4519.695    23579481.153    97932422.580 5
      3515.302                          38.000          29.000
  23603808.827   126264466.268 7       908.147    23603809.024    98205734.167 6
       706.325                          41.000          36.000
 18  4  4  7  2  0.0000000  0 15G30G05G07G09G13G28G02R02R12R11R01R03
                                R18R13R19
  20286596.560   106606790.137 9       192.625    20286600.491    83070235.263 8
       150.089                          55.000          50.000
  20734225.645   108959087.160 9      1049.200    20734226.467    84903185.753 8
       817.559                          54.000          45.000
  21065546.100   110700196.485 9     -1505.197    21065547.298    86259883.647 7
     -1172.887                          53.000          44.000
  22853754.908   120097285.159 8     -2804.702    22853758.607    93582318.803 6
     -2185.481                          46.000          34.000
  22934940.313   120523931.197 8      2827.297    22934941.313    93914759.766 5
      2203.092                          45.000          29.000
  23316811.912   122530686.017 7      3062.948    23316814.485    95478470.477 4
      2386.715                          40.000          24.000
  23447234.033   123216031.778 7     -2580.109    23447233.389    96012475.348 5
     -2010.467                          44.000          29.000
  19408736.509   103568750.212 9      1367.571    19408738.261    80553538.809 8
      1063.664                          55.000          50.000
  19528027.998   104315236.927 9      1816.902    19528028.874    81134063.92713
                                        53.000          20.000
  20196348.094   107923166.814 9     -2113.800    20196349.542    83940303.560 8
     -1644.068                          53.000          48.000
  20866972.133   111545923.226 8     -2689.306    20866975.493    86757948.104 7
     -2091.677                          48.000          41.000
  22825972.098   122189206.652 8      3708.966    22825970.150    95036050.674 6
      2884.750                          48.000          37.000
  23386043.976   124836284.593 7     -2261.606    23386046.817    97094938.396 6
     -1759.020                          42.000          38.000
  23554100.100   125777586.542 6      4515.501    23554102.191    97827013.989 5
      3512.025                          38.000          30.000
  23598785.845   126237600.203 7       883.038    23598786.291    98184838.362 6
       686.825                          39.000          36.000
 18  4  4  7  2 30.0000000  0 15G30G05G07G09G13G28G02R02R12R11R01R03
                                R18R13R19
  20285545.772   106601268.576 9       175.481    20285549.721    83065932.753 8
       136.743                          54.000          49.000
  20728285.446   108927872.132 9      1031.786    20728286.482    84878862.346 8
       803.991                          52.000          45.000
  21074176.374   110745548.925 9     -1518.297    21074177.696    86295223.204 7
     -1183.099                          53.000          43.000
  22869780.742   120181501.097 8     -2809.687    22869784.530    93647941.582 6
     -2189.366                          46.000          34.000
  22918813.430   120439185.415 8      2822.452    22918814.609    93848724.103 5
      2199.334                          45.000          29.000
  23299345.192   122438894.669 7      3056.382    23299346.854    95406944.788 4
      2381.616                          40.000          24.000
  23461987.735   123293562.164 7     -2588.590    23461987.502    96072888.607 5
     -2017.089                          42.000          29.000
  19401092.392   103527957.071 9      1351.954    19401093.571    80521810.817 8
      1051.524                          55.000          49.000
  19517894.314   104261102.576 9      1792.077
                                        53.000
  20208276.543   107986909.026 9     -2135.642    20208278.151    83989880.822 8
     -1661.049                          54.000          49.000
  20882103.247   111626806.816 8     -2702.912    20882106.499    86820857.544 7
     -2102.266                          48.000          40.000
  22805188.459   122077963.218 7      3707.330    22805190.120    94949528.043 7
      2883.479                          44.000          40.000
  23398808.855   124904422.673 7     -2280.849    23398811.214    97147934.643 6
     -1773.982                          42.000          38.000
  23528743.134   125642184.161 6      4511.286    23528746.529    97721701.081 5
      3508.747                          38.000          30.000
  23593904.814   126211488.076 7       857.794    23593904.099    98164528.928 6
       667.168                          40.000          34.000
 18  4  4  7  3  0.0000000  0 15G30G05G07G09G13G28G02R02R12R11R01R03
                                R18R13R19
  20284592.638   106596259.246 9       158.402    20284596.444    83062029.384 8
       123.431                          55.000          49.000
  20722444.759   108897178.306 9      1014.376    20722445.653    84854945.074 8
       790.425                          53.000          45.000
  21082881.179   110791291.527 9     -1531.279    21082882.340    86330866.780 7
     -1193.201                          52.000          44.000
  22885835.076   120265865.186 8     -2814.636    22885838.721    93713679.804 6
     -2193.211                          46.000          35.000
  22902713.994   120354583.612 7      2817.644    22902716.013    93782800.636 5
      2195.567                          44.000          29.000
  23281914.746   122347299.491 7      3049.881    23281916.319    95335571.970 4
      2376.515                          40.000          24.000
  23476789.164   123371344.154 7     -2596.975    23476788.861    96133497.913 5
     -2023.623                          42.000          29.000
  19393535.206   103487632.646 9      1336.264    19393537.047    80490447.369 8
      1039.312                          55.000          50.000
  19507899.580   104207711.945 9      1767.264
                                        53.000
  20220327.358   108051302.763 9     -2157.339    20220328.949    84039964.817 8
     -1677.928                          54.000          48.000
  20897310.411   111708096.610 8     -2716.444    20897313.270    86884082.912 7
     -2112.782                          49.000          41.000
  22784418.829   121966767.794 8      3705.627    22784417.774    94863042.718 7
      2882.146                          47.000          40.000
  23411680.699   124973132.524 7     -2299.847    23411683.504    97201375.617 6
     -1788.768                          42.000          38.000
  23503410.882   125506907.332 7      4507.038    23503412.365    97616485.774 5
      3505.489                          39.000          30.000
  23589165.627   126186130.456 7       832.617    23589163.197    98144806.299 6
       647.575                          42.000          33.000
 18  4  4  7  3 30.0000000  0 15G30G05G07G13G09G28G02R02R12R11R01R03
                                R18R13R19
  20283736.980   106591762.416 9       141.360    20283740.697    83058525.360 8
       110.150                          55.000          49.000
  20716703.299   108867007.693 9       996.935    20716704.461    84831435.503 8
       776.832                          54.000          45.000
  21091659.837   110837423.228 9     -1544.201    21091660.873    86366813.549 7
     -1203.272                          54.000          43.000
  22886642.666   120270127.684 8      2812.745    22886644.078    93716990.847 5
      2191.741                          45.000          29.000
  22901916.607   120350377.327 8     -2819.531    22901920.699    93779533.390 6
     -2197.035                          46.000          35.000
  23264523.630   122255904.129 7      3043.186    23264524.006    95264354.846 4
      2371.287                          42.000          24.000
  23491638.108   123449375.680 7     -2605.206    23491638.019    96194301.651 5
     -2030.026                          43.000          28.000
  19386067.206   103447780.384 9      1320.519    19386068.599    80459451.168 8
      1027.075                          55.000          49.000
  19498044.171   104155067.483 9      1742.361
                                        53.000
  20232499.201   108116345.500 9     -2178.850    20232500.737    84090553.601 8
     -1694.667                          54.000          48.000
  20912592.946   111789792.124 8     -2729.938    20912596.538    86947623.832 7
     -2123.291                          48.000          41.000
  22763655.882   121855622.786 8      3704.003    22763654.684    94776596.623 7
      2880.892                          49.000          40.000
  23424658.541   125042411.605 7     -2318.732    23424661.490    97255259.336 6
     -1803.475                          41.000          38.000
  23478100.608   125371760.780 6      4502.801    23478103.360    97511371.805 5
      3502.188                          38.000          30.000
  23584565.569   126161528.909 7       807.495    23584565.122    98125671.766 6
       628.033                          41.000          34.000
 18  4  4  7  4  0.0000000  0 15G30G05G07G13G09G28G02R02R12R11R01R03
                                R18R13R19
  20282978.601   106587777.124 9       124.419    20282982.371    83055419.933 8
        96.953                          54.000          50.000
  20711062.085   108837361.975 9       979.516    20711062.960    84808334.940 8
       763.261                          51.000          45.000
  21100512.133   110883941.850 9     -1556.982    21100513.134    86403061.821 7
     -1213.236                          53.000          44.000
  22870599.089   120185818.120 7      2807.934    22870600.519    93651295.080 5
      2187.993                          44.000          29.000
  22918025.924   120435036.472 8     -2824.345    22918030.499    93845501.535 6
     -2200.789                          45.000          33.000
  23247170.004   122164710.695 7      3036.441    23247171.219    95193295.034 4
      2366.053                          42.000          24.000
  23506534.065   123527653.283 7     -2613.251    23506533.636    96255297.154 5
     -2036.309                          42.000          28.000
  19378687.442   103408401.514 9      1304.825    19378689.015    80428823.151 8
      1014.864                          55.000          50.000
  19488329.122   104103170.356 9      1717.509
                                        53.000
  20244792.284   108182033.362 9     -2200.233    20244793.160    84141644.156 8
     -1711.296                          55.000          48.000
  20927951.550   111871892.022 8     -2743.336    20927954.999    87011479.272 7
     -2133.719                          48.000          41.000
  22742902.620   121744530.208 8      3702.290    22742902.191    94690191.280 7
      2879.548                          47.000          42.000
  23437742.723   125112255.480 7     -2337.435    23437745.367    97309582.326 6
     -1817.988                          41.000          38.000
  23452818.263   125236746.357 6      4498.334    23452818.120    97406360.624 5
      3498.696                          38.000          31.000
  23580107.962   126137684.276 7       782.340    23580108.606    98107125.933 6
       608.488                          41.000          36.000
 18  4  4  7  4 30.0000000  0 15G30G05G07G13G09G28G02R02R12R11R01R03
                                R13R18R19
  20282317.608   106584302.798 9       107.352    20282321.235    83052712.664 8
        83.651                          54.000          49.000
  20705520.579   108808241.947 9       961.955    20705521.633    84785644.004 8
       749.574                          52.000          45.000
  21109437.531   110930845.850 9     -1569.789    21109438.711    86439610.389 7
     -1223.211                          52.000          44.000
  22854583.745   120101655.850 8      2803.019    22854584.978    93585714.103 5
      2184.208                          46.000          29.000
  22934163.957   120519841.938 8     -2829.213    22934168.746    93911583.684 6
     -2204.587                          45.000          33.000
  23229854.849   122073722.097 7      3029.551    23229857.029    95122394.869 4
      2360.679                          42.000          25.000
  23521476.089   123606174.216 7     -2621.374    23521475.070    96316482.270 5
     -2042.648                          42.000          28.000
  19371397.059   103369498.433 9      1288.886    19371398.560    80398565.203 8
      1002.464                          55.000          50.000
  19478753.881   104052022.035 9      1692.510
                                        53.000
  20257204.769   108248363.157 9     -2221.594    20257206.109    84193233.980 8
     -1727.903                          54.000          48.000
  20943385.418   111954395.096 8     -2756.733    20943389.064    87075648.278 7
     -2144.133                          47.000          41.000
  22722159.597   121633492.004 8      3700.410    22722159.311    94603828.256 7
      2878.092                          46.000          41.000
  23427558.988   125101867.796 6      4493.662    23427561.239    97301455.129 5
      3495.082                          38.000          31.000
  23450932.724   125182660.576 7     -2356.004    23450934.690    97364341.808 6
     -1832.454                          43.000          38.000
  23575791.807   126114597.467 7       756.978    23575792.808    98089169.554 6
       588.766                          40.000          36.000
 18  4  4  7  5  0.0000000  0 15G30G05G07G13G09G28G02R02R12R11R01R03
                                R13R18R19
  20281753.483   106581338.938 9        90.378    20281757.146    83050403.160 8
        70.423                          55.000          50.000
  20700079.390   108779649.286 9       944.369    20700080.659    84763364.006 8
       735.876                          52.000          45.000
  21118435.835   110978133.715 9     -1582.563    21118437.014    86476458.068 7
     -1233.166                          51.000          43.000
  22838596.616   120017641.321 8      2798.101    22838597.367    93520248.247 5
      2180.350                          45.000          30.000
  22950330.259   120604793.037 8     -2834.054    22950334.851    93977779.302 6
     -2208.343                          45.000          33.000
  23212580.418   121982941.752 7      3022.629    23212581.704    95051656.942 4
      2355.298                          41.000          25.000
  23536464.393   123684935.525 7     -2629.257    23536463.642    96377854.668 5
     -2048.766                          42.000          28.000
  19364196.612   103331073.446 9      1272.941    19364197.630    80368679.093 8
       990.069                          55.000          50.000
  19469319.002   104001623.775 9      1667.488
                                        53.000
  20269736.618   108315331.660 9     -2242.787    20269737.816    84245320.602 8
     -1744.394                          54.000          47.000
  20958894.515   112037300.456 8     -2770.116    20958897.964    87140130.199 7
     -2154.541                          48.000          41.000
  22701425.883   121522510.054 8      3698.532    22701425.597    94517509.005 7
      2876.631                          45.000          39.000
  23402326.694   124967127.988 7      4489.090    23402328.481    97196657.518 5
      3491.535                          39.000          31.000
  23464226.634   125253623.183 7     -2374.596    23464227.760    97419534.901 6
     -1846.908                          42.000          38.000
  23571617.818   126092269.469 7       731.693    23571618.372    98071803.351 6
       569.087                          40.000          36.000
 18  4  4  7  5 30.0000000  0 15G30G05G07G13G09G28G02R02R12R11R01R03
                                R13R18R19
  20281286.637   106578885.419 9        73.223    20281290.157    83048491.325 8
        57.053                          56.000          49.000
  20694739.054   108751585.519 9       926.556    20694740.197    84741496.128 8
       721.993                          53.000          46.000
  21127507.188   111025804.014 9     -1595.420    21127508.063    86513603.740 7
     -1243.187                          53.000          43.000
  22822637.202   119933775.193 8      2792.949    22822638.435    93454898.036 5
      2176.334                          46.000          30.000
  22966523.936   120689889.512 8     -2839.025    22966528.117    94044088.220 6
     -2212.246                          47.000          34.000
  23195345.370   121892372.610 7      3015.359    23195347.675    94981083.610 4
      2349.645                          41.000          25.000
  23551496.994   123763935.049 7     -2637.294    23551496.512    96439412.702 5
     -2055.048                          42.000          27.000
  19357085.330   103293129.184 9      1256.723    19357086.867    80339166.888 8
       977.451                          55.000          50.000
  19460025.323   103951977.755 9      1642.244
                                        53.000
  20282387.654   108382935.882 9     -2264.103    20282389.155    84297901.655 8
     -1760.970                          54.000          48.000
  20974479.341   112120607.369 8     -2783.625    20974482.164    87204924.434 7
     -2165.038                          49.000          40.000
  22680704.857   121411587.394 8      3696.307    22680705.054    94431235.814 7
      2874.904                          46.000          39.000
  23377120.704   124832530.611 6      4484.053    23377123.313    97091970.714 5
      3487.605                          38.000          31.000
  23477624.899   125325139.751 7     -2393.092    23477626.489    97475158.851 6
     -1861.307                          43.000          37.000
  23567586.459   126070701.837 7       706.155    23567586.834    98055028.577 6
       549.235                          40.000          37.000
 18  4  4  7  6  0.0000000  0 15G30G05G07G13G09G28G02R02R12R11R01R03
                                R13R18R19
  20280916.605   106576940.892 9        56.265    20280920.268    83046976.114 8
        43.838                          56.000          49.000
  20689499.785   108724051.489 9       908.869    20689500.678    84720041.032 8
       708.210                          53.000          45.000
  21136650.981   111073854.313 9     -1608.060    21136651.803    86551045.520 7
     -1253.030                          54.000          43.000
  22806706.075   119850058.522 8      2787.993    22806706.914    93389664.273 5
      2172.482                          45.000          30.000
  22982744.541   120775129.994 8     -2843.821    22982749.098    94110509.316 6
     -2215.955                          46.000          34.000
  23178150.974   121802017.090 7      3008.218    23178153.297    94910676.725 4
      2344.070                          40.000          25.000
  23566574.697   123843169.059 7     -2645.080    23566574.661    96501153.446 5
     -2061.080                          42.000          27.000
  19350065.824   103255667.350 9      1240.556    19350066.717    80310029.903 8
       964.877                          56.000          50.000
  19450872.738   103903084.821 9      1617.131
                                        53.000
  20295157.430   108451171.809 9     -2285.091    20295158.574    84350974.019 8
     -1777.288                          54.000          48.000
  20990138.377   112204314.029 8     -2796.950    20990141.128    87270029.592 7
     -2175.411                          49.000          40.000
  22659995.213   121300724.963 8      3694.276    22659995.321    94345009.472 7
      2873.322                          48.000          40.000
  23351941.089   124698078.308 6      4479.218    23351944.269    96987396.740 5
      3483.840                          38.000          31.000
  23491124.463   125397205.989 7     -2411.412    23491126.357    97531210.345 6
     -1875.555                          42.000          37.000
  23563696.408   126049894.437 7       680.842    23563697.767    98038845.091 6
       529.565                          41.000          38.000
 18  4  4  7  6 30.0000000  0 15G30G05G07G13G09G28G02R02R12R11R01R03
                                R13R18R19
  20280643.191   106575505.404 9        39.391    20280647.104    83045857.552 8
        30.702                          54.000          49.000
  20684361.386   108697049.082 9       891.233    20684362.405    84699000.188 8
       694.472                          52.000          46.000
  21145866.822   111122283.737 9     -1620.606    21145867.787    86588782.717 7
     -1262.807                          52.000          43.000
  22790804.145   119766492.272 8      2783.037    22790805.450    93324547.746 5
      2168.603                          45.000          30.000
  22998991.933   120860514.344 7     -2848.482    22998996.900    94177042.537 6
     -2219.601                          44.000          33.000
  23160997.998   121711878.285 7      3001.031    23160999.946    94840438.709 4
      2338.475                          42.000          25.000
  23581697.269   123922635.176 7     -2652.699    23581696.251    96563075.056 5
     -2067.037                          42.000          27.000
  19343136.396   103218690.664 9      1224.478    19343137.289    80281270.242 8
       952.369                          55.000          50.000
  19441860.764   103854946.545 9      1592.027
                                        53.000
  20308044.980   108520036.604 9     -2305.922    20308045.749    84404535.531 8
     -1793.490                          54.000          48.000
  21005871.658   112288420.365 8     -2810.150    21005875.339    87335445.600 7
     -2185.681                          48.000          40.000
  22639297.453   121189925.796 8      3692.281    22639297.506    94258832.307 7
      2871.775                          47.000          41.000
  23326791.064   124563774.678 7      4474.274    23326794.066    96882938.400 5
      3480.006                          39.000          32.000
  23504727.686   125469818.590 7     -2429.456    23504729.562    97587686.736 6
     -1889.564                          42.000          37.000
  23559949.667   126029848.744 7       655.506    23559950.061    98023254.031 7
       509.847                          42.000          39.000
 18  4  4  7  7  0.0000000  0 15G30G05G07G13G09G28G02R02R12R11R01R03
                                R13R18R19
  20280466.842   106574578.001 9        22.522    20280470.630    83045134.905 8
        17.550                          57.000          49.000
  20679324.252   108670579.104 9       873.515    20679325.288    84678374.227 8
       680.659                          54.000          46.000
  21155154.497   111171090.061 9     -1633.065    21155155.444    86626813.608 7
     -1272.520                          53.000          43.000
  22774930.735   119683076.854 8      2778.069    22774932.200    93259548.715 5
      2164.727                          46.000          30.000
  23015267.700   120946041.622 8     -2853.224    23015271.452    94243687.121 6
     -2223.296                          45.000          33.000
  23143887.462   121621958.906 7      2993.667    23143888.498    94770371.682 4
      2332.750                          41.000          25.000
  23596862.602   124002330.188 7     -2660.220    23596861.744    96625175.038 5
     -2072.897                          42.000          27.000
  19336297.313   103182200.931 9      1208.246    19336299.064    80252889.341 8
       939.752                          55.000          50.000
  19432991.063   103807563.787 9      1566.879
                                        53.000
  20321049.162   108589526.583 9     -2326.662    20321050.145    84458583.297 8
     -1809.627                          54.000          48.000
  21021679.793   112372924.464 8     -2823.388    21021683.671    87401170.964 7
     -2195.964                          47.000          40.000
  22618610.270   121079191.270 8      3690.170    22618611.843    94172705.507 7
      2870.136                          47.000          42.000
  23301669.380   124429622.440 7      4469.261    23301671.435    96778597.787 5
      3476.088                          40.000          32.000
  23518431.922   125542973.586 7     -2447.418    23518433.584    97644585.029 6
     -1903.552                          42.000          38.000
  23556345.593   126010565.297 7       630.123    23556346.057    98008255.790 7
       490.098                          44.000          39.000
 18  4  4  7  7 30.0000000  0 15G30G05G07G13G09G28G02R02R12R11R01R03
                                R13R18R19
  20280387.039   106574158.451 9         5.489    20280390.702    83044807.981 8
         4.285                          55.000          50.000
  20674388.685   108644643.566 9       855.571    20674389.900    84658164.712 8
       666.672                          53.000          45.000
  21164513.648   111220271.695 9     -1645.658    21164514.613    86665136.955 7
     -1282.323                          53.000          43.000
  22759085.861   119599812.990 8      2772.850    22759086.629    93194667.791 5
      2160.675                          45.000          30.000
  23031569.913   121031711.503 8     -2858.091    23031574.738    94310442.854 5
     -2227.087                          46.000          32.000
  23126818.471   121532262.094 7      2986.071    23126820.383    94700478.084 4
      2326.829                          41.000          25.000
  23612070.999   124082251.595 7     -2667.822    23612070.713    96687451.400 5
     -2078.793                          42.000          27.000
  19329551.560   103146201.010 9      1191.835    19329552.614    80224889.397 8
       926.981                          56.000          50.000
  19424262.600   103760938.968 9      1541.522
                                        53.000
  20334169.224   108659638.643 9     -2347.463    20334170.814    84513114.883 8
     -1825.805                          54.000          48.000
  21037562.513   112457825.709 8     -2836.627    21037566.695    87467205.212 7
     -2206.264                          48.000          41.000
  22597936.043   120968524.142 8      3687.718    22597937.687    94086631.151 7
      2868.218                          46.000          41.000
  23276576.519   124295624.966 7      4463.922    23276578.234    96674377.564 6
      3471.950                          39.000          33.000
  23532237.047   125616667.510 7     -2465.469    23532239.334    97701902.495 6
     -1917.589                          42.000          38.000
  23552883.523   125992045.338 7       604.576    23552883.202    97993851.373 6
       470.217                          44.000          38.000
 18  4  4  7  8  0.0000000  0 15G30G05G07G13G09G28G02R02R12R11R01R03
                                R13R18R19
  20280403.728   106574245.789 9       -11.359    20280407.302    83044876.032 8
        -8.851                          56.000          49.000
  20669555.453   108619243.224 9       837.740    20669556.347    84638372.231 8
       652.779                          54.000          46.000
  21173943.632   111269826.888 9     -1658.050    21173944.525    86703751.388 7
     -1291.982                          52.000          43.000
  22743270.364   119516701.851 8      2767.772    22743271.579    93129905.886 5
      2156.705                          45.000          30.000
  23047899.859   121117523.012 7     -2862.773    23047903.880    94377308.901 5
     -2230.731                          44.000          32.000
  23109792.633   121442790.668 7      2978.650    23109793.688    94630760.072 4
      2321.027                          41.000          26.000
  23627321.549   124162396.206 7     -2675.232    23627321.245    96749901.707 5
     -2084.594                          41.000          27.000
  19322897.350   103110692.210 9      1175.391    19322898.458    80197271.433 8
       914.185                          55.000          50.000
  19415676.284   103715072.354 9      1516.212
                                        53.000
  20347405.256   108730369.194 9     -2367.948    20347406.882    84568127.512 8
     -1841.740                          53.000          48.000
  21053519.748   112543122.778 8     -2849.825    21053522.892    87533547.337 7
     -2216.533                          48.000          40.000
  22577276.343   120857926.479 8      3685.365    22577275.789    94000610.744 7
      2866.400                          48.000          39.000
  23251511.765   124161785.388 6      4458.672    23251514.231    96570280.186 5
      3467.842                          38.000          32.000
  23546141.702   125690896.127 7     -2483.212    23546144.739    97759635.882 6
     -1931.403                          42.000          36.000
  23549564.370   125974289.130 8       579.117    23549563.101    97980040.987 6
       450.415                          45.000          38.000
 18  4  4  7  8 30.0000000  0 15G30G05G07G13G09G28G02R02R12R11R01R03
                                R13R19R18
  20280516.643   106574839.416 9       -28.140    20280520.288    83045338.603 8
       -21.926                          55.000          50.000
  20664824.040   108594379.698 9       819.907    20664825.005    84618998.048 8
       638.891                          53.000          45.000
  21183444.520   111319753.990 9     -1670.351    21183445.485    86742655.610 7
     -1301.575                          53.000          43.000
  22727483.833   119433743.524 8      2762.792    22727485.512    93065263.047 5
      2152.825                          47.000          31.000
  23064256.377   121203475.500 8     -2867.383    23064260.433    94444284.850 6
     -2234.337                          47.000          33.000
  23092810.450   121353547.236 7      2971.031    23092811.880    94561219.751 4
      2315.079                          41.000          25.000
  23642614.698   124242761.235 7     -2682.415    23642614.770    96812523.789 4
     -2090.197                          41.000          26.000
  19316334.809   103075677.369 9      1158.985    19316336.596    80170037.677 8
       901.433                          54.000          50.000
  19407232.402   103669965.445 9      1490.936
                                        53.000
  20360756.740   108801714.750 9     -2388.328    20360758.241    84623618.489 8
     -1857.590                          53.000          48.000
  21069549.923   112628814.539 8     -2862.877    21069553.139    87600196.455 7
     -2226.682                          48.000          40.000
  22556629.599   120747400.381 8      3683.068    22556628.759    93914645.957 7
      2864.610                          48.000          39.000
  23226477.764   124028107.179 7      4453.296    23226479.909    96466308.279 5
      3463.688                          39.000          32.000
  23546389.152   125957297.292 8       553.750    23546386.489    97966825.061 6
       430.709                          45.000          37.000
  23560146.924   125765655.537 7     -2500.684    23560148.764    97817782.044 6
     -1944.968                          41.000          36.000
 18  4  4  7  9  0.0000000  0 15G30G05G07G13G28G09G02R02R12R11R01R03
                                R13R19R18
  20280725.853   106575938.834 9       -45.105    20280729.624    83046195.294 8
       -35.141                          55.000          50.000
  20660195.069   108570053.356 9       801.864    20660195.838    84600042.454 8
       624.828                          53.000          46.000
  21193015.615   111370051.653 9     -1682.757    21193016.723    86781848.585 7
     -1311.240                          52.000          43.000
  22711726.678   119350939.009 8      2757.598    22711727.947    93000740.055 5
      2148.785                          45.000          31.000
  23075871.474   121264535.245 7      2963.078    23075874.422    94491859.765 4
      2308.888                          41.000          26.000
  23080639.233   121289568.440 8     -2872.116    23080643.557    94511370.212 6
     -2238.028                          46.000          34.000
  23657949.161   124323343.909 7     -2689.635    23657948.929    96875315.433 4
     -2095.809                          39.000          25.000
  19309866.419   103041158.713 9      1142.276    19309868.009    80143189.834 8
       888.439                          55.000          50.000
  19398930.436   103625619.462 9      1465.481
                                        53.000
  20374222.585   108873672.211 9     -2408.761    20374223.943    84679585.399 8
     -1873.483                          54.000          47.000
  21085653.629   112714900.130 8     -2876.084    21085657.167    87667151.886 7
     -2236.955                          48.000          40.000
  22535996.577   120636948.266 8      3680.416    22535996.291    93828738.703 7
      2862.555                          48.000          40.000
  23201475.034   123894593.080 7      4447.720    23201478.751    96362463.979 5
      3459.336                          40.000          32.000
  23543355.438   125941070.814 8       528.146    23543352.830    97954204.442 6
       410.783                          45.000          35.000
  23574250.908   125840942.074 7     -2518.304    23574252.963    97876338.207 6
     -1958.688                          42.000          36.000
 18  4  4  7  9 30.0000000  0 15G30G05G07G13G28G09G02R02R12R11R01R03
                                R13R19R18
  20281030.895   106577543.009 9       -61.986    20281034.862    83047445.300 8
       -48.301                          55.000          50.000
  20655668.506   108546266.491 9       783.781    20655669.328    84581507.230 8
       610.740                          53.000          46.000
  21202656.811   111420717.608 9     -1695.094    21202657.973    86821328.543 7
     -1320.858                          52.000          43.000
  22695999.293   119268289.524 8      2752.293    22696000.741    92936337.873 5
      2144.634                          46.000          30.000
  23058977.724   121175757.199 7      2955.142    23058980.262    94422682.054 4
      2302.715                          41.000          26.000
  23097048.464   121375800.875 8     -2876.841    23097052.538    94578564.278 6
     -2241.693                          45.000          34.000
  23673324.240   124404141.055 7     -2696.899    23673323.526    96938274.209 4
     -2101.449                          41.000          25.000
  19303491.073   103007137.964 9      1125.613    19303492.360    80116729.239 8
       875.481                          56.000          50.000
  19390771.458   103582035.150 9      1439.949
                                        54.000
  20387802.078   108946237.472 9     -2429.059    20387803.329    84736025.039 8
     -1889.270                          53.000          47.000
  21101831.242   112801377.941 8     -2889.242    21101834.762    87734412.386 7
     -2247.196                          48.000          40.000
  22515374.796   120526571.568 7      3677.780    22515377.905    93742890.201 7
      2860.492                          44.000          41.000
  23176502.128   123761246.043 6      4441.970    23176504.951    96258749.640 6
      3454.849                          38.000          33.000
  23540464.677   125925609.981 8       502.483    23540461.229    97942179.284 6
       390.824                          45.000          34.000
  23588453.243   125916751.560 7     -2535.749    23588455.083    97935301.075 6
     -1972.261                          43.000          36.000
 18  4  4  7 10  0.0000000  0 15G30G05G07G13G28G09G02R02R12R11R01R03
                                R13R19R18
  20281431.876   106579651.422 9       -78.530    20281436.040    83049088.226 8
       -61.196                          55.000          49.000
  20651244.923   108523020.146 9       766.001    20651245.834    84563393.186 8
       596.879                          54.000          46.000
  21212367.910   111471750.662 9     -1707.039    21212369.358    86861094.538 7
     -1330.160                          51.000          42.000
  22680300.892   119185795.506 8      2747.327    22680302.500    92872056.827 5
      2140.789                          46.000          31.000
  23042129.523   121087216.114 7      2947.511    23042131.256    94353689.018 4
      2296.752                          41.000          26.000
  23113484.463   121462172.341 8     -2881.234    23113488.984    94645866.678 6
     -2245.107                          46.000          33.000
  23688739.525   124485150.116 7     -2703.651    23688738.971    97001398.112 4
     -2106.767                          40.000          25.000
  19297208.843   102973617.229 9      1109.115    19297210.701    80090657.550 8
       862.653                          54.000          50.000
  19382755.218   103539214.039 9      1414.785
                                        53.000
  20401495.360   109019407.441 9     -2448.876    20401496.397    84792935.003 8
     -1904.685                          53.000          48.000
  21118081.868   112888247.176 8     -2902.016    21118085.638    87801977.307 7
     -2257.114                          47.000          40.000
  22494769.543   120416272.873 7      3675.444    22494773.081    93657102.423 7
      2858.674                          44.000          42.000
  23151562.815   123628069.517 6      4436.426    23151566.764    96155167.963 6
      3450.571                          37.000          34.000
  23537718.173   125910915.623 8       477.194    23537713.920    97930750.274 5
       371.116                          45.000          31.000
  23602751.571   125993080.280 7     -2552.735    23602754.394    97994667.832 6
     -1985.465                          43.000          37.000
 18  4  4  7 10 30.0000000  0 15G30G05G07G13G28G09G02R02R12R11R01R03
                                R13R19R18
  20281929.368   106582263.571 9       -95.477    20281933.066    83051123.663 8
       -74.399                          56.000          49.000
  20646924.211   108500315.244 9       747.756    20646925.229    84545701.045 8
       582.667                          54.000          45.000
  21222148.949   111523149.034 9     -1719.386    21222150.200    86901145.202 7
     -1339.785                          53.000          43.000
  22664632.421   119103458.099 8      2741.922    22664634.101    92807897.815 5
      2136.552                          47.000          31.000
  23025326.262   120998914.629 7      2939.334    23025327.692    94284882.673 5
      2290.406                          43.000          27.000
  23129946.836   121548682.287 8     -2885.985    23129950.642    94713276.985 5
     -2248.824                          45.000          32.000
  23704194.872   124566368.013 7     -2710.710    23704195.032    97064684.757 4
     -2112.217                          40.000          24.000
  19291021.247   102940599.458 9      1092.162    19291023.088    80064977.077 8
       849.456                          55.000          49.000
  19374882.269   103497157.269 9      1389.095
                                        53.000
  20415300.610   109093178.722 9     -2468.983    20415301.629    84850312.661 8
     -1920.320                          54.000          47.000
  21134405.649   112975506.334 8     -2915.156    21134409.455    87869845.499 7
     -2267.336                          47.000          40.000
  22474182.302   120306055.020 8      3672.555    22474182.927    93571377.434 7
      2856.433                          47.000          42.000
  23126656.810   123495067.142 7      4430.436    23126657.596    96051721.720 6
      3445.878                          40.000          34.000
  23535114.281   125896988.232 7       451.402    23535111.154    97919917.836 6
       351.091                          44.000          33.000
  23617147.695   126069924.400 7     -2569.982    23617149.732    98054435.460 6
     -1998.869                          43.000          36.000
 18  4  4  7 11  0.0000000  0 15G30G05G07G13G28G09G02R02R12R11R01R03
                                R13R19R18
  20282522.047   106585378.423 9      -112.180    20282525.853    83053550.827 8
       -87.412                          56.000          50.000
  20642706.675   108478152.869 9       729.706    20642707.872    84528431.656 8
       568.602                          54.000          46.000
  21231999.015   111574910.433 9     -1731.402    21232000.070    86941478.755 7
     -1349.148                          52.000          43.000
  22648994.274   119021277.642 8      2736.766    22648995.615    92743861.111 5
      2132.567                          45.000          31.000
  23008569.068   120910855.764 7      2931.204    23008570.890    94216265.389 5
      2284.059                          42.000          27.000
  23146435.531   121635329.806 8     -2890.546    23146439.140    94780794.497 6
     -2252.377                          45.000          33.000
  23719689.280   124647791.691 6     -2717.527    23719689.691    97128131.729 4
     -2117.562                          38.000          24.000
  19284928.822   102908086.122 9      1075.323    19284930.126    80039688.918 8
       836.364                          55.000          50.000
  19367151.951   103455865.430 9      1363.618
                                        53.000
  20429217.345   109167547.594 9     -2488.856    20429218.881    84908155.111 8
     -1935.772                          54.000          48.000
  21150802.157   113063154.524 8     -2928.071    21150806.035    87938016.276 7
     -2277.374                          48.000          40.000
  22453608.838   120195919.903 8      3669.824    22453608.070    93485716.773 7
      2854.312                          49.000          40.000
  23101783.523   123362241.212 7      4424.550    23101784.166    95948412.670 6
      3441.326                          40.000          33.000
  23532653.377   125883828.058 7       425.908    23532652.037    97909682.124 6
       331.270                          42.000          35.000
  23631638.526   126147279.795 7     -2586.980    23631640.902    98114600.758 6
     -2012.093                          42.000          36.000
 18  4  4  7 11 30.0000000  0 15G30G05G07G13G28G09G02R02R12R11R01R03
                                R13R19R18
  20283210.362   106588995.671 9      -129.029    20283214.186    83056369.460 8
      -100.541                          56.000          49.000
  20638593.190   108456534.764 9       711.444    20638594.101    84511586.370 8
       554.380                          54.000          46.000
  21241918.003   111627034.110 9     -1743.544    21241918.843    86982094.594 7
     -1358.601                          53.000          43.000
  22633385.915   118939255.284 8      2731.366    22633387.255    92679947.599 5
      2128.334                          46.000          31.000
  22991858.851   120823042.392 7      2922.953    22991860.352    94147839.378 5
      2277.647                          42.000          27.000
  23162950.136   121722114.580 8     -2895.193    23162954.799    94848418.965 6
     -2255.986                          45.000          33.000
  23735222.929   124729418.615 6     -2724.311    23735222.750    97191737.087 4
     -2122.862                          38.000          23.000
  19278930.870   102876079.991 9      1058.388    19278932.353    80014795.246 8
       823.187                          55.000          50.000
  19359565.908   103415340.364 9      1337.965
                                        53.000
  20443245.368   109242511.097 9     -2508.740    20443247.351    84966460.034 8
     -1951.248                          53.000          47.000
  21167270.838   113151190.828 8     -2941.060    21167274.698    88006488.929 7
     -2287.507                          48.000          40.000
  22433050.009   120085869.551 8      3666.786    22433049.151    93400122.005 7
      2851.943                          47.000          39.000
  23076941.686   123229595.670 6      4418.320    23076945.259    95845243.941 6
      3436.499                          38.000          33.000
  23530336.354   125871435.790 7       400.204    23530335.943    97900043.686 6
       311.275                          40.000          36.000
  23646225.277   126225142.886 7     -2603.881    23646226.850    98175160.889 6
     -2025.233                          43.000          36.000
 18  4  4  7 12  0.0000000  0 15G30G05G07G13G28G09G02R02R12R11R01R03
                                R13R19R18
  20283994.276   106593113.958 9      -145.698    20283997.886    83059578.521 8
      -113.533                          56.000          50.000
  20634582.827   108435461.311 9       693.291    20634583.863    84495165.495 8
       540.219                          54.000          46.000
  21251905.232   111679517.392 9     -1755.488    21251906.304    87022990.649 7
     -1367.908                          53.000          43.000
  22617807.969   118857391.494 8      2726.066    22617809.273    92616157.640 5
      2124.217                          46.000          32.000
  22975195.344   120735476.963 7      2914.617    22975197.113    94079606.602 4
      2271.146                          42.000          26.000
  23179490.132   121809035.419 8     -2899.696    23179494.867    94916149.440 5
     -2259.475                          45.000          32.000
  23750794.049   124811245.339 7     -2730.950    23750793.334    97255498.132 4
     -2128.035                          40.000          23.000
  19273027.623   102844582.428 9      1041.266    19273029.625    79990297.141 8
       809.871                          54.000          50.000
  19352122.852   103375581.923 9      1312.413
                                        53.000
  20457384.589   109318064.985 9     -2528.382    20457386.144    85025224.146 8
     -1966.515                          53.000          47.000
  21183812.318   113239613.257 8     -2953.925    21183815.803    88075261.901 7
     -2297.503                          47.000          39.000
  22412506.047   119975906.474 7      3663.859    22412507.780    93314595.186 7
      2849.656                          44.000          40.000
  23052137.784   123097133.118 7      4412.246    23052138.820    95742217.605 6
      3431.749                          39.000          34.000
  23528161.891   125859811.565 6       374.624    23528163.302    97891002.632 6
       291.360                          38.000          37.000
  23660905.823   126303509.135 7     -2620.622    23660908.575    98236112.379 6
     -2038.268                          43.000          36.000
 18  4  4  7 12 30.0000000  0 15G30G05G07G13G28G09G02R02R12R11R01R03
                                R13R19R18
  20284873.343   106597733.050 9      -162.362    20284876.988    83063177.811 8
      -126.511                          56.000          50.000
  20630676.712   108414934.160 9       675.077    20630677.731    84479170.303 8
       526.034                          53.000          46.000
  21261960.667   111732359.061 9     -1767.390    21261961.686    87064165.964 7
     -1377.192                          52.000          43.000
  22602260.454   118775687.500 8      2720.766    22602261.633    92552492.190 5
      2120.088                          47.000          32.000
  22958579.922   120648162.882 7      2906.178    22958581.798    94011569.671 4
      2264.557                          41.000          26.000
  23196056.414   121896092.240 7     -2904.210    23196061.578    94983985.876 5
     -2263.037                          44.000          31.000
  23766402.444   124893269.579 7     -2737.408    23766401.604    97319413.065 4
     -2133.037                          39.000          23.000
  19267221.031   102813596.425 9      1024.256    19267222.907    79966196.919 8
       796.640                          54.000          50.000
  19344823.910   103336591.993 9      1286.806
                                        53.000
  20471633.813   109394206.131 9     -2547.851    20471634.778    85084445.040 8
     -1981.669                          54.000          47.000
  21200425.828   113328421.420 8     -2966.727    21200428.937    88144334.887 7
     -2307.442                          48.000          39.000
  22391981.455   119866033.344 8      3660.896    22391983.259    93229138.359 7
      2847.362                          46.000          42.000
  23027365.421   122964857.047 7      4406.017    23027367.637    95639336.267 6
      3426.900                          40.000          34.000
  23526130.397   125848956.340 6       348.999    23526133.542    97882559.746 6
       271.420                          35.000          36.000
  23675679.860   126382375.020 7     -2637.164    23675682.004    98297452.497 6
     -2051.116                          43.000          36.000
 18  4  4  7 13  0.0000000  0 15G30G05G07G13G28G09G02R02R12R11R01R03
                                R13R19R18
  20285847.580   106602852.101 9      -178.902    20285851.011    83067166.678 8
      -139.398                          57.000          50.000
  20626874.738   108394954.607 9       656.884    20626875.774    84463601.811 8
       511.867                          54.000          46.000
  21272083.594   111785557.293 9     -1779.171    21272084.881    87105619.115 7
     -1386.365                          54.000          43.000
  22586742.673   118694144.123 8      2715.483    22586744.317    92488951.903 5
      2115.959                          47.000          32.000
  22942012.657   120561102.712 7      2897.777    22942015.588    93943730.592 4
      2258.009                          43.000          26.000
  23212648.838   121983284.240 7     -2908.616    23212653.109    95051927.678 5
     -2266.466                          44.000          31.000
  23782048.561   124975488.313 7     -2743.731    23782047.381    97383479.565 4
     -2137.943                          39.000          22.000
  19261511.056   102783123.541 9      1007.233    19261512.253    79942495.776 8
       783.399                          55.000          50.000
  19337668.975   103298371.042 9      1261.246
                                        53.000
  20485991.573   109470931.073 9     -2567.140    20485992.895    85144119.993 8
     -1996.671                          54.000          47.000
  21217111.046   113417613.757 8     -2979.410    21217114.763    88213706.674 7
     -2317.316                          48.000          40.000
  22371474.946   119756251.733 8      3657.878    22371475.268    93143752.663 7
      2845.022                          49.000          42.000
  23002630.316   122832771.027 7      4399.731    23002632.335    95536602.703 6
      3422.017                          39.000          34.000
  23524243.679   125838869.886 6       323.437    23524248.307    97874714.782 6
       251.575                          33.000          37.000
  23690546.726   126461736.470 7     -2653.552    23690548.871    98359178.038 6
     -2063.895                          42.000          36.000
 18  4  4  7 13 30.0000000  0 15G30G05G07G13G28G09G02R02R12R11R01R03
                                R13R19R18
  20286916.344   106608470.017 9      -195.519    20286920.079    83071544.280 8
      -152.356                          55.000          49.000
  20623176.887   108375523.426 9       638.614    20623178.138    84448460.622 8
       497.619                          52.000          46.000
  21282274.423   111839110.319 9     -1790.945    21282275.441    87147348.741 7
     -1395.543                          51.000          43.000
  22571256.252   118612761.592 8      2710.103    22571257.735    92425536.951 5
      2111.784                          48.000          32.000
  22925494.622   120474299.327 7      2889.135    22925496.498    93876091.598 5
      2251.294                          42.000          27.000
  23229266.225   122070610.502 8     -2913.046    23229270.085    95119974.064 5
     -2269.915                          45.000          31.000
  23797730.558   125057898.295 7     -2750.093    23797729.468    97447695.099 4
     -2142.900                          39.000          22.000
  19255896.984   102753166.044 9       989.987    19255898.342    79919195.486 8
       769.990                          55.000          50.000
  19330657.903   103260919.935 9      1235.578
                                        53.000
  20500458.030   109548235.921 9     -2586.427    20500459.388    85204245.969 8
     -2011.667                          53.000          47.000
  21233868.401   113507188.771 8     -2992.138    21233871.939    88283376.090 7
     -2327.225                          49.000          40.000
  22350984.412   119646564.376 8      3654.671    22350984.091    93058440.277 7
      2842.516                          48.000          42.000
  22977929.036   122700877.227 6      4393.219    22977932.431    95434018.692 6
      3416.960                          36.000          33.000
  23522502.307   125829552.683 6       297.847    23522506.792    97867468.097 6
       231.663                          35.000          37.000
  23705506.029   126541589.124 7     -2669.826    23705509.049    98421285.631 6
     -2076.552                          42.000          36.000
 18  4  4  7 14  0.0000000  0 15G30G05G07G13G28G09G02R02R12R11R01R03
                                R13R19R18
  20288080.207   106614586.054 9      -212.165    20288083.888    83076310.018 8
      -165.323                          56.000          50.000
  20619583.891   108356641.794 9       620.203    20619585.106    84433747.658 8
       483.276                          54.000          46.000
  21292532.171   111893016.219 9     -1802.739    21292533.386    87189353.322 7
     -1404.734                          53.000          42.000
  22555800.530   118531540.793 8      2704.641    22555801.334    92362248.023 5
      2107.517                          46.000          32.000
  22909026.066   120387755.589 7      2880.405    22909027.567    93808654.932 5
      2244.477                          42.000          27.000
  23245910.059   122158070.320 7     -2917.555    23245913.901    95188124.537 5
     -2273.427                          44.000          31.000
  23813448.222   125140496.744 7     -2756.437    23813448.115    97512057.511 4
     -2147.853                          39.000          22.000
  19250379.727   102723726.078 9       972.685    19250381.085    79896297.728 8
       756.538                          55.000          50.000
  19323791.230   103224239.389 9      1209.815
                                        53.000
  20515033.077   109626117.066 9     -2605.629    20515033.738    85264820.186 8
     -2026.595                          54.000          47.000
  21250696.411   113597145.242 8     -3004.875    21250699.484    88353342.190 7
     -2337.125                          48.000          40.000
  22330511.176   119536973.146 8      3651.393    22330510.979    92973202.654 7
      2839.969                          46.000          41.000
  22953266.818   122569179.273 6      4386.631    22953269.892    95331586.984 6
      3411.831                          38.000          33.000
  23520906.317   125821004.718 6       272.065    23520909.301    97860819.714 6
       211.610                          38.000          37.000
  23720556.142   126621929.050 7     -2686.119    23720559.323    98483772.197 6
     -2089.188                          43.000          36.000
 18  4  4  7 14 30.0000000  0 15G30G05G07G13G28G09G02R02R12R11R01R03
                                R13R19R18
  20289338.526   106621199.455 9      -228.701    20289342.403    83081463.318 8
      -178.211                          55.000          50.000
  20616095.715   108338310.662 9       601.869    20616096.805    84419463.649 8
       468.985                          53.000          46.000
  21302857.232   111947273.592 9     -1814.394    21302858.447    87231631.783 7
     -1413.822                          54.000          42.000
  22540375.435   118450482.721 8      2699.210    22540377.007    92299085.914 5
      2103.282                          47.000          32.000
  22892606.399   120301474.512 7      2871.670    22892609.097    93741422.943 5
      2237.678                          42.000          27.000
  23262577.694   122245663.271 7     -2921.956    23262582.697    95256378.755 5
     -2276.843                          44.000          30.000
  23829201.392   125223280.847 6     -2762.472    23829201.035    97576564.553 4
     -2152.578                          38.000          22.000
  19244959.999   102694805.754 9       955.371    19244961.553    79873804.140 8
       743.067                          55.000          50.000
  19317068.975   103188330.375 9      1184.108
                                        53.000
  20529714.106   109704571.233 9     -2624.619    20529715.446    85325840.098 8
     -2041.374                          53.000          47.000
  21267595.432   113687482.313 8     -3017.542    21267599.666    88423604.324 7
     -2346.979                          47.000          39.000
  22310055.862   119427481.008 8      3648.084    22310056.648    92888042.116 7
      2837.409                          45.000          39.000
  22928642.465   122437680.832 7      4379.984    22928644.341    95229310.447 6
      3406.662                          39.000          34.000
  23519452.922   125813226.424 7       246.533    23519454.798    97854769.942 7
       191.733                          39.000          39.000
  23735697.530   126702752.272 7     -2702.087    23735699.675    98546634.677 6
     -2101.636                          43.000          36.000
 18  4  4  7 15  0.0000000  0 15G30G05G07G13G28G09G02R02R12R11R01R03
                                R13R19R18
  20290691.747   106628309.870 9      -245.343    20290695.464    83087003.892 8
      -191.169                          54.000          50.000
  20612712.430   108320531.508 9       583.357    20612713.537    84405609.754 8
       454.560                          53.000          46.000
  21313249.106   112001880.989 9     -1826.119    21313249.945    87274182.995 7
     -1422.950                          52.000          43.000
  22524981.808   118369588.866 8      2693.678    22524982.665    92236051.753 6
      2098.978                          47.000          33.000
  22876238.946   120215459.230 7      2862.637    22876241.430    93674398.067 5
      2230.632                          42.000          27.000
  23279271.811   122333389.064 8     -2926.462    23279275.617    95324736.470 5
     -2280.375                          46.000          31.000
  23844989.389   125306247.892 7     -2768.655    23844988.996    97641214.167 4
     -2157.384                          39.000          22.000
  19239638.478   102666407.243 9       937.865    19239639.694    79851716.401 8
       729.454                          56.000          50.000
  19310491.209   103153193.843 9      1158.289
                                        53.000
  20544501.330   109783595.097 9     -2643.627    20544503.903    85387303.069 8
     -2056.140                          52.000          47.000
  21284566.197   113778198.814 8     -3030.256    21284569.484    88494161.568 7
     -2356.875                          48.000          39.000
  22289621.991   119318090.329 8      3644.588    22289621.777    92802960.489 7
      2834.685                          47.000          40.000
  22904054.600   122306384.636 6      4373.117    22904056.994    95127191.221 6
      3401.318                          38.000          34.000
  23518143.963   125806218.309 7       220.690    23518144.642    97849319.188 7
       171.637                          39.000          39.000
  23750928.103   126784055.356 7     -2718.142    23750929.675    98609870.347 6
     -2114.117                          43.000          36.000
 18  4  4  7 15 30.0000000  0 15G30G05G07G13G28G09G02R02R12R11R01R03
                                R13R19R18
  20292139.173   106635915.644 9      -261.687    20292142.801    83092930.471 8
      -203.912                          54.000          50.000
  20609434.322   108303304.861 9       565.076    20609435.376    84392186.385 8
       440.315                          53.000          46.000
  21323706.487   112056836.121 9     -1837.513    21323707.684    87317005.174 7
     -1431.828                          52.000          43.000
  22509619.612   118288859.115 8      2688.332    22509620.899    92173145.467 5
      2094.803                          46.000          32.000
  22859921.187   120129711.592 7      2853.836    22859923.795    93607581.756 5
      2223.763                          41.000          27.000
  23295990.783   122421246.294 8     -2930.657    23295994.643    95393196.594 5
     -2283.616                          45.000          31.000
  23860812.301   125389394.273 7     -2774.426    23860812.909    97706003.521 4
     -2161.879                          39.000          22.000
  19234414.666   102638532.245 9       920.490    19234415.917    79830035.833 8
       715.941                          55.000          50.000
  19304058.254   103118829.854 9      1132.684
                                        53.000
  20559397.108   109863184.352 9     -2662.269    20559397.859    85449205.792 8
     -2070.654                          54.000          47.000
  21301607.812   113869292.870 8     -3042.658    21301610.528    88565012.463 7
     -2366.508                          48.000          39.000
  22269207.275   119208803.076 8      3641.286    22269206.811    92717959.287 7
      2832.106                          49.000          42.000
  22879506.761   122175293.497 6      4366.391    22879507.440    95025231.476 6
      3396.073                          38.000          34.000
  23516978.080   125799979.887 7       195.240    23516979.492    97844467.084 7
       151.864                          40.000          40.000
  23766248.431   126865833.231 7     -2733.732    23766250.415    98673475.333 6
     -2126.237                          44.000          36.000
 18  4  4  7 16  0.0000000  0 15G30G05G07G13G28G09G02R02R12R11R01R03
                                R13R19R18
  20293680.555   106644016.329 9      -278.168    20293684.379    83099242.693 8
      -216.759                          55.000          50.000
  20606261.498   108286632.014 9       546.598    20606262.677    84379194.548 8
       425.916                          53.000          46.000
  21334230.251   112112137.193 9     -1849.031    21334231.216    87360096.909 7
     -1440.806                          53.000          43.000
  22494288.526   118208294.467 8      2682.817    22494290.331    92110367.824 5
      2090.505                          47.000          32.000
  22843656.391   120044234.590 7      2844.764    22843657.731    93540976.311 5
      2216.683                          43.000          27.000
  23312734.469   122509234.724 8     -2935.027    23312738.579    95461758.957 5
     -2287.039                          46.000          31.000
  23876668.147   125472717.420 7     -2780.293    23876667.807    97770930.581 4
     -2166.454                          39.000          22.000
  19229289.491   102611183.217 9       902.901    19229290.670    79808764.360 8
       702.261                          55.000          50.000
  19297769.966   103085239.542 9      1106.885
                                        53.000
  20574396.545   109943335.698 9     -2680.986    20574397.045    85511545.728 8
     -2085.210                          54.000          47.000
  21318719.046   113960763.342 8     -3055.190    21318722.226    88636156.131 7
     -2376.258                          48.000          39.000
  22248811.269   119099621.835 8      3637.650    22248810.983    92633040.535 7
      2829.288                          48.000          43.000
  22854994.715   122044410.244 6      4359.248    22854997.824    94923433.416 6
      3390.512                          38.000          34.000
  23515955.168   125794511.488 7       169.531    23515956.365    97840213.897 7
       131.840                          39.000          39.000
  23781656.371   126948082.196 7     -2749.394    23781658.230    98737446.711 6
     -2138.418                          43.000          36.000
 18  4  4  7 16 30.0000000  0 15G30G05G07G13G28G09G02R02R12R11R01R03
                                R13R19R18
  20295316.161   106652611.091 9      -294.742    20295319.895    83105939.906 8
      -229.669                          55.000          49.000
  20603194.441   108270513.738 9       528.004    20603195.424    84366634.843 8
       411.431                          53.000          46.000
  21344818.523   112167782.707 9     -1860.580    21344820.203    87403457.038 7
     -1449.803                          51.000          42.000
  22478989.444   118127896.009 8      2677.171    22478990.677    92047719.684 5
      2086.102                          46.000          32.000
  22827442.718   119959031.891 7      2835.471    22827444.291    93474584.598 5
      2209.483                          43.000          28.000
  23329502.385   122597353.645 7     -2939.504    23329507.227    95530423.040 5
     -2290.554                          43.000          30.000
  23892556.621   125556214.652 7     -2786.147    23892557.157    97835993.326 4
     -2171.047                          39.000          22.000
  19224263.149   102584362.312 9       885.161    19224264.579    79787903.653 8
       688.459                          55.000          50.000
  19291626.846   103052423.430 9      1080.938
                                        53.000
  20589499.121   110024045.504 9     -2699.643    20589500.908    85574320.022 8
     -2099.721                          53.000          46.000
  21335900.308   114052609.378 8     -3067.762    21335904.293    88707591.909 7
     -2386.029                          48.000          40.000
  22228434.364   118990549.001 8      3633.963    22228435.472    92548206.132 7
      2826.407                          46.000          43.000
  22830524.160   121913739.240 7      4352.126    22830527.162    94821800.439 6
      3384.988                          39.000          34.000
  23515076.334   125789813.167 7       143.780    23515078.353    97836559.663 6
       111.838                          39.000          38.000
  23797151.816   127030798.324 7     -2764.980    23797153.282    98801781.454 6
     -2150.548                          43.000          35.000
 18  4  4  7 17  0.0000000  0 15G30G05G07G13G28G09G02R02R12R11R01R03
                                R13R19R18
  20297045.614   106661698.972 9      -311.085    20297049.206    83113021.369 8
      -242.405                          56.000          50.000
  20600233.079   108254951.292 9       509.530    20600234.098    84354508.255 8
       397.032                          54.000          46.000
  21355472.892   112223770.727 9     -1871.930    21355474.054    87447084.048 7
     -1458.646                          53.000          41.000
  22463721.651   118047664.457 8      2671.658    22463723.205    91985201.589 5
      2081.832                          47.000          32.000
  22811281.992   119874105.773 7      2826.285    22811283.332    93408408.432 5
      2202.297                          43.000          28.000
  23346295.925   122685602.454 8     -2943.733    23346300.660    95599188.268 5
     -2293.797                          45.000          31.000
  23908477.866   125639883.004 6     -2791.663    23908477.777    97901189.394 4
     -2175.304                          38.000          22.000
  19219336.302   102558071.298 9       867.552    19219337.607    79767455.077 8
       674.767                          55.000          50.000
  19285629.001   103020382.293 9      1055.155
                                        53.000
  20604706.911   110105310.224 9     -2717.975    20604708.251    85637525.890 8
     -2113.976                          53.000          47.000
  21353152.063   114144829.259 8     -3080.151    21353156.012    88779318.437 7
     -2395.667                          47.000          39.000
  22208077.687   118881586.841 7      3630.264    22208080.010    92463457.860 7
      2823.531                          44.000          42.000
  22806093.953   121783283.288 6      4344.977    22806096.401    94720334.742 6
      3379.412                          38.000          35.000
  23514342.846   125785884.798 7       118.183    23514343.757    97833504.232 6
        91.921                          40.000          38.000
  23812733.604   127113977.483 7     -2780.273    23812735.624    98866476.308 6
     -2162.437                          43.000          35.000
 18  4  4  7 17 30.0000000  0 15G30G05G07G13G28G09G02R02R12R11R01R03
                                R13R19R18
  20298868.522   106671278.817 9      -327.442    20298872.114    83120486.178 8
      -255.146                          56.000          50.000
  20597377.556   108239945.277 9       490.986    20597378.431    84342815.250 8
       382.580                          54.000          46.000
  21366191.983   112280099.600 9     -1883.206    21366192.876    87490976.661 7
     -1467.433                          51.000          42.000
  22448486.397   117967600.511 8      2666.045    22448487.344    91922814.111 5
      2077.419                          47.000          32.000
  22795173.997   119789458.805 7      2816.972    22795176.052    93342449.767 5
      2195.044                          43.000          28.000
  23363113.302   122773980.217 7     -2948.001    23363118.180    95668054.016 5
     -2297.127                          44.000          30.000
  23924432.152   125723719.418 7     -2797.231    23924432.081    97966516.433 4
     -2179.639                          39.000          22.000
  19214509.129   102532311.916 9       849.843    19214510.254    79747419.989 8
       660.984                          55.000          50.000
  19279775.806   102989116.103 9      1029.351
                                        52.000
  20620018.197   110187125.837 9     -2736.216    20620018.894    85701160.251 8
     -2128.167                          54.000          46.000
  21370473.311   114237421.463 8     -3092.537    21370477.260    88851334.560 7
     -2405.310                          47.000          39.000
  22187744.937   118772737.978 8      3626.500    22187745.187    92378797.642 7
      2820.602                          47.000          40.000
  22781703.702   121653044.488 6      4337.722    22781707.419    94619037.955 6
      3373.784                          37.000          34.000
  23513752.900   125782726.067 7        92.584    23513752.847    97831047.454 6
        71.993                          40.000          38.000
  23828402.486   127197615.221 7     -2795.385    23828405.148    98931527.841 6
     -2174.192                          43.000          36.000
 18  4  4  7 18  0.0000000  0 15G30G05G07G13G28G09G02R02R12R11R01R03
                                R13R19R18
  20300784.975   106681349.823 9      -343.926    20300788.567    83128333.716 8
      -267.998                          54.000          50.000
  20594628.085   108225496.887 9       472.261    20594629.121    84331556.752 8
       367.992                          51.000          46.000
  21376976.063   112336767.532 9     -1894.630    21376976.510    87535133.477 7
     -1476.335                          53.000          42.000
  22433282.860   117887705.021 8      2660.311    22433283.861    91860557.896 6
      2072.960                          47.000          33.000
  22779119.895   119705094.074 7      2807.356    22779121.074    93276711.031 5
      2187.570                          43.000          28.000
  23379955.893   122862486.380 8     -2952.376    23379960.646    95737019.793 5
     -2300.551                          45.000          31.000
  23940416.762   125807720.801 6     -2802.819    23940417.280    98031972.012 4
     -2184.001                          38.000          22.000
  19209781.843   102507086.550 9       831.847    19209782.879    79727800.250 8
       646.989                          55.000          49.000
  19274067.869   102958625.823 9      1003.355
                                        53.000
  20635430.444   110269488.859 9     -2754.545    20635432.142    85765220.379 8
     -2142.427                          53.000          47.000
  21387864.249   114330384.926 8     -3105.032    21387867.983    88923639.446 6
     -2415.018                          47.000          38.000
  22167433.755   118664004.360 8      3622.420    22167432.647    92294227.013 7
      2817.444                          49.000          41.000
  22757357.122   121523026.777 7      4330.144    22757358.802    94517913.088 6
      3367.913                          39.000          34.000
  23513306.461   125780337.298 7        66.672    23513306.032    97829189.512 6
        51.848                          40.000          38.000
  23844154.977   127281707.591 7     -2810.643    23844157.979    98996932.995 6
     -2186.051                          43.000          36.000
 18  4  4  7 18 30.0000000  0 15G30G05G07G13G28G09G02R02R12R11R01R03
                                R13R19R18
  20302794.740   106691911.364 9      -360.096    20302798.385    83136563.485 8
      -280.589                          54.000          49.000
  20591984.720   108211607.048 9       453.799    20591985.953    84320733.492 8
       353.605                          52.000          46.000
  21387823.900   112393773.086 9     -1905.669    21387824.544    87579553.385 7
     -1484.933                          53.000          43.000
  22418111.256   117807979.035 8      2654.826    22418112.095    91798433.758 6
      2068.715                          47.000          33.000
  22763119.632   119621014.318 7      2797.973    22763121.812    93211194.384 5
      2180.247                          43.000          28.000
  23396822.892   122951120.591 7     -2956.442    23396827.538    95806085.384 5
     -2303.714                          44.000          31.000
  23956432.928   125891884.449 6     -2807.987    23956432.677    98097554.063 4
     -2188.068                          38.000          22.000
  19205155.106   102482397.298 9       814.123    19205156.321    79708597.492 8
       633.207                          55.000          50.000
  19268505.438   102928912.098 9       977.643
                                        52.000
  20650946.027   110352395.920 9     -2772.450    20650947.225    85829703.602 8
     -2156.350                          53.000          47.000
  21405324.679   114423718.376 8     -3117.141    21405327.359    88996232.094 6
     -2424.444                          48.000          38.000
  22147143.354   118555389.324 8      3618.621    22147143.211    92209748.631 7
      2814.485                          48.000          42.000
  22733050.998   121393233.702 7      4322.805    22733052.464    94416962.927 6
      3362.187                          39.000          34.000
  23513002.258   125778718.564 7        41.229    23513004.671    97827930.523 7
        32.067                          39.000          39.000
  23859993.453   127366250.630 7     -2825.436    23859995.062    99062688.641 6
     -2197.557                          43.000          35.000
 18  4  4  7 19  0.0000000  0 15G30G05G07G13G28G09G02R02R12R11R01R03
                                R13R19R18
  20304897.656   106702962.173 9      -376.522    20304901.373    83145174.506 8
      -293.390                          54.000          49.000
  20589448.338   108198276.747 9       434.981    20589449.374    84310346.237 8
       338.949                          53.000          46.000
  21398735.369   112451114.286 9     -1916.956    21398736.406    87624234.840 7
     -1493.736                          53.000          43.000
  22402972.262   117728423.237 8      2649.012    22402973.477    91736442.234 6
      2064.176                          47.000          33.000
  22747174.924   119537222.135 7      2788.235    22747176.586    93145901.786 5
      2172.664                          42.000          28.000
  23413713.068   123039881.883 7     -2960.807    23413717.857    95875249.959 5
     -2307.116                          43.000          30.000
  23972479.042   125976207.236 7     -2813.432    23972477.970    98163260.087 4
     -2192.296                          39.000          22.000
  19200628.990   102458245.968 9       796.030    19200630.312    79689813.117 8
       619.130                          54.000          50.000
  19263088.515   102899974.836 9       951.621
                                        52.000
  20666562.678   110435842.919 9     -2790.581    20666563.428    85894606.821 8
     -2170.450                          54.000          47.000
  21422853.350   114517420.180 8     -3129.527    21422856.585    89069111.257 6
     -2434.069                          47.000          38.000
  22126874.289   118446894.627 8      3614.421    22126876.219    92125363.897 7
      2811.214                          46.000          43.000
  22708786.545   121263667.633 6      4315.057    22708789.207    94316189.341 6
      3356.168                          38.000          34.000
  23512843.867   125777869.322 7        15.481    23512845.225    97827270.002 6
        12.037                          39.000          38.000
  23875914.199   127451239.918 7     -2840.372    23875917.201    99128791.385 6
     -2209.186                          43.000          36.000
 18  4  4  7 19 30.0000000  0 15G30G05G07G13G28G09G02R02R12R11R01R03
                                R13R19R18
  20307093.455   106714501.340 9      -392.735    20307097.172    83154166.058 8
      -306.024                          54.000          50.000
  20587018.365   108185506.634 9       416.359    20587019.258    84300395.491 8
       324.431                          53.000          47.000
  21409710.326   112508789.133 9     -1927.993    21409711.702    87669176.263 7
     -1502.337                          51.000          43.000
  22387865.969   117649038.258 8      2643.335    22387867.327    91674583.809 6
      2059.750                          48.000          33.000
  22731285.182   119453720.316 7      2778.566    22731286.218    93080835.449 5
      2165.095                          43.000          28.000
  23430628.243   123128769.621 7     -2964.970    23430632.746    95944513.091 5
     -2310.359                          44.000          30.000
  23988555.195   126060686.365 7     -2818.463    23988554.802    98229087.931 4
     -2196.208                          39.000          22.000
  19196204.280   102434634.700 9       778.057    19196205.513    79671448.781 8
       605.151                          55.000          50.000
  19257816.135   102871814.685 9       925.737
                                        52.000
  20682277.930   110519826.308 9     -2808.349    20682279.538    85959927.238 8
     -2184.271                          53.000          46.000
  21440450.889   114611489.171 8     -3141.664    21440454.338    89142275.993 7
     -2443.507                          46.000          39.000
  22106629.651   118338523.088 8      3610.342    22106631.134    92041074.996 7
      2808.044                          47.000          43.000
  22684566.424   121134331.895 6      4307.327    22684568.372    94215594.946 6
      3350.158                          38.000          35.000
  23512830.287   125777789.426 7       -10.086    23512830.358    97827207.856 7
        -7.838                          41.000          39.000
  23891919.233   127536671.254 7     -2854.991    23891921.127    99195237.948 6
     -2220.554                          44.000          35.000
 18  4  4  7 20  0.0000000  0 15G30G05G07G13G28G09G02R02R12R11R01R03
                                R13R19R18
  20309382.066   106726528.271 9      -409.015    20309385.890    83163537.692 8
      -318.707                          56.000          50.000
  20584694.838   108173297.832 9       397.607    20584696.071    84290882.128 8
       309.823                          54.000          46.000
  21420748.326   112566796.194 9     -1939.100    21420750.059    87714376.556 7
     -1510.983                          54.000          42.000
  22372791.982   117569825.484 8      2637.579    22372792.715    91612859.583 6
      2055.252                          46.000          33.000
  22715451.208   119370512.079 7      2768.671    22715452.548    93015997.881 5
      2157.418                          43.000          28.000
  23447566.683   123217783.632 7     -2969.213    23447570.399    96013874.605 5
     -2313.678                          44.000          30.000
  24004659.902   126145319.214 7     -2823.645    24004659.830    98295035.572 4
     -2200.240                          39.000          22.000
  19191881.281   102411565.794 9       759.908    19191882.621    79653506.296 8
       591.038                          55.000          50.000
  19252690.406   102844432.137 9       899.772
                                        52.000
  20698093.516   110604342.862 9     -2826.027    20698095.714    86025662.298 8
     -2198.011                          52.000          46.000
  21458116.670   114705924.293 8     -3153.904    21458120.226    89215725.488 7
     -2453.027                          47.000          39.000
  22086409.797   118230277.187 8      3606.069    22086409.690    91956883.766 7
      2804.725                          49.000          42.000
  22660389.190   121005230.427 6      4299.466    22660390.851    94115182.739 6
      3344.047                          38.000          35.000
  23512959.748   125778479.049 7       -35.784    23512959.444    97827744.220 6
       -27.830                          41.000          38.000
  23908005.141   127622540.953 7     -2869.545    23908007.875    99262025.468 6
     -2231.864                          43.000          35.000
 18  4  4  7 20 30.0000000  0 15G30G05G07G13G28G09G02R02R12R11R01R03
                                R13R19R18
  20311763.113   106739041.413 9      -425.171    20311766.973    83173288.193 8
      -331.302                          56.000          49.000
  20582478.740   108161651.045 9       378.880    20582479.740    84281806.697 8
       295.239                          55.000          46.000
  21431849.796   112625133.492 9     -1950.041    21431851.207    87759834.168 7
     -1519.512                          53.000          42.000
  22357751.125   117490785.324 8      2631.786    22357752.483    91551269.859 6
      2050.750                          46.000          33.000
  22699673.361   119287599.870 7      2758.811    22699675.148    92951391.003 5
      2149.703                          44.000          28.000
  23464528.978   123306922.626 7     -2973.381    23464535.428    96083333.468 5
     -2316.870                          43.000          30.000
  24020793.092   126230102.222 7     -2828.556    24020794.307    98361100.217 4
     -2204.115                          39.000          22.000
  19187659.778   102389040.606 9       741.756    19187661.475    79635986.690 8
       576.920                          55.000          50.000
  19247710.059   102817827.043 9       873.899
                                        52.000
  20714009.133   110689388.200 9     -2843.629    20714010.652    86091808.658 8
     -2211.709                          53.000          46.000
  21475851.175   114800723.383 8     -3166.016    21475854.534    89289458.081 7
     -2462.458                          47.000          39.000
  22066213.298   118122159.353 8      3601.762    22066211.583    91872792.089 7
      2801.376                          50.000          41.000
  22636256.770   120876365.009 6      4291.591    22636259.147    94014954.116 6
      3337.896                          37.000          34.000
  23513230.893   125779937.140 7       -61.418    23513231.411    97828878.283 6
       -47.768                          39.000          37.000
  23924173.141   127708844.145 7     -2883.927    23924175.231    99329150.115 6
     -2243.059                          44.000          35.000
 18  4  4  7 21  0.0000000  0 15G30G05G07G13G28G09G02R02R12R11R01R03
                                R13R19R18
  20314236.508   106752040.005 9      -441.362    20314240.600    83183416.958 8
      -343.910                          55.000          49.000
  20580369.373   108150567.140 9       360.076    20580370.516    84273169.882 8
       280.574                          54.000          47.000
  21443013.414   112683799.384 9     -1960.980    21443014.737    87805547.837 7
     -1528.037                          51.000          41.000
  22342743.237   117411918.469 8      2625.997    22342744.648    91489815.167 6
      2046.236                          47.000          33.000
  22683951.980   119204986.314 7      2748.759    22683954.178    92887016.827 5
      2141.902                          42.000          29.000
  23481516.379   123396186.164 7     -2977.520    23481520.524    96152889.448 5
     -2320.145                          44.000          30.000
  24036955.052   126315032.801 6     -2833.417    24036955.748    98427279.829 4
     -2207.880                          38.000          23.000
  19183541.093   102367061.284 9       723.493    19183542.398    79618891.664 8
       562.719                          55.000          50.000
  19242875.202   102792000.306 9       847.922
                                        53.000
  20730022.744   110774958.768 9     -2861.093    20730023.691    86158363.539 8
     -2225.291                          53.000          46.000
  21493652.921   114895885.562 8     -3178.110    21493656.709    89363473.084 6
     -2471.863                          47.000          38.000
  22046040.172   118014172.129 8      3597.366    22046038.367    91788801.984 7
      2797.962                          50.000          41.000
  22612168.899   120747739.453 6      4283.461    22612172.526    93914912.069 6
      3331.581                          37.000          34.000
  23513648.027   125782163.972 7       -87.016    23513648.331    97830610.257 6
       -67.674                          40.000          38.000
  23940420.335   127795576.878 7     -2898.191    23940424.427    99396608.868 6
     -2254.153                          42.000          34.000
 18  4  4  7 21 30.0000000  0 15G30G05G07G13G28G09G02R02R12R11R01R03
                                R13R19R18
  20316802.374   106765523.211 9      -457.434    20316806.359    83193923.357 8
      -356.445                          55.000          50.000
  20578367.524   108140046.805 9       341.323    20578368.650    84264972.209 8
       265.965                          54.000          47.000
  21454239.503   112742792.288 9     -1971.803    21454240.468    87851516.324 7
     -1536.470                          53.000          41.000
  22327768.656   117333226.451 8      2620.238    22327769.675    91428496.732 6
      2041.718                          47.000          34.000
  22668288.620   119122674.341 7      2738.724    22668290.264    92822877.659 5
      2134.086                          43.000          29.000
  23498525.401   123485573.824 7     -2981.608    23498530.083    96222542.129 5
     -2323.343                          43.000          30.000
  24053145.298   126400108.291 6     -2838.175    24053145.012    98493572.362 4
     -2211.541                          38.000          22.000
  19179524.548   102345629.927 9       705.276    19179526.263    79602222.817 8
       548.552                          55.000          50.000
  19238185.906   102766952.028 9       822.047
                                        52.000
  20746133.902   110861051.382 9     -2878.334    20746135.028    86225324.441 8
     -2238.703                          53.000          46.000
  21511522.962   114991409.331 8     -3190.062    21511526.393    89437769.330 6
     -2481.158                          47.000          38.000
  22025891.080   117906317.825 8      3592.956    22025891.741    91704915.289 7
      2794.528                          48.000          42.000
  22588128.326   120619357.067 7      4275.394    22588130.435    93815059.151 6
      3325.318                          39.000          35.000
  23514208.167   125785159.108 7      -112.548    23514207.971    97832939.824 6
       -87.551                          40.000          38.000
  23956748.655   127882735.307 7     -2912.269    23956751.711    99464398.743 6
     -2265.112                          43.000          35.000
 18  4  4  7 22  0.0000000  0 15G30G05G07G13G28G09G02R02R12R11R01R03
                                R13R19R18
  20319460.266   106779489.645 9      -473.592    20319464.037    83204806.291 8
      -369.033                          56.000          49.000
  20576473.015   108130091.032 9       322.425    20576474.194    84257214.456 8
       251.242                          54.000          47.000
  21465527.472   112802109.827 9     -1982.672    21465528.276    87897737.776 7
     -1544.938                          53.000          42.000
  22312827.544   117254709.667 8      2614.278    22312828.705    91367314.818 6
      2037.100                          48.000          34.000
  22652683.013   119040666.667 8      2728.478    22652685.139    92758975.630 5
      2126.088                          45.000          29.000
  23515558.869   123575084.522 7     -2985.769    23515564.855    96292290.688 5
     -2326.562                          43.000          30.000
  24069361.490   126485325.548 7     -2842.892    24069361.436    98559975.391 4
     -2215.251                          39.000          23.000
  19175611.303   102324748.075 9       686.917    19175613.090    79585981.376 8
       534.269                          55.000          50.000
  19233642.635   102742682.077 9       796.027
                                        52.000
  20762342.642   110947661.582 9     -2895.577    20762343.018    86292687.925 8
     -2252.117                          54.000          46.000
  21529459.566   115087293.166 8     -3202.094    21529463.283    89512345.611 6
     -2490.517                          46.000          38.000
  22005767.361   117798599.051 8      3588.297    22005769.220    91621134.077 7
      2790.891                          47.000          44.000
  22564132.301   120491220.362 7      4267.089    22564134.874    93715397.303 6
      3318.831                          40.000          35.000
  23514912.010   125788921.723 7      -138.219    23514911.403    97835866.311 6
      -107.504                          42.000          37.000
  23973155.188   127970314.654 7     -2926.344    23973157.618    99532515.960 6
     -2276.029                          44.000          34.000
 18  4  4  7 22 30.0000000  0 15G30G05G07G13G28G09G02R02R12R11R01R03
                                R13R19R18
  20322209.898   106793938.869 9      -489.646    20322213.668    83216065.424 8
      -381.543                          54.000          50.000
  20574685.898   108120700.576 9       303.610    20574687.202    84249897.209 8
       236.581                          53.000          46.000
  21476877.018   112861750.998 9     -1993.381    21476877.482    87944211.413 7
     -1553.294                          53.000          42.000
  22297919.776   117176369.376 8      2608.397    22297921.044    91306270.446 6
      2032.521                          47.000          33.000
  22637136.123   118958966.214 7      2718.213    22637137.463    92695312.962 5
      2118.112                          43.000          29.000
  23532616.263   123664718.270 8     -2989.795    23532620.587    96362135.094 5
     -2329.717                          45.000          28.000
  24085603.949   126570681.674 7     -2847.477    24085602.948    98626486.602 4
     -2218.797                          40.000          23.000
  19171801.788   102304418.435 9       668.450    19171803.218    79570169.423 8
       519.909                          55.000          50.000
  19229244.979   102719190.726 9       770.087
                                        53.000
  20778645.267   111034786.434 9     -2912.699    20778647.500    86360451.694 8
     -2265.430                          53.000          46.000
  21547464.108   115183535.935 8     -3214.063    21547467.092    89587201.064 6
     -2499.817                          47.000          38.000
  21985671.608   117691018.923 8      3583.686    21985672.340    91537460.669 7
      2787.313                          49.000          44.000
  22540183.129   120363333.317 7      4258.807    22540185.684    93615929.626 6
      3312.391                          39.000          34.000
  23515757.894   125793452.086 7      -163.772    23515757.983    97839389.908 6
      -127.371                          41.000          38.000
  23989639.684   128058311.145 7     -2940.087    23989641.685    99600957.638 6
     -2286.722                          44.000          34.000
 18  4  4  7 23  0.0000000  0 15G30G05G07G13G28G09G02R02R12R11R01R03
                                R13R19R18
  20325050.930   106808869.240 9      -505.726    20325054.843    83227699.472 8
      -394.067                          55.000          49.000
  20573006.871   108111875.921 9       284.649    20573007.889    84243020.845 8
       221.804                          54.000          47.000
  21488287.175   112921713.696 9     -2004.158    21488288.479    87990935.589 7
     -1561.681                          52.000          42.000
  22283046.030   117098205.793 8      2602.423    22283047.566    91245363.770 6
      2027.855                          46.000          34.000
  22621648.165   118877575.402 7      2707.784    22621650.274    92631891.578 5
      2109.971                          43.000          29.000
  23549694.671   123754473.721 7     -2993.914    23549699.907    96432074.361 5
     -2332.899                          42.000          29.000
  24101872.890   126656173.478 7     -2852.033    24101872.944    98693103.553 4
     -2222.345                          40.000          23.000
  19168095.753   102284641.930 9       649.930    19168097.236    79554787.685 8
       505.501                          55.000          50.000
  19224992.723   102696478.031 9       744.069
                                        52.000
  20795045.492   111122421.435 9     -2929.682    20795047.207    86428612.204 8
     -2278.648                          52.000          46.000
  21565534.997   115280135.774 8     -3225.988    21565538.499    89662334.242 6
     -2509.112                          46.000          38.000
  21965601.461   117583579.325 8      3578.903    21965601.246    91453896.533 7
      2783.589                          49.000          43.000
  22516280.755   120235698.487 6      4250.248    22516283.418    93516658.122 6
      3305.742                          38.000          34.000
  23516748.338   125798748.887 7      -189.403    23516747.570    97843509.643 6
      -147.315                          41.000          37.000
  24006201.730   128146720.116 7     -2953.820    24006203.428    99669720.117 6
     -2297.406                          43.000          34.000
 18  4  4  7 23 30.0000000  0 15G30G05G07G13G28G09G02R02R12R11R01R03
                                R13R19R18
  20327983.665   106824279.792 9      -521.669    20327987.382    83239707.688 8
      -406.490                          55.000          50.000
  20571435.415   108103618.096 9       265.810    20571436.362    84236586.174 8
       207.113                          54.000          46.000
  21499758.212   112981995.841 9     -2014.719    21499760.142    88037908.673 7
     -1569.917                          53.000          41.000
  22268206.056   117020220.159 8      2596.555    22268206.825    91184595.746 6
      2023.292                          48.000          34.000
  22606219.443   118796496.924 7      2697.415    22606220.712    92568713.579 5
      2101.887                          43.000          29.000
  23566799.275   123844350.404 7     -2997.869    23566803.403    96502108.090 5
     -2336.016                          44.000          29.000
  24118166.955   126741798.068 7     -2856.351    24118166.366    98759823.981 4
     -2225.752                          39.000          23.000
  19164493.823   102265421.071 9       631.465    19164495.073    79539838.125 8
       491.136                          55.000          50.000
  19220887.137   102674544.262 9       718.162
                                        52.000
  20811540.655   111210562.984 9     -2946.466    20811541.495    86497166.738 8
     -2291.699                          53.000          46.000
  21583672.645   115377091.136 8     -3237.743    21583676.648    89737743.919 6
     -2518.237                          47.000          38.000
  21945557.063   117476282.883 8      3574.145    21945556.777    91370443.735 7
      2779.896                          48.000          42.000
  22492425.985   120108318.699 7      4241.736    22492428.701    93417584.997 6
      3299.125                          39.000          34.000
  23517882.289   125804811.907 7      -214.895    23517881.717    97848225.322 6
      -167.149                          41.000          37.000
  24022840.185   128235537.499 7     -2967.287    24022842.294    99738800.307 6
     -2307.893                          44.000          34.000
 18  4  4  7 24  0.0000000  0 15G30G05G07G13G28G09G02R02R12R11R01R03
                                R13R19R18
  20331007.282   106840169.282 9      -537.660    20331011.017    83252089.108 8
      -418.957                          56.000          50.000
  20569971.835   108095927.200 9       246.866    20569972.925    84230593.252 8
       192.367                          53.000          47.000
  21511290.361   113042595.930 9     -2025.309    21511291.916    88085129.492 7
     -1578.160                          51.000          42.000
  22253399.516   116942412.969 8      2590.555    22253400.802    91123966.773 6
      2018.609                          48.000          34.000
  22590850.761   118715733.095 7      2686.824    22590852.226    92505780.764 5
      2093.623                          44.000          29.000
  23583923.857   123934347.507 7     -3001.930    23583928.252    96572235.657 5
     -2339.132                          44.000          29.000
  24134485.859   126827552.388 7     -2860.628    24134484.608    98826645.476 4
     -2229.062                          39.000          23.000
  19160996.140   102246756.975 9       612.770    19160997.534    79525321.590 8
       476.601                          54.000          50.000
  19216926.468   102653389.189 9       692.160
                                        52.000
  20828128.540   111299207.237 9     -2963.197    20828129.988    86566112.256 8
     -2304.710                          53.000          46.000
  21601876.676   115474400.547 8     -3249.584    21601880.107    89813428.983 6
     -2527.454                          47.000          38.000
  21925539.308   117369132.206 8      3569.245    21925539.612    91287104.327 7
      2776.074                          47.000          41.000
  22468620.872   119981196.922 7      4233.019    22468623.392    93318712.525 6
      3292.355                          40.000          35.000
  23519158.548   125811640.327 7      -240.394    23519158.387    97853536.313 6
      -186.966                          41.000          37.000
  24039554.512   128324758.772 7     -2980.774    24039557.192    99808194.565 6
     -2318.380                          44.000          34.000
 18  4  4  7 24 30.0000000  0 16G30G05G07G13G28G09G02G15R02R12R11R01
                                R03R13R19R18
  20334122.050   106856537.394 9      -553.603    20334125.820    83264843.477 8
      -431.375                          55.000          50.000
  20568616.684   108088804.892 9       227.882    20568617.649    84225043.395 8
       177.570                          54.000          46.000
  21522882.497   113103512.550 9     -2035.851    21522883.837    88132596.972 7
     -1586.373                          52.000          42.000
  22238627.605   116864785.845 8      2584.511    22238628.821    91063478.121 6
      2013.913                          48.000          34.000
  22575542.458   118635287.674 7      2676.164    22575543.941    92443096.064 5
      2085.327                          44.000          30.000
  23601073.526   124024465.114 7     -3005.932    23601078.387    96642457.127 5
     -2342.288                          44.000          29.000
  24150828.188   126913434.047 7     -2864.862    24150827.152    98893566.215 4
     -2232.381                          39.000          23.000
  25071304.339   131750588.074 7      3354.559    25071306.251   102662814.359 3
      2613.884                          42.000          20.000
  19157603.277   102228652.691 9       594.115    19157604.850    79511240.474 8
       462.089                          54.000          50.000
  19213112.575   102633013.481 9       666.184
                                        52.000
  20844812.043   111388351.107 9     -2979.756    20844811.989    86635446.365 8
     -2317.587                          54.000          46.000
  21620146.180   115572063.176 8     -3261.315    21620149.611    89889388.778 6
     -2536.586                          47.000          38.000
  21905550.465   117262130.526 8      3564.174    21905551.662    91203880.809 7
      2772.133                          48.000          42.000
  22444864.471   119854337.569 7      4224.216    22444866.347    93220044.168 6
      3285.520                          40.000          35.000
  23520577.438   125819234.323 7      -265.925    23520577.438    97859442.729 6
      -206.835                          41.000          37.000
  24056344.532   128414380.483 8     -2994.088    24056346.730    99877900.329 6
     -2328.737                          45.000          34.000
 18  4  4  7 25  0.0000000  0 16G30G05G07G13G28G09G02G15R02R12R11R01
                                R03R13R19R18
  20337327.538   106873382.199 9      -569.559    20337331.291    83277969.299 8
      -443.816                          55.000          50.000
  20567369.391   108082250.986 9       208.884    20567370.481    84219936.446 8
       162.775                          54.000          46.000
  21534534.762   113164743.297 9     -2046.338    21534535.601    88180309.233 7
     -1594.563                          52.000          42.000
  22223889.968   116787339.034 8      2578.446    22223891.022    91003129.957 6
      2009.190                          47.000          34.000
  22560294.893   118555162.357 7      2665.360    22560296.447    92380660.766 5
      2076.890                          43.000          30.000
  23618245.068   124114701.744 7     -3009.958    23618249.696    96712771.318 5
     -2345.433                          42.000          29.000
  24167194.587   126999439.837 7     -2868.998    24167193.944    98960583.659 4
     -2235.578                          39.000          23.000
  25052155.144   131649961.304 7      3353.719    25052156.466   102584403.845 3
      2613.303                          41.000          20.000
  19154315.466   102211109.208 9       575.241    19154317.325    79497595.542 8
       447.406                          55.000          50.000
  19209443.546   102613416.318 9       640.135
                                        52.000
  20861585.338   111477990.047 9     -2996.310    20861587.089    86705165.543 8
     -2330.462                          53.000          46.000
  21638481.745   115670076.767 8     -3273.073    21638484.979    89965621.541 6
     -2545.725                          46.000          38.000
  21885591.177   117155280.006 8      3559.012    21885591.392    91120774.852 7
      2768.123                          50.000          43.000
  22421157.299   119727742.526 7      4215.253    22421159.139    93121581.410 6
      3278.523                          39.000          35.000
  23522138.493   125827592.051 7      -291.453    23522140.155    97865943.177 6
      -226.676                          39.000          37.000
  24073207.422   128504397.454 7     -3007.259    24073209.816    99947913.503 6
     -2338.967                          44.000          34.000
 18  4  4  7 25 30.0000000  0 16G30G05G07G13G28G09G02G15R02R12R11R01
                                R03R13R19R18
  20340623.461   106890703.224 9      -585.232    20340627.375    83291466.195 8
      -456.026                          54.000          50.000
  20566230.651   108076266.891 9       190.039    20566231.813    84215273.506 8
       148.081                          52.000          47.000
  21546245.976   113226286.621 9     -2056.566    21546246.602    88228265.061 7
     -1602.520                          51.000          42.000
  22209186.782   116710073.880 8      2572.550    22209187.872    90942923.367 6
      2004.571                          47.000          34.000
  22545109.261   118475360.625 7      2654.719    22545110.547    92318477.630 5
      2068.603                          42.000          30.000
  23635439.267   124205057.361 7     -3013.778    23635443.502    96783178.281 5
     -2348.390                          43.000          29.000
  24183583.822   127085566.940 7     -2872.828    24183583.429    99027695.644 4
     -2238.578                          39.000          23.000
  25033011.631   131549359.215 7      3353.028    25033013.239   102506012.617 3
      2612.756                          42.000          20.000
  19151133.511   102194128.931 9       556.681    19151134.977    79484388.660 8
       432.971                          55.000          50.000
  19205920.972   102594598.507 9       614.377
                                        52.000
  20878451.658   111568121.105 9     -3012.487    20878453.910    86775267.436 8
     -2343.046                          52.000          46.000
  21656882.836   115768440.365 8     -3284.555    21656886.178    90042126.529 6
     -2554.661                          47.000          38.000
  21865659.962   117048583.460 9      3553.996    21865660.176    91037788.649 7
      2764.212                          51.000          44.000
  22397499.927   119601415.097 7      4206.534    22397501.321    93023326.759 6
      3271.759                          40.000          34.000
  23523844.717   125836713.979 7      -316.691    23523845.056    97873038.012 6
      -246.305                          41.000          37.000
  24090143.503   128594805.907 7     -3020.046    24090145.915   100018231.172 6
     -2348.918                          44.000          35.000
 18  4  4  7 26  0.0000000  0 16G30G05G07G13G28G09G02G15R02R12R11R01
                                R03R13R19R18
  20344010.106   106908499.011 9      -601.101    20344013.858    83305333.037 8
      -468.391                          53.000          49.000
  20565200.181   108070852.790 9       170.957    20565201.574    84211054.717 8
       133.213                          51.000          47.000
  21558016.230   113288140.899 9     -2066.973    21558016.909    88276463.193 7
     -1610.628                          52.000          41.000
  22194518.369   116632990.933 8      2566.373    22194519.513    90882858.727 6
      1999.810                          47.000          34.000
  22529985.366   118395884.828 7      2643.733    22529986.850    92256548.470 5
      2060.066                          44.000          29.000
  23652655.820   124295531.074 7     -3017.750    23652660.306    96853677.247 5
     -2351.537                          42.000          28.000
  24199995.502   127171812.160 7     -2876.781    24199995.537    99094899.656 4
     -2241.646                          40.000          24.000
  25013872.853   131448782.627 7      3352.088    25013874.693   102427641.268 3
      2612.038                          42.000          20.000
  19148057.413   102177713.200 9       537.703    19148058.771    79471620.853 8
       418.222                          55.000          49.000
  19202544.049   102576559.449 9       588.346
                                        52.000
  20895411.023   111658740.183 9     -3028.703    20895412.131    86845748.924 8
     -2355.666                          53.000          46.000
  21675348.559   115867152.310 8     -3296.231    21675352.759    90118902.452 6
     -2563.741                          46.000          38.000
  21845757.015   116942043.150 8      3548.711    21845756.854    90954923.971 7
      2760.107                          49.000          43.000
  22373893.697   119475358.256 7      4197.330    22373896.020    92925282.582 6
      3264.585                          41.000          34.000
  23525692.088   125846598.881 7      -342.253    23525692.981    97880726.253 6
      -266.179                          40.000          37.000
  24107152.883   128685601.681 7     -3032.959    24107155.367   100088850.036 6
     -2358.966                          44.000          34.000
 18  4  4  7 26 30.0000000  0 16G30G05G07G13G28G09G02G15R02R12R11R01
                                R03R13R19R18
  20347486.614   106926768.429 9      -616.900    20347490.330    83319568.947 8
      -480.702                          55.000          50.000
  20564278.747   108066009.254 9       151.935    20564279.837    84207280.521 8
       118.390                          54.000          47.000
  21569845.452   113350304.381 9     -2077.262    21569846.185    88324902.258 7
     -1618.645                          52.000          41.000
  22179884.640   116556091.053 8      2560.248    22179886.141    90822936.766 6
      1994.994                          47.000          34.000
  22514923.889   118316737.367 7      2632.724    22514925.676    92194875.139 5
      2051.463                          44.000          30.000
  23669893.906   124386122.098 7     -3021.669    23669900.357    96924267.602 5
     -2354.539                          43.000          29.000
  24216429.142   127258172.801 7     -2880.585    24216430.339    99162193.635 4
     -2244.597                          40.000          24.000
  24994738.649   131348232.338 7      3351.208    24994740.347   102349290.400 4
      2611.325                          41.000          21.000
  19145087.402   102161864.051 9       518.838    19145088.761    79459293.726 8
       403.544                          55.000          50.000
  19199312.775   102559298.833 9       562.362
                                        52.000
  20912459.286   111749843.125 9     -3044.829    20912460.805    86916606.756 8
     -2368.197                          53.000          46.000
  21693879.594   115966210.752 8     -3307.699    21693883.132    90195947.862 6
     -2572.654                          47.000          38.000
  21825882.891   116835661.955 8      3543.356    21825883.159    90872183.058 7
      2755.945                          48.000          42.000
  22350338.465   119349575.338 7      4188.200    22350340.574    92827451.453 6
      3257.487                          40.000          35.000
  23527682.340   125857245.888 7      -367.597    23527683.716    97889007.251 6
      -285.916                          39.000          37.000
  24124233.882   128776779.994 7     -3045.620    24124235.812   100159766.488 6
     -2368.791                          44.000          34.000
 18  4  4  7 27  0.0000000  0 16G30G05G07G13G28G09G02G15R02R12R11R01
                                R03R13R19R18
  20351053.110   106945510.454 9      -632.454    20351056.844    83334173.121 8
      -492.817                          55.000          50.000
  20563465.706   108061736.782 9       133.026    20563466.760    84203951.311 8
       103.655                          53.000          46.000
  21581732.945   113412775.237 9     -2087.311    21581734.267    88373580.825 7
     -1626.474                          51.000          41.000
  22165286.095   116479375.425 8      2554.266    22165287.364    90763158.361 6
      1990.346                          46.000          34.000
  22499925.792   118237921.216 8      2621.796    22499927.436    92133459.991 5
      2042.953                          45.000          30.000
  23687155.418   124476829.996 7     -3025.364    23687160.046    96994949.001 5
     -2357.417                          41.000          27.000
  24232884.796   127344645.873 7     -2884.087    24232885.583    99229575.210 4
     -2247.376                          40.000          24.000
  24975609.646   131247708.875 7      3350.471    24975611.897   102270960.401 4
      2610.785                          42.000          21.000
  19142223.713   102146583.281 9       500.039    19142225.142    79447408.680 8
       388.915                          55.000          50.000
  19196227.242   102542816.511 9       536.569
                                        52.000
  20929598.234   111841426.776 9     -3060.541    20929599.288    86987838.474 8
     -2380.426                          53.000          45.000
  21712475.171   116065614.478 8     -3319.041    21712478.817    90273261.841 6
     -2581.470                          46.000          38.000
  21806040.199   116729442.700 8      3538.059    21806040.306    90789568.100 7
      2751.821                          49.000          42.000
  22326834.624   119224069.716 7      4179.048    22326837.287    92729836.036 6
      3250.371                          40.000          35.000
  23529814.543   125868654.366 6      -392.772    23529815.955    97897880.501 6
      -305.504                          38.000          36.000
  24141385.267   128868336.890 7     -3057.967    24141388.198   100230977.379 6
     -2378.402                          44.000          34.000
 18  4  4  7 27 30.0000000  0 15G30G05G07G13G28G09G02G15R02R12R11R01
                                R03R13R19
  20354709.130   106964723.691 9      -648.294    20354713.043    83349144.474 8
      -505.165                          56.000          50.000
  20562761.631   108058036.261 9       113.810    20562762.560    84201067.781 8
        88.679                          54.000          46.000
  21593679.191   113475551.452 9     -2097.626    21593680.513    88422497.312 7
     -1634.515                          53.000          41.000
  22150722.948   116402844.485 8      2547.929    22150723.627    90703523.872 6
      1985.402                          47.000          35.000
  22484990.613   118159438.492 8      2610.490    22484992.793    92072304.636 5
      2034.148                          46.000          31.000
  23704439.266   124567653.839 7     -3029.394    23704443.305    97065720.792 4
     -2360.571                          43.000          26.000
  24249361.340   127431228.467 7     -2887.889    24249360.858    99297042.107 4
     -2250.292                          40.000          24.000
  24956486.182   131147213.724 7      3349.305    24956487.182   102192652.503 4
      2609.890                          43.000          22.000
  19139466.826   102131872.164 9       480.835    19139468.202    79435966.693 8
       373.982                          55.000          50.000
  19193287.216   102527112.535 9       510.477
                                        52.000
  20946825.259   111933486.685 9     -3076.602    20946826.867    87059440.627 8
     -2392.916                          52.000          45.000
  21731134.988   116165361.668 8     -3330.645    21731138.830    90350842.926 6
     -2590.494                          46.000          38.000
  21786228.742   116623387.435 8      3532.403    21786228.706    90707080.658 7
      2747.434                          50.000          43.000
  22303384.141   119098843.845 7      4169.474    22303386.571    92632438.161 6
      3242.941                          41.000          35.000
  23532090.360   125880823.322 7      -418.343    23532090.342    97907345.232 6
      -325.370                          39.000          36.000
 18  4  4  7 28  0.0000000  0 15G30G05G07G13G28G09G02G15R02R12R11R01
                                R03R13R19
  20358454.834   106984407.551 9      -663.938    20358458.730    83364482.545 8
      -517.354                          56.000          49.000
  20562166.181   108054908.567 9        94.723    20562167.361    84198630.608 8
        73.813                          55.000          46.000
  21605683.261   113538631.881 9     -2107.716    21605684.565    88471650.871 7
     -1642.381                          53.000          42.000
  22136195.004   116326499.900 8      2541.727    22136196.076    90644034.598 6
      1980.571                          48.000          35.000
  22470120.262   118081293.016 8      2599.238    22470121.995    92011412.066 5
      2025.380                          45.000          31.000
  23721744.111   124658593.504 7     -3033.241    23721749.346    97136582.830 5
     -2363.600                          42.000          28.000
  24265857.361   127517917.842 7     -2891.338    24265857.271    99364592.235 4
     -2253.009                          40.000          24.000
  24937367.149   131046748.014 7      3348.367    24937369.526   102114367.518 4
      2609.138                          43.000          21.000
  19136817.261   102117733.354 9       461.742    19136818.494    79424969.829 8
       359.134                          55.000          50.000
  19190493.412   102512186.427 9       484.593
                                        52.000
  20964141.361   112026019.972 9     -3092.247    20964143.505    87131410.929 8
     -2405.086                          51.000          46.000
  21749858.954   116265451.258 8     -3342.003    21749862.600    90428690.353 6
     -2599.324                          46.000          37.000
  21766448.466   116517499.999 8      3526.767    21766448.752    90624723.753 7
      2743.044                          50.000          43.000
  22279986.603   118973901.461 7      4160.018    22279988.801    92535260.769 6
      3235.580                          41.000          34.000
  23534505.680   125893752.187 6      -443.571    23534507.502    97917401.040 6
      -345.008                          37.000          35.000
 18  4  4  7 28 30.0000000  0 15G30G05G07G13G28G09G02G15R02R12R11R03
                                R01R13R19
  20362289.795   107004560.187 9      -679.590    20362293.654    83380185.897 8
      -529.554                          55.000          49.000
  20561680.126   108052353.376 9        75.596    20561681.145    84196639.543 8
        58.906                          54.000          46.000
  21617744.869   113602014.151 9     -2117.786    21617745.852    88521039.632 7
     -1650.221                          53.000          42.000
  22121702.583   116250341.731 8      2535.451    22121703.637    90584690.580 6
      1975.672                          46.000          35.000
  22455314.579   118003486.450 7      2587.845    22455316.277    91950783.592 5
      2016.501                          44.000          31.000
  23739071.363   124749647.746 7     -3037.062    23739076.044    97207534.068 5
     -2366.537                          42.000          27.000
  24282373.556   127604710.583 7     -2894.778    24282373.895    99432222.879 4
     -2255.669                          39.000          24.000
  24918255.532   130946311.745 7      3347.385    24918258.713   102036105.502 4
      2608.373                          42.000          22.000
  19134275.035   102104167.713 9       442.536    19134276.447    79414418.764 8
       344.180                          55.000          50.000
  19187844.687   102498037.922 9       458.613
                                        53.000
  20981546.486   112119021.967 9     -3107.844    20981547.683    87203745.784 8
     -2417.213                          53.000          46.000
  21746698.567   116411782.148 8      3521.013    21746699.908    90542498.782 7
      2738.558                          49.000          44.000
  21768646.624   116365881.194 8     -3353.324    21768650.394    90506802.492 6
     -2608.143                          46.000          37.000
  22256642.225   118849245.120 7      4150.378    22256644.548    92438305.886 6
      3228.068                          41.000          35.000
  23537065.793   125907439.253 6      -468.937    23537065.685    97928046.519 6
      -364.733                          38.000          35.000
 18  4  4  7 29  0.0000000  0 15G30G05G07G13G28G09G02G15R02R12R11R03
                                R01R13R19
  20366213.671   107025180.888 9      -695.111    20366217.692    83396253.973 8
      -541.646                          55.000          49.000
  20561303.000   108050371.713 9        56.504    20561304.144    84195095.379 8
        44.034                          55.000          46.000
  21629863.069   113665696.646 9     -2127.713    21629863.944    88570662.344 7
     -1657.959                          54.000          42.000
  22107246.025   116174371.180 8      2529.211    22107246.651    90525492.757 6
      1970.803                          48.000          35.000
  22440573.118   117926021.569 7      2576.472    22440574.887    91890421.388 5
      2007.613                          44.000          31.000
  23756420.433   124840816.131 7     -3040.830    23756424.292    97278574.383 5
     -2369.454                          44.000          28.000
  24298908.478   127691604.332 7     -2898.130    24298908.728    99499932.263 4
     -2258.297                          41.000          24.000
  24899148.668   130845906.309 7      3346.298    24899151.760   101957867.508 4
      2607.493                          43.000          22.000
  19131840.738   102091177.525 9       423.401    19131842.096    79404315.272 8
       329.317                          55.000          50.000
  19185341.540   102484666.704 9       432.795
                                        52.000
  20999037.490   112212489.388 9     -3123.270    20999039.008    87276442.646 8
     -2429.202                          52.000          46.000
  21726980.940   116306236.807 8      3515.308    21726983.210    90460408.010 7
      2734.127                          49.000          44.000
  21787497.174   116466650.010 8     -3364.583    21787500.694    90585178.204 6
     -2616.905                          46.000          37.000
  22233352.473   118724877.805 7      4140.737    22233354.189    92341575.794 6
      3220.568                          41.000          35.000
  23539765.141   125921884.367 6      -494.149    23539766.159    97939281.596 6
      -384.356                          38.000          35.000
 18  4  4  7 29 30.0000000  0 16G30G05G07G13G28G09G02G15G20R02R12R11
                                R03R01R13R19
  20370226.518   107046268.494 9      -710.741    20370230.521    83412685.874 8
      -553.823                          55.000          49.000
  20561035.179   108048964.308 9        37.266    20561036.341    84193998.693 8
        29.037                          55.000          46.000
  21642037.806   113729678.060 9     -2137.734    21642038.699    88620517.977 7
     -1665.761                          52.000          41.000
  22092825.456   116098589.604 8      2522.829    22092826.349    90466442.188 6
      1965.837                          47.000          35.000
  22425897.521   117848901.421 7      2564.828    22425898.879    91830327.798 5
      1998.546                          44.000          31.000
  23773790.588   124932098.546 7     -3044.718    23773796.610    97349703.450 5
     -2372.483                          41.000          27.000
  24315462.555   127778596.363 7     -2901.395    24315462.430    99567718.228 4
     -2260.848                          39.000          24.000
  24880048.559   130745533.242 7      3345.199    24880050.400   101879654.716 4
      2606.665                          42.000          22.000
  25013917.436   131449019.390 6      3561.324
                                        38.000
  19129514.370   102078764.345 9       404.044    19129515.889    79394660.574 8
       314.263                          55.000          50.000
  19182983.973   102472072.910 9       406.778
                                        52.000
  21016615.426   112306418.570 9     -3138.703    21016616.284    87349498.658 8
     -2441.213                          53.000          45.000
  21707298.033   116200867.321 8      3509.275    21707298.462    90378453.988 7
      2729.439                          50.000          43.000
  21806411.249   116567756.446 8     -3375.901    21806415.270    90663816.496 6
     -2625.709                          46.000          37.000
  22210117.329   118600803.262 7      4130.839    22210118.937    92245073.404 6
      3212.871                          42.000          35.000
  23542608.460   125937086.538 7      -519.384    23542606.994    97951105.519 6
      -403.974                          39.000          35.000
 18  4  4  7 30  0.0000000  0 16G30G05G07G13G28G09G02G15G20R02R12R11
                                R03R01R13R19
  20374327.905   107067821.102 9      -726.144    20374331.854    83429480.112 8
      -565.823                          55.000          49.000
  20560876.592   108048130.816 9        18.221    20560877.753    84193349.209 8
        14.200                          54.000          47.000
  21654269.188   113793955.492 9     -2147.485    21654270.331    88670604.272 7
     -1673.365                          53.000          39.000
  22078440.553   116022997.153 8      2516.609    22078441.589    90407538.989 6
      1960.997                          46.000          35.000
  22411288.416   117772127.896 8      2553.325    22411290.095    91770504.283 5
      1989.595                          45.000          31.000
  23791182.741   125023493.298 7     -3048.326    23791188.369    97420920.092 5
     -2375.337                          44.000          29.000
  24332035.019   127865682.811 7     -2904.379    24332035.091    99635577.742 4
     -2263.143                          41.000          24.000
  24860954.615   130645192.496 7      3344.172    24860956.223   101801467.116 4
      2605.875                          44.000          22.000
  24993598.606   131342244.707 6      3556.839
                                        34.000
  19127296.431   102066929.442 9       384.841    19127298.022    79385455.638 8
       299.326                          55.000          50.000
  19180771.698   102460255.012 9       381.038
                                        52.000
  21034277.937   112400805.112 9     -3153.755    21034279.349    87422910.413 8
     -2452.925                          52.000          45.000
  21687648.469   116095675.566 9      3503.449    21687647.200    90296638.155 7
      2724.906                          51.000          42.000
  21825387.991   116669198.414 8     -3386.933    21825392.101    90742715.756 6
     -2634.266                          45.000          37.000
  22186936.650   118477023.395 7      4121.078    22186939.277    92148800.218 6
      3205.276                          41.000          35.000
  23545591.925   125953043.711 7      -544.463    23545589.799    97963516.639 6
      -423.474                          40.000          34.000
 18  4  4  7 30 30.0000000  0 15G30G05G07G13G28G09G02G15R02R12R11R03
                                R01R13R19
  20378517.745   107089838.025 9      -741.695    20378521.551    83446636.156 8
      -577.949                          56.000          49.000
  20560827.416   108047872.059 9        -1.052    20560828.381    84193147.569 8
        -0.816                          54.000          47.000
  21666556.982   113858528.055 9     -2157.409    21666558.001    88720920.523 7
     -1681.099                          51.000          40.000
  22064091.709   115947594.990 8      2510.133    22064092.960    90348784.061 6
      1955.956                          48.000          36.000
  22396745.390   117695704.093 8      2541.524    22396746.498    91710953.288 5
      1980.426                          45.000          32.000
  23808595.460   125115000.340 7     -3052.145    23808600.249    97492224.244 5
     -2378.292                          43.000          27.000
  24348624.531   127952861.309 7     -2907.518    24348624.495    99703509.005 4
     -2265.599                          40.000          24.000
  24841866.156   130544885.096 7      3342.934    24841868.157   101723305.532 4
      2604.893                          42.000          23.000
  19125187.494   102055675.072 9       365.385    19125188.959    79376702.228 8
       284.188                          55.000          50.000
  19178704.503   102449213.103 9       355.041
                                        52.000
  21052025.093   112495645.643 8     -3168.932    21052027.202    87496675.245 7
     -2464.730                          50.000          44.000
  21668031.981   115990664.547 9      3497.250    21668030.766    90214962.879 7
      2720.087                          51.000          43.000
  21844427.506   116770974.342 8     -3398.166    21844431.419    90821874.765 6
     -2643.020                          45.000          37.000
  22163812.990   118353541.830 7      4110.952    22163814.902    92052759.015 6
      3197.402                          41.000          35.000
  23548715.234   125969755.387 7      -569.698    23548714.805    97976514.649 6
      -443.105                          40.000          33.000
 18  4  4  7 31  0.0000000  0 16G30G05G07G13G28G09G02G15G20R02R12R11
                                R03R01R13R19
  20382795.392   107112317.898 9      -757.171    20382799.305    83464152.938 8
      -590.004                          52.000          49.000
  20560887.653   108048188.578 9       -20.287    20560888.707    84193394.193 8
       -15.800                          52.000          46.000
  21678901.332   113923393.935 9     -2167.206    21678902.243    88771465.332 7
     -1688.737                          51.000          41.000
  22049779.533   115872383.745 8      2503.702    22049780.927    90290177.900 6
      1950.931                          47.000          35.000
  22382268.962   117619632.411 7      2529.660    22382271.017    91651676.667 5
      1971.165                          44.000          32.000
  23826030.463   125206618.949 7     -3055.942    23826036.306    97563615.294 5
     -2381.221                          42.000          28.000
  24365231.036   128040128.838 7     -2910.459    24365231.000    99771509.648 4
     -2267.885                          41.000          24.000
  24822785.274   130444612.227 7      3341.728    24822787.650   101645170.835 4
      2603.939                          43.000          23.000
  24953041.588   131129113.617 6      3547.254
                                        35.000
  19123187.289   102045002.401 9       345.894    19123188.897    79368401.250 8
       269.031                          54.000          50.000
  19176782.886   102438947.079 9       329.139
                                        53.000
  21069858.217   112590936.235 9     -3183.904    21069859.539    87570790.124 8
     -2476.374                          52.000          45.000
  21648447.889   115885837.163 8      3490.975    21648448.693    90133430.478 7
      2715.207                          50.000          44.000
  21863528.831   116873083.017 8     -3409.301    21863532.887    90901292.572 6
     -2651.674                          45.000          37.000
  22140745.190   118230361.840 7      4100.794    22140747.030    91956952.400 6
      3189.502                          41.000          35.000
  23551980.816   125987220.573 7      -594.848    23551979.351    97990098.664 6
      -462.664                          41.000          34.000
 18  4  4  7 31 30.0000000  0 16G30G05G07G13G28G09G02G15G20R02R12R11
                                R03R01R13R19
  20387161.241   107135260.006 9      -772.454    20387164.976    83482029.905 8
      -601.917                          55.000          49.000
  20561057.337   108049081.117 9       -39.414    20561058.516    84194089.673 8
       -30.712                          53.000          46.000
  21691300.486   113988551.428 9     -2176.805    21691301.433    88822237.394 7
     -1696.215                          53.000          42.000
  22035504.096   115797365.328 8      2497.358    22035504.989    90231721.998 6
      1946.000                          48.000          36.000
  22367860.579   117543915.924 8      2517.902    22367862.133    91592676.839 5
      1961.984                          45.000          32.000
  23843486.836   125298348.897 7     -3059.551    23843492.000    97635093.100 5
     -2384.067                          43.000          30.000
  24381853.516   128127482.957 7     -2913.218    24381853.123    99839577.726 4
     -2270.044                          41.000          25.000
  24803711.271   130344374.964 7      3340.531    24803713.576   101567063.890 4
      2603.026                          42.000          23.000
  24932802.990   131022762.936 6      3542.554
                                        38.000
  19121296.818   102034913.879 9       326.509    19121298.372    79360554.617 8
       253.952                          55.000          50.000
  19175005.990   102429456.513 9       303.393
                                        52.000
  21087774.647   112686673.573 9     -3198.661    21087775.755    87645252.482 8
     -2487.853                          52.000          46.000
  21628899.642   115781196.394 8      3484.823    21628901.072    90052043.242 8
      2710.420                          49.000          45.000
  21882692.250   116975522.813 8     -3420.161    21882695.609    90980967.927 6
     -2660.132                          45.000          37.000
  22117734.784   118107486.556 7      4090.667    22117736.535    91861382.765 6
      3181.636                          42.000          35.000
  23555386.491   126005438.518 7      -619.805    23555385.937    98004268.186 6
      -482.079                          41.000          36.000
 18  4  4  7 32  0.0000000  0 16G30G05G07G13G28G09G02G15G20R02R12R11
                                R03R01R13R19
  20391614.505   107158662.053 9      -787.685    20391618.240    83500265.262 8
      -613.781                          55.000          49.000
  20561336.791   108050549.256 9       -58.506    20561337.863    84195233.667 8
       -45.593                          54.000          46.000
  21703754.481   114053997.830 9     -2186.314    21703755.803    88873234.569 7
     -1703.615                          52.000          42.000
  22021265.361   115722539.672 8      2490.990    22021266.326    90173416.292 6
      1941.034                          47.000          35.000
  22353520.152   117468556.120 8      2506.048    22353522.225    91533954.941 5
      1952.763                          46.000          32.000
  23860962.562   125390188.543 7     -3063.114    23860967.369    97706656.404 5
     -2386.834                          42.000          27.000
  24398492.989   128214919.962 7     -2915.898    24398492.221    99907710.414 4
     -2272.097                          40.000          24.000
  24784643.326   130244174.117 7      3339.449    24784645.417   101488985.309 4
      2602.179                          43.000          23.000
  24912592.928   130916557.876 7      3537.761
                                        39.000
  19119515.794   102025409.953 9       307.145    19119517.152    79353162.663 8
       238.887                          55.000          50.000
  19173374.316   102420739.800 9       277.706
                                        52.000
  21105773.417   112782852.907 9     -3213.263    21105774.417    87720058.607 8
     -2499.209                          52.000          46.000
  21609387.598   115676744.193 8      3478.578    21609388.420    89970802.676 7
      2705.565                          50.000          44.000
  21901917.532   117078291.431 8     -3431.029    21901920.909    91060899.042 6
     -2668.588                          45.000          37.000
  22094781.685   117984917.889 7      4080.532    22094783.686    91766051.609 6
      3173.738                          42.000          35.000
  23558932.598   126024406.760 7      -644.748    23558932.313    98019021.264 6
      -501.465                          41.000          37.000
 18  4  4  7 32 30.0000000  0 16G30G05G07G13G28G09G02G15G20R02R12R11
                                R03R01R13R19
  20396155.328   107182523.500 9      -803.050    20396158.866    83518858.595 8
      -625.752                          56.000          49.000
  20561725.835   108052594.027 9       -77.798    20561727.050    84196826.981 8
       -60.618                          52.000          47.000
  21716262.886   114119732.585 9     -2195.967    21716264.673    88924456.440 7
     -1711.139                          51.000          41.000
  22007063.366   115647908.192 8      2484.436    22007064.295    90115261.910 6
      1935.913                          47.000          35.000
  22339248.592   117393556.349 8      2493.911    22339249.325    91475513.588 5
      1943.328                          45.000          32.000
  23878460.606   125482137.909 7     -3066.796    23878464.591    97778305.231 4
     -2389.718                          44.000          26.000
  24415146.936   128302437.375 7     -2918.577    24415146.865    99975905.768 4
     -2274.194                          39.000          25.000
  24765582.975   130144010.599 7      3338.101    24765584.709   101410935.844 4
      2601.129                          43.000          23.000
  24892410.421   130810501.382 6      3532.587
                                        36.000
  19117844.683   102016492.906 9       287.440    19117846.345    79346227.170 8
       223.565                          55.000          50.000
  19171886.899   102412797.287 9       251.868
                                        52.000
  21123853.348   112879471.139 9     -3227.859    21123855.742    87795206.102 8
     -2510.561                          51.000          46.000
  21589911.453   115572484.512 9      3472.046    21589911.311    89889711.815 7
      2700.483                          51.000          43.000
  21921204.086   117181387.531 8     -3442.008    21921207.821    91141084.849 6
     -2677.106                          45.000          37.000
  22071886.409   117862659.708 7      4070.015    22071888.357    91670961.952 6
      3165.566                          42.000          35.000
  23562618.370   126044125.072 7      -669.796    23562618.370    98034357.714 6
      -520.951                          41.000          37.000
 18  4  4  7 33  0.0000000  0 16G30G05G07G13G28G09G02G15G20R02R12R11
                                R03R01R13R19
  20400782.994   107206842.718 9      -818.102    20400786.621    83537808.632 8
      -637.485                          54.000          49.000
  20562224.738   108055214.985 9       -96.822    20562225.900    84198869.275 8
       -75.447                          52.000          47.000
  21728825.792   114185753.188 8     -2205.269    21728827.472    88975901.036 7
     -1718.388                          50.000          40.000
  21992898.430   115573471.118 8      2478.121    21992899.592    90057258.987 6
      1931.007                          48.000          36.000
  22325045.846   117318918.735 8      2482.005    22325046.650    91417354.418 6
      1934.047                          46.000          33.000
  23895977.270   125574196.028 7     -3070.271    23895984.060    97850038.759 5
     -2392.429                          41.000          29.000
  24431815.483   128390032.189 7     -2920.902    24431815.912   100044161.413 4
     -2276.028                          41.000          25.000
  24746529.075   130043885.476 7      3336.998    24746531.202   101332916.290 4
      2600.235                          42.000          23.000
  24872257.183   130704595.354 5      3527.751
                                        32.000
  19116284.342   102008164.247 9       267.954    19116285.557    79339749.310 8
       208.408                          54.000          50.000
  19170545.042   102405627.816 9       226.237
                                        52.000
  21142015.298   112976524.241 8     -3242.134    21142017.406    87870691.802 8
     -2521.659                          50.000          45.000
  21570471.136   115468419.191 8      3465.679    21570470.475    89808772.104 7
      2695.522                          50.000          43.000
  21940551.431   117284809.411 8     -3452.636    21940555.309    91221524.043 6
     -2685.381                          45.000          37.000
  22049049.959   117740714.882 7      4059.695    22049051.621    91576115.993 6
      3157.550                          42.000          35.000
  23566443.413   126064591.441 7      -694.464    23566444.450    98050275.987 6
      -540.141                          39.000          37.000
 18  4  4  7 33 30.0000000  0 15G30G05G07G13G28G09G02G15R02R12R11R03
                                R01R13R19
  20405497.593   107231618.424 9      -833.529    20405501.274    83557114.371 8
      -649.503                          55.000          49.000
  20562833.303   108058412.786 9      -116.291    20562834.483    84201361.058 8
       -90.610                          54.000          46.000
  21741443.395   114252057.763 9     -2214.932    21741444.574    89027566.914 7
     -1725.923                          51.000          39.000
  21978770.895   115499229.832 8      2471.365    21978771.860    89999408.642 6
      1925.733                          49.000          36.000
  22310911.895   117244645.947 8      2469.558    22310913.093    91359479.548 5
      1924.327                          46.000          32.000
  23913517.860   125666362.264 7     -3074.100    23913521.398    97921856.486 4
     -2395.387                          44.000          26.000
  24448498.521   128477701.383 7     -2923.626    24448498.557   100112475.047 4
     -2278.172                          42.000          25.000
  24727483.592   129943799.419 7      3335.435    24727485.307   101254927.157 4
      2599.032                          42.000          22.000
  19114833.931   102000425.057 9       248.036    19114835.182    79333729.936 8
       192.909                          55.000          49.000
  19169347.567   102399230.506 9       200.340
                                        52.000
  21160259.177   113074008.167 9     -3256.678    21160260.178    87946512.613 7
     -2532.967                          52.000          44.000
  21551067.057   115364551.252 8      3458.836    21551067.182    89727985.921 7
      2690.206                          50.000          43.000
  21959958.852   117388555.132 7     -3463.670    21959963.230    91302215.110 6
     -2693.981                          44.000          37.000
  22026272.833   117619086.673 7      4048.862    22026274.960    91481516.312 6
      3149.102                          42.000          36.000
  23570409.175   126085804.869 7      -719.606    23570410.354    98066775.271 6
      -559.685                          39.000          38.000
 18  4  4  7 34  0.0000000  0 16G30G05G07G13G28G09G02G15G20R02R12R11
                                R03R01R13R19
  20410299.017   107256850.094 9      -848.603    20410302.644    83576775.410 8
      -661.248                          56.000          49.000
  20563551.799   108062188.626 9      -135.447    20563552.943    84204303.257 8
      -105.540                          53.000          47.000
  21754115.213   114318645.336 9     -2224.255    21754115.606    89079453.321 7
     -1733.188                          51.000          40.000
  21964680.634   115425185.910 8      2464.865    21964681.957    89941712.078 6
      1920.688                          48.000          36.000
  22296847.920   117170741.271 8      2457.388    22296849.296    91301891.493 6
      1914.846                          45.000          33.000
  23931075.444   125758636.652 7     -3077.559    23931080.805    97993758.623 4
     -2398.116                          41.000          26.000
  24465195.193   128565442.990 7     -2925.831    24465195.926   100180845.085 4
     -2279.871                          40.000          25.000
  24708446.220   129843754.119 7      3334.202    24708448.043   101176969.799 4
      2598.089                          42.000          22.000
  24832040.802   130493246.228 7      3517.290
                                        39.000
  19113494.505   101993277.985 9       228.374    19113495.792    79328171.091 8
       177.626                          55.000          50.000
  19168294.671   102393605.621 9       174.658
                                        53.000
  21178582.234   113171920.002 9     -3270.756    21178582.949    88022666.278 8
     -2543.925                          53.000          45.000
  21531700.806   115260884.101 8      3452.235    21531701.878    89647355.923 7
      2685.074                          50.000          44.000
  21979426.974   117492624.132 7     -3474.298    21979431.513    91383157.623 6
     -2702.230                          44.000          37.000
  22003555.480   117497777.696 7      4038.351    22003556.999    91387164.930 6
      3140.938                          43.000          36.000
  23574514.315   126107764.537 7      -744.356    23574515.065    98083854.953 6
      -578.915                          39.000          38.000
 18  4  4  7 34 30.0000000  0 16G30G05G07G13G28G09G02G15G20R02R12R11
                                R03R13R01R19
  20415186.981   107282535.858 9      -863.686    20415190.448    83596790.284 8
      -672.999                          55.000          49.000
  20564380.171   108066541.683 9      -154.665    20564381.243    84207695.241 8
      -120.514                          53.000          47.000
  21766840.459   114385513.713 8     -2233.552    21766840.280    89131558.547 7
     -1740.435                          49.000          40.000
  21950628.024   115351339.928 8      2458.267    21950629.346    89884169.771 6
      1915.529                          46.000          35.000
  22282854.778   117097206.499 8      2445.069    22282856.439    91244591.696 5
      1905.267                          45.000          32.000
  23948655.525   125851018.047 7     -3081.089    23948660.921    98065743.995 4
     -2400.843                          42.000          26.000
  24481905.017   128653253.222 7     -2928.076    24481904.784   100249268.569 4
     -2281.586                          42.000          26.000
  24689415.282   129743750.039 7      3332.817    24689417.408   101099044.523 4
      2596.974                          42.000          23.000
  24811976.248   130387808.169 7      3512.008
                                        40.000
  19112266.385   101986724.060 9       208.679    19112267.654    79323073.587 8
       162.305                          55.000          50.000
  19167385.942   102388752.126 9       149.007
                                        52.000
  21196983.539   113270255.272 9     -3284.800    21196985.147    88099149.270 8
     -2554.843                          51.000          45.000
  21512373.707   115157420.618 8      3445.467    21512374.493    89566884.356 7
      2679.804                          50.000          44.000
  21980898.488   117376791.231 7      4027.552    21980900.239    91293064.367 6
      3132.529                          43.000          35.000
  21998955.922   117597013.835 8     -3484.895    21998959.585    91464349.561 6
     -2710.488                          45.000          37.000
  23578759.512   126130468.528 7      -769.114    23578760.191    98101513.582 7
      -598.201                          41.000          40.000
 18  4  4  7 35  0.0000000  0 16G30G05G07G13G28G09G02G15G20R02R12R11
                                R03R13R01R19
  20420160.681   107308674.211 9      -878.728    20420164.415    83617157.827 8
      -684.724                          55.000          49.000
  20565318.420   108071472.596 9      -173.912    20565319.653    84211537.499 8
      -135.514                          54.000          46.000
  21779617.936   114452660.947 9     -2242.797    21779618.740    89183881.063 7
     -1747.646                          51.000          41.000
  21936613.456   115277692.366 8      2451.685    21936614.528    89826782.050 6
      1910.411                          48.000          36.000
  22268932.361   117024043.781 7      2432.590    22268933.987    91187581.827 6
      1895.529                          44.000          33.000
  23966255.708   125943505.546 7     -3084.614    23966260.372    98137812.149 5
     -2403.599                          43.000          27.000
  24498627.027   128741129.048 7     -2930.205    24498628.153   100317743.223 4
     -2283.283                          41.000          26.000
  24670392.903   129643787.537 7      3331.444    24670394.886   101021151.694 4
      2595.960                          41.000          23.000
  24791941.517   130282530.512 6      3506.551
                                        37.000
  19111149.518   101980764.605 9       188.782    19111150.929    79318438.438 8
       146.834                          55.000          50.000
  19166621.702   102384668.716 9       123.390
                                        52.000
  21215463.844   113369010.256 9     -3298.696    21215466.381    88175958.643 8
     -2565.654                          51.000          45.000
  21493085.329   115054162.799 9      3438.498    21493084.990    89486572.716 8
      2674.384                          52.000          45.000
  21958302.858   117256130.008 7      4016.689    21958305.110    91199216.781 6
      3124.077                          43.000          36.000
  22018543.552   117701722.536 7     -3495.507    22018547.823    91545789.627 6
     -2718.708                          44.000          36.000
  23583143.034   126153915.025 7      -793.831    23583143.230    98119749.742 7
      -617.425                          42.000          39.000
 18  4  4  7 35 30.0000000  0 16G30G05G07G13G28G09G02G15G20R02R12R11
                                R03R13R01R19
  20425220.759   107335264.293 9      -893.839    20425224.458    83637877.367 8
      -696.497                          54.000          48.000
  20566366.921   108076981.955 9      -193.294    20566368.064    84215830.493 8
      -150.618                          54.000          46.000
  21792448.055   114520085.675 9     -2252.091    21792449.699    89236419.807 7
     -1754.881                          51.000          41.000
  21922636.932   115204244.700 8      2444.919    21922637.915    89769550.112 6
      1905.150                          47.000          36.000
  22255081.688   116951256.293 8      2419.949    22255082.939    91130864.325 6
      1885.670                          48.000          34.000
  23983875.512   126036099.088 7     -3088.194    23983878.889    98209962.892 4
     -2406.409                          42.000          26.000
  24515361.403   128829068.372 7     -2932.305    24515362.475   100386267.333 4
     -2284.940                          42.000          25.000
  24651378.744   129543868.893 7      3329.884    24651381.567   100943293.059 4
      2594.697                          40.000          22.000
  24771939.791   130177416.428 6      3501.064
                                        37.000
  19110144.332   101975401.162 9       168.862    19110145.833    79314266.865 8
       131.336                          55.000          50.000
  19166001.146   102381354.981 9        97.622
                                        52.000
  21234023.004   113468181.473 9     -3312.615    21234024.952    88253091.762 8
     -2576.478                          51.000          45.000
  21473834.673   114951114.426 9      3431.415    21473834.745    89406423.991 8
      2668.872                          51.000          45.000
  21935768.716   117135797.391 7      4005.540    21935770.413    91105624.748 6
      3115.423                          43.000          36.000
  22038190.971   117806749.024 7     -3506.165    22038194.992    91627476.847 6
     -2727.018                          44.000          36.000
  23587664.701   126178103.232 7      -818.634    23587665.112    98138562.789 6
      -636.714                          42.000          37.000
 18  4  4  7 36  0.0000000  0 15G30G05G07G13G28G09G02G15R02R12R11R03
                                R13R01R19
  20430366.269   107362304.322 9      -908.881    20430370.022    83658947.511 8
      -708.215                          55.000          49.000
  20567525.244   108083069.157 9      -212.593    20567526.513    84220573.753 8
      -165.649                          52.000          46.000
  21805330.173   114587785.844 8     -2261.320    21805332.353    89289173.151 7
     -1762.062                          49.000          40.000
  21908698.611   115130997.572 8      2438.152    21908699.469    89712474.437 6
      1899.853                          49.000          36.000
  22241302.402   116878846.175 8      2407.313    22241303.706    91074440.872 6
      1875.829                          47.000          33.000
  24001515.686   126128797.313 7     -3091.747    24001520.940    98282195.241 4
     -2409.185                          43.000          26.000
  24532107.393   128917067.154 7     -2934.312    24532107.769   100454837.773 4
     -2286.478                          42.000          25.000
  24632373.287   129443994.026 7      3328.341    24632375.181   100865468.492 4
      2593.486                          41.000          22.000
  19109251.148   101970635.165 9       148.868    19109252.649    79310559.974 8
       115.785                          55.000          50.000
  19165524.865   102378809.837 9        71.979
                                        52.000
  21252658.840   113567764.509 9     -3326.370    21252660.270    88330545.202 7
     -2587.178                          52.000          44.000
  21454622.990   114848277.700 8      3424.262    21454623.401    89326439.878 7
      2663.314                          50.000          44.000
  21913295.936   117015796.074 7      3994.425    21913298.491    91012290.423 6
      3106.762                          42.000          36.000
  22057897.162   117912090.698 8     -3516.702    22057901.219    91709409.216 6
     -2735.206                          45.000          37.000
  23592325.710   126203031.331 7      -843.294    23592324.549    98157951.297 6
      -655.899                          43.000          36.000
 18  4  4  7 36 30.0000000  0 16G30G05G07G13G28G09G02G15G20R02R12R11
                                R03R13R01R19
  20435597.444   107389793.390 9      -923.747    20435601.089    83680367.559 8
      -719.803                          56.000          49.000
  20568793.695   108089735.209 9      -231.829    20568794.874    84225768.063 8
      -180.641                          54.000          47.000
  21818264.916   114655759.880 9     -2270.321    21818267.346    89342139.891 7
     -1769.075                          51.000          40.000
  21894798.531   115057952.091 8      2431.482    21894799.496    89655555.880 6
      1894.658                          48.000          37.000
  22227595.771   116806816.268 8      2394.660    22227596.879    91018313.681 6
      1865.957                          48.000          33.000
  24019175.981   126221600.210 7     -3095.133    24019181.038    98354509.054 5
     -2411.808                          42.000          27.000
  24548863.766   129005123.528 7     -2936.193    24548863.230   100523453.086 4
     -2287.936                          42.000          25.000
  24613376.978   129344164.460 7      3326.877    24613378.372   100787679.240 4
      2592.359                          41.000          22.000
  24732029.900   129967687.138 6      3489.853
                                        38.000
  19108470.344   101966468.278 9       128.902    19108471.862    79307319.054 8
       100.256                          55.000          50.000
  19165192.233   102377032.873 9        46.450
                                        52.000
  21271371.585   113667756.245 9     -3339.791    21271371.942    88408316.564 7
     -2597.623                          52.000          44.000
  21435451.994   114745656.009 8      3417.124    21435452.477    89246623.021 7
      2657.763                          50.000          43.000
  21890885.536   116896128.922 7      3983.346    21890888.127    90919216.011 6
      3098.173                          43.000          36.000
  22077662.893   118017746.805 7     -3527.097    22077666.252    91791586.144 6
     -2743.307                          44.000          37.000
  23597122.953   126228697.839 7      -867.802    23597122.149    98177914.132 6
      -674.951                          44.000          36.000
 18  4  4  7 37  0.0000000  0 16G30G05G07G13G28G09G02G15G20R02R12R11
                                R03R13R01R19
  20440913.532   107417729.773 9      -938.704    20440917.355    83702136.160 8
      -731.454                          56.000          49.000
  20570172.254   108096979.640 9      -251.177    20570173.433    84231413.063 8
      -195.719                          54.000          46.000
  21831252.157   114724005.819 9     -2279.396    21831253.480    89395318.517 7
     -1776.157                          51.000          39.000
  21880936.779   114985108.872 8      2424.685    21880937.923    89598794.935 6
      1889.361                          48.000          37.000
  22213960.974   116735168.805 8      2381.814    22213962.350    90962484.501 6
      1855.968                          46.000          33.000
  24036854.306   126314506.604 7     -3098.675    24036860.185    98426903.627 5
     -2414.528                          43.000          27.000
  24565631.342   129093233.971 7     -2937.932    24565630.502   100592110.531 4
     -2289.277                          42.000          25.000
  24594389.265   129244381.145 7      3325.327    24594390.570   100709926.028 4
      2591.162                          42.000          22.000
  24712123.165   129863077.679 7      3484.123
                                        39.000
  19107801.863   101962901.449 9       108.846    19107803.293    79304544.850 8
        84.654                          55.000          50.000
  19165002.697   102376022.531 9        20.919
                                        52.000
  21290158.415   113768152.571 9     -3353.291    21290159.612    88486402.597 7
     -2608.114                          51.000          44.000
  21416322.115   114643252.044 8      3409.813    21416322.883    89166975.493 7
      2652.066                          50.000          44.000
  21868539.376   116776798.378 7      3971.977    21868541.520    90826403.391 6
      3089.305                          43.000          36.000
  22097486.036   118123714.838 7     -3537.522    22097490.289    91874005.674 6
     -2751.390                          44.000          37.000
  23602058.699   126255100.856 7      -892.356    23602056.501    98198449.860 6
      -694.030                          44.000          34.000
 18  4  4  7 37 30.0000000  0 16G30G05G07G13G28G09G15G02G20R02R12R11
                                R03R13R01R19
  20446314.622   107446112.577 9      -953.495    20446318.518    83724252.626 8
      -742.987                          55.000          49.000
  20571661.173   108104803.284 9      -270.417    20571662.263    84237509.400 8
      -210.710                          55.000          46.000
  21844290.880   114792522.237 9     -2288.355    21844291.523    89448707.918 7
     -1783.129                          52.000          39.000
  21867113.928   114912469.557 8      2417.917    21867114.786    89542192.871 6
      1884.107                          46.000          37.000
  22200400.083   116663906.515 8      2368.989    22200402.084    90906955.473 6
      1845.963                          45.000          33.000
  24054553.948   126407516.427 7     -3102.014    24054560.363    98499378.717 4
     -2417.137                          41.000          25.000
  24575409.826   129144645.238 7      3323.748    24575411.219   100632209.730 4
      2589.938                          41.000          23.000
  24582407.424   129181396.422 7     -2939.565    24582408.068   100660808.504 4
     -2290.576                          40.000          25.000
  24692249.291   129758641.443 7      3478.335
                                        39.000
  19107246.280   101959936.754 9        88.761    19107247.709    79302238.964 8
        69.041                          55.000          50.000
  19164957.202   102375778.246 9        -4.583
                                        52.000
  21309021.152   113868949.940 8     -3366.544    21309023.046    88564800.505 8
     -2618.422                          50.000          45.000
  21397233.781   114541068.903 9      3402.405    21397234.461    89087499.717 7
      2646.312                          51.000          44.000
  21846256.508   116657808.762 7      3960.663    21846258.062    90733855.942 6
      3080.511                          43.000          36.000
  22117367.629   118229993.831 7     -3547.767    22117372.579    91956667.081 6
     -2759.374                          44.000          36.000
  23607131.465   126282239.347 7      -916.829    23607129.463    98219557.606 6
      -713.094                          43.000          34.000
 18  4  4  7 38  0.0000000  0 16G30G05G13G07G28G09G15G02G20R02R12R11
                                R03R13R01R19
  20451800.412   107474939.742 9      -968.287    20451804.201    83746715.342 8
      -754.505                          56.000          49.000
  20573260.057   108113205.356 9      -289.709    20573261.129    84244056.460 8
      -225.756                          55.000          47.000
  21853329.728   114840034.335 8      2411.123    21853330.997    89485749.846 6
      1878.787                          47.000          37.000
  21857380.850   114861306.600 9     -2297.236    21857380.475    89502306.116 7
     -1790.048                          53.000          40.000
  22186913.241   116593030.955 8      2356.058    22186914.867    90851727.785 6
      1835.887                          46.000          34.000
  24072273.015   126500628.151 7     -3105.420    24072279.287    98571933.227 5
     -2419.786                          43.000          28.000
  24556439.231   129044957.330 7      3322.159    24556441.071   100554530.875 4
      2588.706                          40.000          23.000
  24599193.316   129269607.245 7     -2941.095    24599193.209   100729544.155 4
     -2291.702                          41.000          24.000
  24672409.672   129654380.723 6      3472.408
                                        37.000
  19106803.825   101957574.973 9        68.620    19106805.076    79300402.017 8
        53.367                          55.000          50.000
  19165054.374   102376298.734 9       -30.021    19165055.446    79625999.67714
                                        52.000          21.000
  21327958.778   113970143.880 9     -3379.717    21327960.404    88643506.854 8
     -2628.666                          51.000          45.000
  21378186.743   114439108.861 8      3394.923    21378187.565    89008197.461 8
      2640.500                          50.000          45.000
  21824036.932   116539161.780 7      3949.156    21824039.094    90641574.965 6
      3071.555                          42.000          36.000
  22137307.225   118336581.011 7     -3558.020    22137311.139    92039568.158 6
     -2767.339                          44.000          37.000
  23612341.625   126310110.885 7      -941.243    23612340.749    98241235.459 6
      -732.065                          42.000          35.000
 18  4  4  7 38 30.0000000  0 15G30G05G13G07G28G09G15G02R02R12R11R03
                                R13R01R19
  20457370.312   107504210.266 9      -983.001    20457374.279    83769523.536 8
      -765.966                          53.000          49.000
  20574968.961   108122186.382 9      -308.968    20574970.248    84251054.653 8
      -240.758                          53.000          47.000
  21839584.715   114767804.410 8      2404.280    21839586.037    89429466.792 6
      1873.456                          49.000          37.000
  21870520.497   114930357.716 9     -2306.079    21870520.854    89556112.181 7
     -1796.937                          52.000          40.000
  22173500.663   116522545.099 8      2343.041    22173502.432    90796803.761 6
      1825.737                          45.000          35.000
  24090010.933   126593841.715 7     -3108.777    24090015.847    98644567.077 4
     -2422.405                          41.000          25.000
  24537478.982   128945318.864 7      3320.503    24537479.769   100476890.551 4
      2587.390                          40.000          22.000
  24615988.197   129357863.733 7     -2942.517    24615989.322   100798315.419 4
     -2292.876                          40.000          24.000
  19106474.552   101955817.787 9        48.578    19106475.928    79299035.305 8
        37.780                          55.000          50.000
  19165294.837   102377582.790 9       -55.470
                                        52.000
  21346969.667   114071731.043 9     -3392.740    21346971.043    88722519.069 7
     -2638.797                          52.000          44.000
  21359181.929   114337375.394 8      3387.402    21359182.716    88929071.443 8
      2634.651                          50.000          45.000
  21801882.881   116420860.336 7      3937.629    21801885.580    90549562.766 6
      3062.597                          42.000          36.000
  22157304.002   118443475.205 7     -3568.151    22157307.862    92122708.061 6
     -2775.232                          44.000          36.000
  23617689.341   126338713.990 7      -965.592    23617688.465    98263482.314 6
      -751.019                          43.000          36.000
 18  4  4  7 39  0.0000000  0 15G30G05G13G07G28G09G15G02R02R12R03R11
                                R13R01R19
  20463024.518   107533923.109 9      -997.755    20463028.502    83792676.401 8
      -777.470                          56.000          49.000
  20576788.599   108131746.920 9      -328.313    20576789.546    84258504.407 8
      -255.824                          54.000          47.000
  21825879.425   114695781.117 8      2397.359    21825880.479    89373344.757 6
      1868.063                          49.000          37.000
  21883710.552   114999674.280 9     -2314.932    21883711.678    89610125.069 7
     -1803.834                          52.000          39.000
  22160162.224   116452451.813 8      2329.885    22160163.618    90742185.640 6
      1815.480                          48.000          35.000
  24107768.489   126687156.717 7     -3112.173    24107773.206    98717280.001 4
     -2425.063                          43.000          25.000
  24518528.187   128845730.845 7      3318.748    24518529.134   100399289.506 4
      2586.042                          41.000          22.000
  24632790.975   129446163.343 7     -2943.960    24632790.904   100867120.287 4
     -2293.969                          41.000          24.000
  19106258.855   101954666.572 9        28.266    19106260.178    79298139.906 8
        21.985                          55.000          50.000
  19165677.985   102379629.895 9       -80.905
                                        52.000
  21340220.180   114235871.808 8      3379.623    21340220.519    88850124.240 7
      2628.592                          50.000          44.000
  21366053.123   114173708.132 9     -3405.643    21366054.570    88801834.571 7
     -2648.832                          51.000          44.000
  21779794.982   116302908.599 7      3925.893    21779797.073    90457822.556 6
      3053.455                          43.000          37.000
  22177358.532   118550674.902 7     -3578.365    22177361.641    92206085.543 6
     -2783.182                          44.000          36.000
  23623171.468   126368047.326 7      -989.910    23623172.612    98286297.108 6
      -769.917                          41.000          38.000
 18  4  4  7 39 30.0000000  0 15G30G05G13G07G28G09G15G02R02R12R03R11
                                R13R01R19
  20468762.404   107564076.283 9     -1012.484    20468766.371    83816172.374 8
      -788.946                          54.000          49.000
  20578717.882   108141886.244 9      -347.713    20578719.008    84266405.169 8
      -270.941                          55.000          46.000
  21812213.357   114623964.808 8      2390.350    21812214.071    89317383.995 6
      1862.599                          49.000          37.000
  21896950.604   115069253.875 9     -2323.732    21896952.499    89664342.902 7
     -1810.701                          51.000          39.000
  22146898.513   116382752.542 8      2316.643    22146900.032    90687874.526 6
      1805.193                          46.000          34.000
  24125544.378   126780571.766 7     -3115.527    24125550.990    98790070.887 4
     -2427.672                          42.000          26.000
  24499586.111   128746193.688 7      3316.993    24499588.845   100321728.131 4
      2584.670                          41.000          22.000
  24649601.401   129534502.565 7     -2945.329    24649601.848   100935955.988 4
     -2295.020                          41.000          24.000
  19106156.984   101954122.428 9         7.917    19106158.163    79297716.671 8
         6.161                          55.000          50.000
  19166203.906   102382438.696 9      -106.369
                                        52.000
  21321302.746   114134600.168 9      3371.745    21321301.834    88771357.414 7
      2622.459                          52.000          44.000
  21385208.376   114276070.613 8     -3418.514    21385209.930    88881449.820 7
     -2658.842                          50.000          44.000
  21757772.215   116185307.878 7      3914.076    21757773.841    90366355.347 6
      3044.280                          43.000          37.000
  22197469.188   118658177.774 7     -3588.496    22197472.261    92289698.849 6
     -2791.048                          44.000          36.000
  23628792.062   126398108.611 7     -1014.236    23628792.348    98309678.073 7
      -788.850                          41.000          39.000
 18  4  4  7 40  0.0000000  0 16G30G05G13G07G28G09G15G20G02R02R12R03
                                R11R13R01R19
  20474584.006   107594668.955 9     -1026.928    20474587.955    83840010.811 8
      -800.200                          56.000          49.000
  20580757.524   108152605.118 9      -366.834    20580758.810    84274757.527 8
      -285.845                          54.000          47.000
  21798586.726   114552357.048 8      2383.548    21798587.673    89261585.740 6
      1857.310                          47.000          37.000
  21910241.530   115139095.432 9     -2332.247    21910243.103    89718764.855 7
     -1817.343                          52.000          40.000
  22133710.763   116313450.513 8      2303.545    22133711.960    90633872.961 6
      1794.974                          47.000          33.000
  24143339.781   126874087.017 7     -3118.741    24143346.142    98862939.800 4
     -2430.162                          42.000          25.000
  24480654.810   128646708.865 7      3315.401    24480656.919   100244207.512 4
      2583.418                          40.000          23.000
  24593393.121   129239150.590 7      3448.083
                                        41.000
  24666419.100   129622879.504 7     -2946.367    24666419.261   101004821.082 4
     -2295.858                          40.000          24.000
  19106168.938   101954187.035 9       -12.180    19106170.350    79297766.912 8
        -9.473                          55.000          50.000
  19166872.064   102386008.219 9      -131.539
                                        52.000
  21302428.912   114033564.353 9      3364.004    21302427.572    88692773.967 7
      2616.452                          52.000          44.000
  21404435.552   114378815.495 8     -3431.042    21404437.589    88961362.476 7
     -2668.585                          50.000          44.000
  21735815.904   116068062.329 7      3902.382    21735817.190    90275164.388 6
      3035.173                          43.000          36.000
  22217636.007   118765982.469 8     -3598.372    22217639.723    92373546.901 6
     -2798.720                          45.000          36.000
  23634548.032   126428896.357 7     -1038.159    23634548.514    98333624.046 7
      -807.461                          43.000          40.000
 18  4  4  7 40 30.0000000  0 16G30G05G13G07G28G09G15G20G02R02R12R03
                                R11R13R01R19
  20480488.843   107625699.406 9     -1041.604    20480492.685    83864190.383 8
      -811.644                          55.000          49.000
  20582907.721   108163903.281 9      -386.253    20582908.775    84283561.275 8
      -300.973                          54.000          46.000
  21784999.871   114480958.752 8      2376.454    21785001.265    89205950.702 6
      1851.784                          49.000          37.000
  21923581.453   115209196.386 9     -2341.008    21923582.668    89773388.945 7
     -1824.164                          51.000          40.000
  22120598.921   116244547.983 8      2290.093    22120600.225    90580182.696 6
      1784.482                          47.000          34.000
  24161153.785   126967701.307 7     -3122.136    24161160.021    98935885.922 4
     -2432.858                          41.000          26.000
  24461733.338   128547277.560 7      3313.456    24461736.483   100166728.580 4
      2581.923                          40.000          23.000
  24573726.135   129135806.025 6      3441.658
                                        36.000
  24683243.572   129711290.828 7     -2947.555    24683244.215   101073713.009 4
     -2296.778                          40.000          23.000
  19106295.130   101954861.813 9       -32.693    19106296.648    79298291.732 8
       -25.428                          55.000          50.000
  19167682.389   102390337.268 9      -156.950
                                        52.000
  21283599.161   113932766.934 9      3355.920    21283598.375    88614375.959 8
      2610.171                          52.000          45.000
  21423734.454   114481938.409 9     -3443.687    21423735.526    89041569.142 8
     -2678.424                          51.000          45.000
  21713926.029   115951174.219 7      3890.297    21713927.994    90184251.430 6
      3025.777                          42.000          36.000
  22237859.488   118874086.856 7     -3608.418    22237862.686    92457628.053 6
     -2806.538                          44.000          36.000
  23640439.377   126460408.878 7     -1062.442    23640439.556    98358133.754 7
      -826.341                          44.000          39.000
 18  4  4  7 41  0.0000000  0 16G30G05G13G07G28G09G15G20G02R02R12R03
                                R11R13R01R19
  20486477.003   107657166.503 9     -1056.108    20486480.594    83888710.196 8
      -822.940                          56.000          49.000
  20585167.813   108175781.016 9      -405.501    20585169.082    84292816.639 8
      -315.970                          55.000          46.000
  21771453.097   114409770.990 8      2369.461    21771454.848    89150479.730 6
      1846.328                          47.000          37.000
  21936970.569   115279555.605 9     -2349.525    21936971.087    89828214.302 7
     -1830.807                          51.000          39.000
  22107563.933   116176047.128 8      2276.724    22107565.077    90526805.418 6
      1774.071                          48.000          35.000
  24178987.642   127061414.290 7     -3125.356    24178992.609    99008908.985 4
     -2435.319                          43.000          24.000
  24442823.194   128447901.328 7      3311.719    24442825.410   100089292.579 4
      2580.552                          40.000          23.000
  24554096.781   129032652.445 6      3435.284
                                        36.000
  24700072.367   129799733.411 7     -2948.544    24700074.369   101142629.273 4
     -2297.592                          40.000          23.000
  19106536.272   101956147.862 9       -52.992    19106537.755    79299291.976 8
       -41.213                          54.000          50.000
  19168635.040   102395424.671 9      -182.142
                                        52.000
  21264813.761   113832210.977 9      3347.882    21264814.100    88536165.791 8
      2603.909                          51.000          45.000
  21443103.010   114585436.027 9     -3456.070    21443104.225    89122067.269 8
     -2688.054                          52.000          45.000
  21692104.557   115834646.849 7      3878.284    21692106.361    90093619.059 6
      3016.447                          43.000          37.000
  22258138.184   118982489.510 7     -3618.285    22258141.990    92541941.161 6
     -2814.204                          43.000          36.000
  23646465.884   126492644.089 8     -1086.428    23646465.562    98383205.576 6
      -845.012                          45.000          38.000
 18  4  4  7 41 30.0000000  0 16G30G05G13G07G28G09G15G20G02R02R12R03
                                R11R13R01R19
  20492547.592   107689068.259 9     -1070.644    20492551.255    83913568.703 8
      -834.268                          55.000          48.000
  20587538.264   108188237.324 9      -424.873    20587539.372    84302522.841 8
      -331.071                          55.000          47.000
  21757947.117   114338794.245 8      2362.347    21757948.493    89095173.180 6
      1840.792                          49.000          37.000
  21950408.342   115350170.953 9     -2358.098    21950408.717    89883239.248 7
     -1837.474                          52.000          39.000
  22094605.639   116107950.004 8      2263.132    22094606.961    90473742.740 6
      1763.472                          47.000          35.000
  24196838.724   127155224.833 7     -3128.685    24196844.246    99082007.969 4
     -2437.893                          43.000          25.000
  24423923.379   128348579.836 7      3309.766    24423924.844   100011899.224 4
      2579.038                          41.000          23.000
  24534501.342   128929691.967 6      3428.800
                                        33.000
  24716908.597   129888204.472 7     -2949.521    24716909.293   101211567.693 4
     -2298.313                          39.000          23.000
  19106892.241   101958046.110 9       -73.506    19106893.510    79300768.380 8
       -57.172                          55.000          50.000
  19169728.892   102401268.824 9      -207.417
                                        52.000
  21246073.623   113731899.136 8      3339.626    21246074.856    88458145.505 8
      2597.480                          50.000          46.000
  21462539.878   114689304.037 9     -3468.442    21462541.790    89202853.476 7
     -2697.678                          51.000          44.000
  21670351.201   115718482.628 7      3866.065    21670352.220    90003269.118 6
      3006.939                          43.000          37.000
  22278472.275   119091188.086 7     -3628.211    22278475.759    92626484.472 6
     -2821.949                          43.000          35.000
  23652626.712   126525599.600 7     -1110.562    23652624.550    98408837.682 6
      -863.761                          44.000          36.000
 18  4  4  7 42  0.0000000  0 16G30G05G13G07G28G09G15G20G02R02R12R03
                                R11R13R01R19
  20498700.576   107721403.325 9     -1085.134    20498704.400    83938764.849 8
      -845.554                          55.000          49.000
  20590018.770   108201272.578 9      -444.231    20590019.860    84312680.169 8
      -346.157                          54.000          47.000
  21744481.057   114268029.379 8      2355.222    21744482.219    89040031.726 6
      1835.233                          49.000          37.000
  21963893.611   115421040.646 9     -2366.618    21963894.701    89938462.383 6
     -1844.118                          51.000          38.000
  22081724.075   116040259.008 8      2249.494    22081725.933    90420996.514 6
      1752.866                          47.000          35.000
  24214709.713   127249132.209 7     -3131.969    24214714.502    99155182.454 5
     -2440.506                          43.000          27.000
  24405032.819   128249314.800 7      3307.806    24405035.589    99934549.884 4
      2577.531                          41.000          23.000
  24514949.200   128826927.073 7      3422.085
                                        40.000
  24733749.114   129976701.057 7     -2950.333    24733749.758   101280526.042 4
     -2298.968                          40.000          22.000
  19107362.428   101960557.511 9       -93.970    19107364.251    79302721.680 8
       -73.089                          55.000          50.000
  19170964.446   102407868.297 9      -232.636
                                        52.000
  21227381.553   113631834.761 9      3331.296    21227381.892    88380317.686 8
      2591.006                          51.000          45.000
  21482045.329   114793538.776 8     -3480.636    21482047.562    89283924.898 7
     -2707.163                          49.000          43.000
  21648665.123   115602684.129 7      3853.744    21648667.338    89913203.642 6
      2997.364                          43.000          37.000
  22298861.598   119200180.571 7     -3638.068    22298865.583    92711256.333 6
     -2829.598                          44.000          36.000
  23658919.378   126559273.447 7     -1134.450    23658917.573    98435028.486 6
      -882.347                          41.000          33.000
 18  4  4  7 42 30.0000000  0 16G30G05G13G07G28G09G15G20G02R02R12R03
                                R11R13R01R19
  20504935.989   107754170.829 9     -1099.454    20504939.724    83964297.964 8
      -856.713                          55.000          48.000
  20592609.493   108214887.251 9      -463.499    20592610.761    84323288.998 8
      -361.172                          54.000          47.000
  21731055.167   114197477.862 8      2348.127    21731056.739    88985056.517 6
      1829.706                          48.000          38.000
  21977427.734   115492163.436 8     -2374.966    21977429.646    89993882.719 6
     -1850.629                          49.000          38.000
  22068920.491   115972977.009 8      2235.888    22068922.475    90368569.017 6
      1742.265                          47.000          35.000
  24232597.016   127343136.445 7     -3135.137    24232603.288    99228432.472 4
     -2442.990                          41.000          24.000
  24386154.893   128150107.698 7      3305.907    24386156.752    99857245.658 4
      2576.003                          41.000          23.000
  24495431.492   128724360.694 7      3415.516
                                        40.000
  24750594.439   130065221.017 7     -2951.066    24750595.422   101349502.602 4
     -2299.514                          40.000          23.000
  19107948.479   101963684.353 9      -114.538    19107950.212    79305153.664 8
       -89.090                          55.000          50.000
  19172341.129   102415222.670 9      -257.713
                                        52.000
  21208735.603   113532021.082 9      3322.898    21208735.424    88302684.821 8
      2584.472                          52.000          45.000
  21501619.932   114898136.938 9     -3492.601    21501621.093    89365279.007 7
     -2716.461                          51.000          43.000
  21627049.162   115487255.036 7      3841.411    21627050.878    89823425.491 6
      2987.758                          44.000          37.000
  22319306.155   119309465.930 7     -3647.741    22319309.264    92796256.013 6
     -2837.116                          44.000          35.000
  23665348.527   126593664.556 6     -1158.319    23665347.365    98461777.125 6
      -900.893                          38.000          33.000
 18  4  4  7 43  0.0000000  0 16G30G05G13G07G28G09G15G20G02R02R12R03
                                R11R13R01R19
  20511253.439   107787368.819 9     -1113.735    20511256.977    83990166.521 8
      -867.837                          55.000          49.000
  20595310.413   108229080.781 9      -482.737    20595311.718    84334348.878 8
      -376.156                          55.000          47.000
  21717670.411   114127140.674 8      2341.006    21717672.037    88930248.330 6
      1824.158                          48.000          38.000
  21991009.675   115563537.145 8     -2383.280    21991011.587    90049498.552 7
     -1857.092                          50.000          39.000
  22056195.424   115906105.983 8      2222.176    22056197.086    90316461.751 6
      1731.581                          46.000          35.000
  24250504.243   127437236.377 7     -3138.246    24250508.174    99301756.973 4
     -2445.378                          43.000          24.000
  24367287.278   128050958.798 7      3303.948    24367289.583    99779986.794 4
      2574.525                          41.000          23.000
  24475951.773   128621995.096 7      3408.836
                                        41.000
  24767442.622   130153760.794 7     -2951.593    24767442.747   101418494.566 4
     -2299.927                          41.000          23.000
  19108649.838   101967426.755 9      -134.979    19108651.393    79308064.412 8
      -104.980                          55.000          50.000
  19173858.656   102423329.831 9      -282.740
                                        53.000
  21190136.558   113432460.509 9      3314.469    21190136.380    88225248.806 8
      2577.917                          51.000          45.000
  21521261.723   115003094.215 9     -3504.458    21521262.849    89446912.434 7
     -2725.683                          51.000          44.000
  21605502.337   115372197.873 7      3829.028    21605504.499    89733936.605 6
      2978.147                          43.000          37.000
  22339804.551   119419041.919 7     -3657.351    22339808.464    92881481.728 6
     -2844.606                          44.000          36.000
  23671909.728   126628770.090 6     -1181.955    23671911.086    98489081.417 6
      -919.308                          36.000          35.000
 18  4  4  7 43 30.0000000  0 16G30G05G13G07G28G09G15G20G02R02R12R03
                                R11R13R01R19
  20517652.676   107820995.899 9     -1128.034    20517656.053    84016369.438 8
      -878.985                          56.000          49.000
  20598121.515   108243852.930 9      -502.023    20598122.712    84345859.627 8
      -391.191                          54.000          46.000
  21704327.058   114057018.660 8      2333.823    21704328.166    88875607.798 6
      1818.578                          50.000          38.000
  22004639.594   115635159.997 9     -2391.551    22004641.255    90105308.535 7
     -1863.546                          51.000          39.000
  22043549.391   115839647.924 8      2208.369    22043550.535    90264676.267 6
      1720.798                          48.000          35.000
  24268429.267   127531431.247 7     -3141.459    24268435.307    99375155.520 4
     -2447.873                          42.000          26.000
  24348432.010   127951869.577 7      3301.985    24348433.600    99702774.436 4
      2572.977                          41.000          24.000
  24456510.830   128519833.019 6      3401.990
                                        38.000
  24784294.505   130242317.659 7     -2952.133    24784295.773   101487499.896 4
     -2300.361                          40.000          22.000
  19109467.060   101971786.610 9      -155.624    19109468.614    79311455.400 8
      -121.043                          55.000          50.000
  19175517.652   102432188.501 9      -307.799
                                        52.000
  21171584.975   113333156.150 9      3305.852    21171585.868    88148012.075 8
      2571.221                          51.000          45.000
  21540969.754   115108407.222 9     -3516.288    21540971.076    89528822.529 8
     -2734.887                          52.000          45.000
  21584026.166   115257515.285 7      3816.503    21584028.381    89644739.051 6
      2968.384                          43.000          37.000
  22360357.215   119528906.527 7     -3666.967    22360360.896    92966931.931 6
     -2852.082                          44.000          36.000
  23678607.414   126664588.242 7     -1205.784    23678607.199    98516939.933 6
      -937.840                          39.000          36.000
 18  4  4  7 44  0.0000000  0 15G30G05G13G07G28G09G15G02R02R12R03R11
                                R13R01R19
  20524132.967   107855050.586 9     -1142.249    20524136.523    84042905.561 8
      -890.064                          54.000          48.000
  20601042.582   108259203.610 9      -521.309    20601043.868    84357821.180 8
      -406.216                          54.000          46.000
  21691024.124   113987112.701 8      2326.617    21691025.571    88821135.627 6
      1812.949                          49.000          38.000
  22018316.222   115707030.232 8     -2399.752    22018317.562    90161311.299 7
     -1869.928                          50.000          39.000
  22030981.964   115773605.140 8      2194.501    22030983.001    90213214.364 6
      1709.996                          48.000          35.000
  24286372.232   127625720.571 7     -3144.540    24286376.199    99448627.606 4
     -2450.282                          44.000          24.000
  24329586.963   127852841.025 7      3299.952    24329588.571    99625609.365 4
      2571.405                          42.000          24.000
  24801149.121   130330888.934 7     -2952.529    24801149.496   101556516.401 4
     -2300.630                          40.000          23.000
  19110399.984   101976764.334 9      -176.156    19110401.306    79315326.949 8
      -137.007                          55.000          50.000
  19177316.419   102441797.363 9      -332.724
                                        52.000
  21153082.423   113234111.001 9      3297.188    21153083.763    88070976.978 8
      2564.478                          51.000          46.000
  21560742.847   115214071.933 8     -3527.948    21560745.205    89611006.156 7
     -2743.962                          50.000          44.000
  21562620.381   115143210.014 7      3803.873    21562622.275    89555834.969 6
      2958.560                          43.000          38.000
  22380963.111   119639057.869 7     -3676.418    22380966.882    93052605.145 6
     -2859.422                          43.000          35.000
  23685436.722   126701116.511 7     -1229.371    23685436.257    98545350.779 6
      -956.167                          40.000          38.000
 18  4  4  7 44 30.0000000  0 16G30G05G13G28G07G09G15G20G02R02R12R03
                                R13R11R01R19
  20530694.865   107889531.837 9     -1156.384    20530698.224    84069774.066 8
      -901.082                          55.000          49.000
  20604074.079   108275133.140 9      -540.558    20604075.259    84370233.787 8
      -421.214                          54.000          47.000
  21677762.789   113917424.322 8      2319.369    21677764.273    88766832.998 6
      1807.288                          49.000          38.000
  22018494.537   115707980.755 8      2180.556    22018495.002    90162078.484 6
      1699.141                          49.000          36.000
  22032039.542   115779146.811 9     -2407.898    22032040.740    90217506.024 7
     -1876.288                          51.000          39.000
  24304332.977   127720103.997 7     -3147.434    24304337.051    99522173.019 4
     -2452.547                          42.000          24.000
  24310754.550   127753874.812 7      3297.925    24310756.086    99548492.847 4
      2569.794                          42.000          24.000
  24417746.308   128316129.496 6      3388.126
                                        36.000
  24818006.168   130419472.132 7     -2952.833    24818006.650   101625542.231 4
     -2300.906                          40.000          23.000
  19111448.717   101982362.052 9      -196.827    19111450.414    79319680.721 8
      -153.091                          55.000          50.000
  19179255.190   102452155.410 9      -357.670
                                        52.000
  21134630.441   113135329.075 9      3288.430    21134630.584    87994146.599 8
      2557.668                          52.000          46.000
  21541286.608   115029285.368 7      3791.207    21541287.859    89467226.944 6
      2948.698                          44.000          38.000
  21580581.018   115320085.141 8     -3539.436    21580584.020    89693460.825 7
     -2752.901                          49.000          43.000
  22401622.186   119749494.482 7     -3685.880    22401626.510    93138500.249 6
     -2866.812                          43.000          35.000
  23692397.600   126738353.661 7     -1252.907    23692397.939    98574312.998 6
      -974.492                          40.000          38.000
 18  4  4  7 45  0.0000000  0 17G30G05G13G28G07G15G09G20G02G21R02R12
                                R03R13R11R01R19
  20537337.227   107924438.034 9     -1170.515    20537340.766    84096973.697 8
      -912.089                          55.000          49.000
  20607215.364   108291641.100 9      -559.824    20607216.579    84383097.121 8
      -436.226                          54.000          47.000
  21664543.143   113847954.296 8      2312.102    21664544.555    88712700.513 6
      1801.642                          49.000          38.000
  22006085.930   115642777.015 8      2166.502    22006087.467    90111270.379 6
      1688.189                          48.000          36.000
  22045809.001   115851507.850 8     -2416.000    22045810.287    90273891.229 6
     -1882.608                          48.000          38.000
  24291933.108   127654971.930 7      3295.776    24291936.020    99471425.707 4
      2568.127                          40.000          24.000
  24322309.786   127814580.762 7     -3150.657    24322316.433    99595791.245 4
     -2455.069                          41.000          25.000
  24398425.552   128214593.584 7      3381.089
                                        40.000
  24834864.215   130508064.377 7     -2953.094    24834864.715   101694575.090 4
     -2301.098                          39.000          22.000
  26042325.828   136853352.813 6      1367.083
                                        36.000
  19112614.170   101988580.440 9      -217.510    19112615.635    79324517.231 8
      -169.174                          55.000          50.000
  19181334.215   102463260.732 9      -382.536
                                        52.000
  21116226.581   113036812.751 9      3279.541    21116226.813    87917522.805 8
      2550.758                          52.000          46.000
  21520024.007   114915744.359 7      3778.374    21520025.437    89378917.294 6
      2938.747                          44.000          37.000
  21600485.698   115426442.966 8     -3550.886    21600486.395    89776183.538 7
     -2761.794                          50.000          42.000
  22422334.760   119860214.512 7     -3695.286    22422339.031    93224615.775 6
     -2874.109                          44.000          35.000
  23699489.368   126776296.929 6     -1276.415    23699490.833    98603824.349 6
      -992.782                          35.000          37.000
 18  4  4  7 45 30.0000000  0 16G30G05G13G28G07G15G09G20G02G21R02R12
                                R03R13R11R01
  20544059.965   107959767.203 9     -1184.629    20544063.717    84124502.920 8
      -923.088                          56.000          49.000
  20610466.615   108308726.970 9      -579.122    20610467.991    84396410.770 8
      -451.262                          54.000          47.000
  21651365.382   113778703.361 8      2304.726    21651366.669    88658738.752 6
      1795.880                          48.000          38.000
  21993757.966   115577995.058 8      2152.384    21993760.039    90060790.966 6
      1677.177                          47.000          36.000
  22059625.472   115924111.145 9     -2424.089    22059626.258    90330465.196 7
     -1888.897                          52.000          39.000
  24273125.443   127556132.474 7      3293.628    24273126.622    99394407.979 4
      2566.464                          42.000          24.000
  24340306.286   127909149.627 7     -3153.812    24340311.182    99669481.153 4
     -2457.489                          40.000          26.000
  24379144.608   128113271.145 7      3373.848
                                        41.000
  24851723.871   130596662.221 7     -2953.324    24851725.193   101763612.307 4
     -2301.292                          40.000          22.000
  26034560.987   136812540.942 6      1353.830
                                        38.000
  19113895.611   101995420.053 9      -238.352    19113897.470    79329836.919 8
      -185.388                          55.000          50.000
  19183552.887   102475111.427 9      -407.412
                                        52.000
  21097873.522   112938564.887 9      3270.462    21097873.003    87841107.802 8
      2543.695                          52.000          46.000
  21498833.079   114802588.962 7      3765.457    21498834.741    89290907.557 6
      2928.687                          43.000          37.000
  21620453.670   115533140.959 9     -3562.171    21620453.545    89859170.880 7
     -2770.582                          52.000          42.000
  22443100.584   119971215.503 7     -3704.629    22443103.622    93310949.835 6
     -2881.385                          44.000          35.000
 18  4  4  7 46  0.0000000  0 17G30G05G13G28G07G15G09G20G02G21R02R12
                                R03R13R11R01R19
  20550863.095   107995518.096 9     -1198.718    20550867.098    84152360.751 8
      -934.070                          53.000          49.000
  20613828.064   108326390.744 9      -598.415    20613829.279    84410174.739 8
      -466.297                          54.000          47.000
  21638229.202   113709672.367 8      2297.352    21638230.203    88604948.367 6
      1790.145                          48.000          38.000
  21981511.145   115513637.160 8      2138.151    21981513.236    90010641.983 6
      1666.095                          47.000          36.000
  22073487.295   115996954.889 9     -2432.116    22073487.885    90387226.552 7
     -1895.161                          52.000          39.000
  24254329.286   127457358.092 7      3291.386    24254330.805    99317440.931 4
      2564.748                          40.000          24.000
  24358320.942   128003810.259 7     -3156.872    24358326.195    99743242.586 5
     -2459.914                          43.000          28.000
  24359905.209   128012164.912 7      3366.608
                                        39.000
  24868584.598   130685263.237 7     -2953.399    24868585.509   101832651.982 4
     -2301.290                          39.000          22.000
  26026869.552   136772122.650 6      1340.661
                                        37.000
  19115294.380   102002882.250 9      -259.116    19115295.935    79335640.836 8
      -201.530                          55.000          50.000
  19185910.436   102487706.358 9      -432.207
                                        52.000
  21079570.138   112840588.514 9      3261.304    21079569.674    87764903.959 8
      2536.577                          52.000          45.000
  21477715.504   114689822.442 7      3752.402    21477717.648    89203200.277 6
      2918.540                          43.000          37.000
  21640483.094   115640175.921 9     -3573.473    21640484.166    89942420.297 7
     -2779.370                          51.000          44.000
  22463917.710   120082495.649 7     -3713.938    22463921.730    93397501.008 6
     -2888.633                          44.000          35.000
  23714072.081   126854304.727 7     -1323.301    23714071.992    98664445.667 6
                                        41.000          33.000
 18  4  4  7 46 30.0000000  0 16G30G05G13G28G07G15G20G09G21R02R12R03
                                R13R11R01R19
  20557746.243   108031689.424 9     -1212.758    20557750.335    84180546.198 8
      -945.006                          54.000          49.000
  20617299.247   108344632.505 9      -617.738    20617300.587    84424389.084 8
      -481.351                          54.000          46.000
  21625134.961   113640862.847 8      2289.895    21625136.569    88551330.559 6
      1784.340                          50.000          38.000
  21969345.646   115449706.372 8      2123.819    21969347.326    89960825.809 6
      1654.936                          48.000          36.000
  22087394.416   116070037.579 8     -2440.124    22087395.578    90444174.096 7
     -1901.395                          50.000          39.000
  24235545.708   127358649.853 7      3289.112    24235546.870    99240525.454 4
      2562.961                          41.000          24.000
  24340705.230   127911277.557 6      3359.185
                                        35.000
  24376350.875   128098562.254 7     -3160.021    24376356.075    99817075.347 4
     -2462.351                          41.000          21.000
  26019251.808   136732098.980 6      1327.407
                                        36.000
  19116809.727   102010968.314 9      -279.979    19116811.210    79341929.983 8
      -217.757                          55.000          50.000
  19188407.168   102501043.893 9      -457.001
                                        52.000
  21061318.754   112742887.589 9      3251.993    21061318.164    87688914.353 7
      2529.331                          52.000          44.000
  21456670.583   114577447.094 7      3739.239    21456672.942    89115797.282 6
      2908.276                          43.000          38.000
  21660573.897   115747544.311 8     -3584.563    21660577.221    90025928.989 7
     -2787.988                          48.000          44.000
  22484786.548   120194053.325 7     -3723.260    22484790.015    93484268.048 6
     -2895.879                          43.000          34.000
  23721559.345   126894352.697 7     -1346.646    23721556.557    98695594.141 6
     -1047.407                          44.000          35.000
 18  4  4  7 47  0.0000000  0 16G30G05G13G28G07G15G20G09G21R02R12R03
                                R13R11R01R19
  20564709.068   108068279.563 9     -1226.535    20564713.178    84209057.990 8
      -955.743                          54.000          48.000
  20620880.235   108363451.358 9      -636.822    20620881.718    84439053.118 8
      -496.226                          51.000          46.000
  21612083.480   113572275.640 8      2282.612    21612084.785    88497885.990 6
      1778.646                          50.000          38.000
  21957261.916   115386204.565 8      2109.647    21957262.935    89911343.900 6
      1643.886                          49.000          36.000
  22101346.246   116143357.637 8     -2447.852    22101348.104    90501306.588 6
     -1907.425                          50.000          38.000
  24216774.729   127260008.795 7      3287.061    24216776.801    99163662.312 4
      2561.345                          41.000          24.000
  24321549.012   127810611.451 6      3351.969
                                        35.000
  24394398.660   128193404.593 7     -3162.837    24394405.611    99890978.298 5
     -2464.567                          41.000          27.000
  26011711.527   136692471.159 6      1314.488
                                        36.000
  19118442.098   102019679.122 9      -300.676    19118443.617    79348705.042 8
      -233.852                          55.000          50.000
  19191043.009   102515122.649 9      -481.528
                                        52.000
  21043118.958   112645464.761 9      3242.889    21043119.279    87613141.047 8
      2522.257                          52.000          46.000
  21435701.053   114465466.732 7      3726.227    21435702.697    89028701.470 6
      2898.169                          44.000          38.000
  21680729.190   115855242.377 8     -3595.338    21680731.674    90109694.080 7
     -2796.373                          49.000          44.000
  22505706.653   120305886.494 7     -3732.270    22505711.460    93571249.360 6
     -2902.867                          43.000          35.000
  23729176.248   126935097.797 8     -1369.650    23729174.729    98727284.816 6
     -1065.272                          46.000          37.000
 18  4  4  7 47 30.0000000  0 16G30G05G13G28G07G15G20G09G21R02R12R03
                                R13R11R01R19
  20571751.232   108105287.327 9     -1240.560    20571755.467    84237895.199 8
      -966.671                          55.000          48.000
  20624571.367   108382847.428 9      -656.191    20624572.708    84454166.921 8
      -511.318                          54.000          46.000
  21599074.331   113503912.186 8      2275.022    21599075.439    88444615.768 6
      1772.740                          49.000          38.000
  21945260.116   115323134.142 8      2095.121    21945260.920    89862198.125 6
      1632.559                          48.000          36.000
  22115343.141   116216913.815 8     -2455.811    22115345.303    90558623.038 6
     -1913.620                          49.000          38.000
  24198017.347   127161436.728 7      3284.515    24198018.473    99086852.951 4
      2559.353                          42.000          23.000
  24302436.805   127710169.774 7      3344.253
                                        39.000
  24412464.367   128288337.159 7     -3165.925    24412468.567    99964951.603 4
     -2466.939                          41.000          26.000
  26004246.940   136653240.797 6      1301.087
                                        38.000
  19120191.958   102029015.989 9      -321.743    19120193.388    79355967.038 8
      -250.242                          55.000          50.000
  19193816.889   102529940.874 9      -506.280
                                        53.000
  21024972.464   112548323.300 9      3233.281    21024972.715    87537586.589 8
      2514.773                          52.000          46.000
  21414804.285   114353883.698 7      3712.784    21414806.625    88941914.685 6
      2887.730                          44.000          38.000
  21700945.613   115963266.567 9     -3606.190    21700946.346    90193712.875 7
     -2804.816                          51.000          43.000
  22526680.008   120417993.832 7     -3741.462    22526683.546    93658443.875 6
     -2910.023                          44.000          35.000
  23736922.076   126976537.819 7     -1392.969    23736921.951    98759515.935 7
     -1083.414                          43.000          39.000
 18  4  4  7 48  0.0000000  0 16G30G05G13G28G07G15G20G09G21R02R12R03
                                R13R11R01R19
  20578872.521   108142710.474 9     -1254.418    20578876.684    84267056.084 8
      -977.459                          55.000          48.000
  20628372.001   108402820.179 9      -675.441    20628373.377    84469730.090 8
      -526.326                          54.000          47.000
  21586107.853   113435772.606 8      2267.519    21586108.711    88391519.996 6
      1766.898                          50.000          38.000
  21933340.387   115260496.841 8      2080.590    21933341.388    89813389.841 6
      1621.256                          48.000          36.000
  22129384.958   116290703.488 8     -2463.622    22129386.745    90616121.450 6
     -1919.711                          49.000          37.000
  24179272.617   127062934.232 7      3282.138    24179274.064    99010097.777 4
      2557.500                          42.000          24.000
  24283366.698   127609954.320 7      3336.645
                                        40.000
  24430544.799   128383358.429 7     -3168.952    24430550.195   100038994.201 4
     -2469.343                          39.000          21.000
  25996857.009   136614407.882 6      1287.711
                                        37.000
  19122059.164   102038979.363 9      -342.664    19122060.522    79363716.319 8
      -266.517                          55.000          50.000
  19196728.915   102545496.876 9      -530.852
                                        52.000
  21006878.756   112451465.667 9      3223.724    21006879.114    87462252.878 8
      2507.343                          53.000          47.000
  21393983.370   114242700.075 7      3699.367    21393985.318    88855438.561 6
      2877.282                          44.000          38.000
  21721220.861   116071612.516 9     -3616.968    21721221.451    90277981.982 7
     -2813.201                          51.000          42.000
  22547700.805   120530372.224 7     -3750.556    22547705.737    93745849.277 6
     -2917.097                          42.000          34.000
  23744796.669   127018670.017 7     -1416.002    23744797.652    98792285.379 6
     -1101.340                          41.000          38.000
 18  4  4  7 48 30.0000000  0 16G30G05G13G28G07G15G20G09G21R02R12R03
                                R13R11R01R19
  20586072.825   108180548.124 9     -1268.126    20586076.900    84296539.964 8
      -988.145                          55.000          48.000
  20632282.387   108423369.482 9      -694.562    20632283.709    84485742.522 8
      -541.217                          54.000          47.000
  21573184.243   113367858.498 8      2260.087    21573185.190    88338599.909 7
      1761.112                          47.000          39.000
  21921503.249   115198295.083 8      2066.129    21921505.090    89764920.966 6
      1609.974                          48.000          36.000
  22143471.538   116364725.501 8     -2471.228    22143472.682    90673800.936 6
     -1925.629                          50.000          38.000
  24160541.628   126964502.550 7      3279.865    24160543.754    98933397.794 4
      2555.691                          43.000          25.000
  24264340.388   127509968.486 7      3329.013
                                        39.000
  24448645.583   128478468.439 7     -3171.750    24448651.569   100113105.719 4
     -2471.490                          42.000          22.000
  25989542.735   136575974.226 6      1274.399
                                        35.000
  19124043.554   102049569.894 9      -363.481    19124045.234    79371953.385 8
      -282.704                          55.000          50.000
  19199778.907   102561788.823 9      -555.293
                                        52.000
  20988838.405   112354895.632 9      3214.177    20988838.959    87387142.863 8
      2499.917                          52.000          46.000
  21373237.399   114131918.655 7      3685.969    21373239.936    88769275.262 6
      2866.870                          44.000          38.000
  21741554.701   116180277.420 8     -3627.400    21741556.774    90362499.120 7
     -2821.314                          49.000          43.000
  22568775.263   120643020.577 7     -3759.356    22568779.730    93833464.590 6
     -2923.925                          44.000          35.000
  23752803.260   127061492.398 7     -1438.861    23752803.260    98825591.623 6
     -1119.114                          42.000          38.000
 18  4  4  7 49  0.0000000  0 16G30G05G13G28G07G15G20G09G21R02R12R03
                                R13R11R01R19
  20593351.701   108218798.457 9     -1281.854    20593355.667    84326345.412 8
      -998.847                          54.000          48.000
  20636302.542   108444494.681 9      -713.762    20636303.793    84502203.698 8
      -556.176                          53.000          47.000
  21560303.715   113300171.002 8      2252.449    21560304.627    88285856.411 7
      1755.154                          50.000          39.000
  21909750.418   115136530.883 8      2051.514    21909751.883    89716793.043 6
      1598.582                          48.000          37.000
  22157601.986   116438977.997 9     -2478.899    22157602.397    90731660.022 7
     -1931.598                          52.000          39.000
  24141824.005   126866142.726 7      3277.444    24141826.543    98856753.783 4
      2553.838                          42.000          25.000
  24245356.642   127410214.186 6      3321.266
                                        37.000
  24466761.377   128573666.057 7     -3174.696    24466766.202   100187285.631 5
     -2473.804                          44.000          29.000
  25982303.940   136537940.655 6      1261.057
                                        34.000
  19126146.506   102060789.409 9      -384.435    19126147.793    79380679.664 8
      -299.008                          55.000          50.000
  19202966.204   102578815.018 9      -579.732
                                        52.000
  20970852.287   112258616.121 9      3204.486    20970852.930    87312258.801 8
      2492.379                          52.000          46.000
  21352568.086   114021542.577 8      3672.429    21352569.908    88683427.222 6
      2856.326                          45.000          38.000
  21761948.688   116289256.956 8     -3637.892    21761951.083    90447260.923 7
     -2829.473                          49.000          44.000
  22589897.860   120755936.690 7     -3768.296    22589902.202    93921288.213 6
     -2930.882                          43.000          34.000
  23760937.829   127105002.131 8     -1461.730    23760935.917    98859432.517 6
     -1136.894                          45.000          37.000
 18  4  4  7 49 30.0000000  0 16G30G05G13G28G07G15G20G09G21R02R12R03
                                R13R11R01R19
  20600708.824   108257460.032 9     -1295.585    20600712.630    84356471.305 8
     -1009.542                          54.000          48.000
  20640432.091   108466195.693 9      -732.983    20640433.360    84519113.566 8
      -571.150                          54.000          46.000
  21547466.538   113232711.050 8      2244.838    21547467.735    88233290.216 7
      1749.219                          50.000          39.000
  21898080.606   115075206.504 8      2036.758    21898082.321    89669007.831 6
      1587.076                          48.000          37.000
  22171775.356   116513459.325 9     -2486.549    22171775.856    90789697.420 7
     -1937.567                          51.000          39.000
  24123121.285   126767855.950 7      3274.930    24123123.251    98780166.689 4
      2551.887                          42.000          25.000
  24226417.604   127310693.829 6      3313.446
                                        34.000
  24484891.717   128668951.021 6     -3177.633    24484898.221   100261533.523 4
     -2476.076                          37.000          21.000
  25975144.770   136500308.555 6      1247.751
                                        34.000
  19128366.965   102072638.198 9      -405.509    19128368.305    79389895.374 8
      -315.407                          55.000          50.000
  19206290.593   102596573.643 9      -604.184
                                        52.000
  20952921.347   112162630.191 9      3194.576    20952921.598    87237603.087 8
      2484.675                          53.000          45.000
  21331974.216   113911574.519 7      3658.749    21331976.235    88597896.532 6
      2845.696                          44.000          38.000
  21782402.251   116398547.752 8     -3648.203    21782403.949    90532264.822 7
     -2837.486                          50.000          44.000
  22611072.098   120869118.657 7     -3777.151    22611075.564    94009318.546 6
     -2937.785                          43.000          35.000
  23769199.858   127149196.973 8     -1484.589    23769196.731    98893806.307 6
     -1154.686                          45.000          34.000
 18  4  4  7 50  0.0000000  0 17G30G05G13G28G07G15G20G09G21R02R12R03
                                R13R11R01R19R20
  20608143.946   108296531.232 9     -1309.116    20608147.520    84386916.392 8
     -1020.092                          53.000          48.000
  20644671.070   108488471.848 9      -752.065    20644672.339    84536471.595 8
      -586.026                          54.000          47.000
  21534672.746   113165479.415 8      2237.314    21534673.800    88180901.934 7
      1743.365                          50.000          39.000
  21886495.171   115014323.997 8      2022.115    21886496.743    89621566.939 6
      1575.660                          49.000          37.000
  22185991.450   116588167.694 8     -2493.977    22185992.468    90847911.722 7
     -1943.358                          50.000          39.000
  24104432.163   126669642.872 7      3272.547    24104433.932    98703637.048 4
      2550.048                          43.000          25.000
  24207525.633   127211410.675 6      3305.597
                                        35.000
  24503041.801   128764322.271 7     -3180.409    24503046.644   100335848.784 4
     -2478.239                          44.000          22.000
  25968061.150   136463078.671 6      1234.304
                                        34.000
  19130705.734   102085117.332 9      -426.344    19130706.824    79399601.353 8
      -331.601                          55.000          50.000
  19209752.127   102615063.061 9      -628.405
                                        53.000
  20935046.303   112066941.151 9      3184.746    20935046.213    87163178.269 8
      2477.033                          53.000          46.000
  21311457.968   113802017.362 7      3645.112    21311459.469    88512685.437 6
      2835.082                          44.000          38.000
  21802912.351   116508145.948 9     -3658.277    21802913.442    90617507.829 7
     -2845.329                          51.000          43.000
  22632293.117   120982564.514 7     -3785.848    22632298.371    94097554.154 6
     -2944.532                          41.000          35.000
  23777588.435   127194074.082 7     -1507.181    23777586.666    98928710.792 6
     -1172.241                          44.000          35.000
  24270433.439   129784922.197 6      1691.130    24270437.781   100943845.197 6
      1315.321                          35.000          35.000
 18  4  4  7 50 30.0000000  0 17G30G05G13G28G07G15G20G09G21R02R12R03
                                R13R11R01R19R20
  20615657.030   108336011.187 9     -1322.887    20615660.211    84417679.988 8
     -1030.821                          56.000          48.000
  20649019.657   108511323.569 9      -771.399    20649020.908    84554278.117 8
      -601.091                          55.000          47.000
  21521922.769   113098478.008 9      2229.472    21521923.788    88128693.050 7
      1737.256                          51.000          39.000
  21874994.328   114953886.092 8      2007.083    21874995.418    89574472.481 6
      1563.962                          49.000          37.000
  22200250.430   116663102.212 8     -2501.666    22200252.235    90906302.214 6
     -1949.352                          49.000          38.000
  24085757.158   126571505.711 7      3269.915    24085759.481    98627166.545 4
      2547.995                          43.000          26.000
  24188678.906   127112367.924 7      3297.284
                                        41.000
  24521205.735   128859779.963 7     -3183.428    24521213.597   100410231.312 5
     -2480.584                          41.000          27.000
  25961052.508   136426252.678 6      1220.722
                                        34.000
  19133162.796   102098228.150 9      -447.643    19133163.868    79409798.642 8
      -348.167                          55.000          50.000
  19213349.768   102634281.659 9      -652.841
                                        53.000
  20917227.420   111971553.059 9      3174.467    20917227.224    87088987.529 8
      2469.025                          53.000          47.000
  21291018.844   113692873.911 7      3631.085    21291020.416    88427796.100 6
      2824.168                          44.000          38.000
  21823478.793   116618048.530 8     -3668.506    21823479.740    90702987.624 7
     -2853.283                          50.000          41.000
  22653566.314   121096272.672 7     -3794.731    22653569.924    94185993.782 6
     -2951.440                          44.000          34.000
  23786103.935   127239631.816 7     -1530.056    23786104.454    98964144.578 6
     -1190.031                          42.000          38.000
  24261008.047   129734524.523 6      1668.732    24261012.408   100904646.990 6
      1297.891                          36.000          35.000
 18  4  4  7 51  0.0000000  0 17G30G05G13G28G07G15G20G09G21R02R12R03
                                R13R11R01R19R20
  20623247.309   108375897.284 9     -1336.299    20623250.328    84448760.064 8
     -1041.272                          55.000          48.000
  20653477.443   108534749.312 9      -790.414    20653478.658    84572531.929 8
      -615.912                          52.000          47.000
  21509216.625   113031706.544 8      2221.807    21509217.751    88076663.345 7
      1731.280                          49.000          39.000
  21863577.917   114893893.738 8      1992.278    21863578.935    89527725.202 6
      1552.425                          47.000          37.000
  22214552.510   116738260.070 8     -2508.999    22214554.100    90964866.732 6
     -1955.066                          48.000          37.000
  24067096.251   126473444.914 7      3267.391    24067098.467    98550755.568 4
      2545.979                          42.000          25.000
  24169877.889   127013566.906 7      3289.326
                                        41.000
  24539387.072   128955322.496 7     -3186.221    24539392.129   100484679.847 4
     -2482.745                          41.000          25.000
  25954121.900   136389830.480 6      1207.426
                                        35.000
  19135738.133   102111970.691 9      -468.667    19135739.187    79420487.271 8
      -364.516                          55.000          50.000
  19217083.590   102654227.258 9      -676.991
                                        52.000
  20899464.575   111876467.696 9      3164.439    20899464.521    87015032.242 8
      2461.227                          53.000          47.000
  21270657.074   113584145.959 8      3617.298    21270659.469    88343229.943 6
      2813.448                          45.000          38.000
  21844100.575   116728250.936 8     -3678.351    21844102.111    90788700.598 7
     -2860.936                          48.000          41.000
  22674885.202   121210240.558 7     -3803.271    22674889.687    94274635.413 6
     -2958.088                          42.000          35.000
  23794744.126   127285866.731 6     -1552.462    23794747.557    99000105.001 7
     -1207.475                          37.000          39.000
  24251709.544   129684793.333 6      1646.610    24251712.528   100865967.178 6
      1280.673                          36.000          34.000
 18  4  4  7 51 30.0000000  0 17G30G05G13G28G07G15G20G09G21R02R12R03
                                R13R11R01R19R20
  20630914.352   108416188.226 9     -1349.713    20630917.551    84480155.606 8
     -1051.729                          55.000          48.000
  20658044.282   108558748.965 9      -809.495    20658045.694    84591232.944 8
      -630.776                          54.000          47.000
  21496554.421   112965166.802 8      2214.143    21496555.779    88024814.202 7
      1725.301                          50.000          39.000
  21852246.812   114834349.378 8      1977.358    21852248.116    89481327.024 6
      1540.808                          48.000          36.000
  22228897.226   116813639.841 8     -2516.295    22228897.976    91023604.169 6
     -1960.754                          49.000          37.000
  24048450.659   126375461.483 7      3264.807    24048453.053    98474404.859 4
      2543.994                          42.000          26.000
  24151123.045   126915010.392 7      3281.118
                                        39.000
  24557585.779   129050949.098 7     -3188.909    24557590.175   100559194.153 4
     -2484.861                          43.000          23.000
  25947267.825   136353813.333 6      1193.901
                                        35.000
  19138431.745   102126345.827 9      -489.720    19138432.996    79431667.925 8
      -380.893                          55.000          50.000
  19220953.163   102674898.003 9      -701.026
                                        52.000
  20881758.642   111781688.343 9      3154.206    20881759.089    86941314.983 8
      2453.272                          52.000          47.000
  21250374.893   113475836.380 7      3603.348    21250376.501    88258989.183 6
      2802.584                          44.000          38.000
  21864779.323   116838749.569 8     -3688.148    21864780.895    90874643.935 7
     -2868.559                          49.000          42.000
  22696254.338   121324466.157 7     -3811.761    22696258.358    94363477.502 6
     -2964.704                          43.000          34.000
  23803515.672   127332776.311 6     -1574.808    23803517.227    99036590.102 7
     -1224.853                          37.000          39.000
  24242534.873   129635731.159 6      1624.277    24242538.161   100827807.702 6
      1263.320                          37.000          35.000
 18  4  4  7 52  0.0000000  0 17G30G05G13G28G07G15G20G09G21R02R12R03
                                R13R11R01R19R20
  20638658.126   108456882.473 9     -1363.180    20638661.592    84511865.408 8
     -1062.218                          55.000          48.000
  20662720.588   108583321.767 9      -828.628    20662721.731    84610380.570 8
      -645.690                          53.000          47.000
  21483936.532   112898859.839 8      2206.347    21483937.837    87973146.434 7
      1719.242                          50.000          39.000
  21841001.603   114775255.100 8      1962.283    21841002.801    89435279.549 6
      1529.048                          46.000          36.000
  22243284.058   116889239.819 9     -2523.659    22243284.344    91082513.247 6
     -1966.488                          51.000          38.000
  24029819.986   126277556.549 7      3262.216    24029821.255    98398115.320 4
      2541.990                          42.000          26.000
  24132413.695   126816700.950 6      3272.874
                                        36.000
  24575797.172   129146659.346 7     -3191.672    24575803.945   100633773.458 4
     -2487.046                          39.000          26.000
  25940491.570   136318202.396 6      1180.222
                                        36.000
  19141244.419   102141354.297 9      -510.806    19141245.670    79443341.169 8
      -397.297                          55.000          50.000
  19224958.183   102696291.837 9      -725.142
                                        52.000
  20864110.320   111687218.437 9      3143.759    20864111.070    86867838.413 8
      2445.146                          52.000          47.000
  21230170.175   113367948.150 7      3589.233    21230172.301    88175076.131 6
      2791.626                          44.000          38.000
  21885513.518   116949541.021 8     -3697.851    21885514.412    90960815.019 7
     -2876.117                          50.000          44.000
  22717669.879   121438947.450 7     -3820.289    22717673.721    94452518.465 6
     -2971.347                          42.000          35.000
  23812411.229   127380357.806 7     -1597.203    23812411.980    99073597.896 6
     -1242.248                          41.000          37.000
  24233484.088   129587340.546 6      1601.817    24233488.609   100790170.591 6
      1245.830                          36.000          35.000
 18  4  4  7 52 30.0000000  0 17G30G05G13G28G07G15G20G09G21R02R12R03
                                R13R11R01R19R20
  20646478.146   108497978.640 9     -1376.493    20646482.131    84543888.393 8
     -1072.596                          53.000          48.000
  20667505.323   108608467.698 9      -847.692    20667506.877    84629974.786 8
      -660.539                          53.000          47.000
  21471363.370   112832786.522 8      2198.593    21471364.620    87921660.732 7
      1713.188                          50.000          40.000
  21829842.256   114716613.048 8      1947.240    21829843.739    89389584.464 6
      1517.334                          48.000          37.000
  22257711.740   116965058.703 9     -2530.872    22257712.651    91141592.911 6
     -1972.119                          52.000          38.000
  24011204.342   126179731.042 7      3259.516    24011205.825    98321887.682 4
      2539.863                          44.000          26.000
  24113753.611   126718641.367 6      3264.477
                                        35.000
  24594027.739   129242452.804 7     -3194.463    24594032.278   100708417.571 4
     -2489.196                          42.000          22.000
  25933792.295   136282998.661 6      1166.699
                                        36.000
  19144175.618   102156997.348 9      -532.005    19144177.190    79455507.974 8
      -413.784                          55.000          50.000
  19229098.114   102718406.892 9      -749.129
                                        53.000
  20846520.983   111593061.474 9      3133.379    20846521.412    86794605.235 8
      2437.071                          53.000          47.000
  21210045.616   113260484.012 7      3575.048    21210047.904    88091492.932 7
      2780.597                          44.000          39.000
  21906300.088   117060621.761 8     -3707.455    21906301.982    91047211.132 7
     -2883.580                          50.000          43.000
  22739134.150   121553682.846 7     -3828.701    22739138.689    94541757.033 6
     -2977.870                          43.000          35.000
  23821431.190   127428608.928 7     -1619.467    23821430.333    99111126.579 6
     -1259.587                          41.000          34.000
  24224562.442   129539624.162 6      1579.319    24224565.426   100753057.846 6
      1228.345                          36.000          34.000
 18  4  4  7 53  0.0000000  0 18G30G05G13G28G07G15G20G09G08G21R02R12
                                R03R13R11R01R19R20
  20654374.110   108539475.282 9     -1389.808    20654378.810    84576223.432 8
     -1082.972                          52.000          47.000
  20672399.487   108634186.242 9      -866.761    20672400.917    84650015.197 8
      -675.390                          52.000          46.000
  21458834.808   112766948.327 8      2190.732    21458835.987    87870358.250 7
      1707.064                          50.000          40.000
  21818769.644   114658425.172 8      1932.056    21818770.966    89344243.282 6
      1505.504                          49.000          37.000
  22272180.288   117041094.757 9     -2538.085    22272182.271    91200841.776 6
     -1977.730                          51.000          37.000
  23992604.690   126081987.652 7      3256.784    23992606.102    98245724.022 5
      2537.749                          43.000          27.000
  24095143.238   126620834.455 7      3256.046
                                        39.000
  24612271.333   129338328.638 7     -3197.180    24612277.408   100783126.093 4
     -2491.283                          42.000          25.000
  25241889.341   132647030.254 7      1396.130
                                        39.000
  25927169.981   136248203.239 6      1153.140
                                        35.000
  19147226.325   102173275.353 9      -553.113    19147227.683    79468168.629 8
      -430.199                          55.000          50.000
  19233373.027   102741241.568 9      -773.046
                                        52.000
  20828990.935   111499220.411 9      3122.836    20828991.025    86721617.747 8
      2428.872                          53.000          46.000
  21190000.950   113153446.746 8      3560.856    21190003.363    88008241.743 7
      2769.551                          45.000          39.000
  21927140.086   117171988.388 8     -3716.870    21927142.445    91133829.585 7
     -2890.899                          48.000          42.000
  22760643.361   121668670.201 7     -3837.039    22760648.311    94631191.616 6
     -2984.366                          41.000          34.000
  23830574.823   127477527.067 7     -1641.630    23830574.841    99149174.083 6
     -1276.831                          40.000          33.000
  24215764.914   129492584.371 6      1556.785    24215769.632   100716471.369 6
      1210.824                          37.000          36.000
 18  4  4  7 53 30.0000000  0 18G30G05G13G28G07G15G20G09G08G21R02R12
                                R03R13R11R01R19R20
  20662346.303   108581370.734 9     -1403.206    20662351.128    84608869.221 8
     -1093.410                          54.000          47.000
  20677402.724   108660476.735 9      -885.925    20677403.868    84670501.281 8
      -690.331                          54.000          46.000
  21446350.901   112701345.822 8      2182.760    21446352.170    87819239.417 7
      1700.851                          48.000          40.000
  21807783.805   114600693.758 8      1916.683    21807785.216    89299257.786 6
      1493.539                          47.000          37.000
  22286689.255   117117346.361 8     -2545.374    22286692.454    91260258.598 6
     -1983.414                          48.000          36.000
  23974019.942   125984326.541 7      3253.947    23974022.622    98169624.464 5
      2535.545                          43.000          27.000
  24076580.503   126523282.876 7      3247.379
                                        43.000
  24630531.741   129434286.460 7     -3199.985    24630537.709   100857898.189 4
     -2493.512                          41.000          22.000
  25233961.141   132605366.518 6      1381.422
                                        37.000
  25920626.845   136213816.859 6      1139.279
                                        34.000
  19150395.825   102190189.230 9      -574.462    19150397.326    79481323.850 8
      -446.802                          55.000          50.000
  19237781.851   102764793.406 9      -797.093
                                        53.000
  20811520.320   111405698.756 9      3111.967    20811520.374    86648878.680 8
      2420.419                          53.000          46.000
  21170037.035   113046838.632 8      3546.370    21170038.965    87925324.331 7
      2758.300                          46.000          39.000
  21948033.602   117283637.047 8     -3726.330    21948035.675    91220667.387 7
     -2898.253                          47.000          41.000
  22782202.319   121783907.485 7     -3845.460    22782206.608    94720820.554 6
     -2990.917                          43.000          35.000
  23839844.540   127527109.361 6     -1663.841    23839844.718    99187738.031 6
     -1294.097                          38.000          35.000
  24207094.989   129446223.703 6      1533.964    24207099.492   100680413.063 6
      1193.083                          37.000          36.000
 18  4  4  7 54  0.0000000  0 18G30G05G13G28G07G15G20G09G08G21R02R12
                                R03R13R11R01R19R20
  20670394.315   108623663.334 9     -1416.279    20670399.282    84641824.477 8
     -1103.600                          53.000          47.000
  20682514.069   108687338.068 9      -904.805    20682515.463    84691432.176 8
      -705.045                          55.000          46.000
  21433912.328   112635980.197 9      2174.943    21433913.400    87768305.170 7
      1694.756                          51.000          40.000
  21796885.023   114543420.456 8      1901.524    21796886.113    89254629.266 6
      1481.706                          49.000          37.000
  22301240.662   117193811.898 8     -2552.295    22301243.289    91319842.065 6
     -1988.787                          47.000          36.000
  23955451.740   125886748.736 7      3251.259    23955454.313    98093589.839 5
      2533.422                          43.000          27.000
  24058066.194   126425989.014 7      3238.867
                                        43.000
  24648807.641   129530325.032 7     -3202.575    24648810.840   100932733.394 5
     -2495.508                          43.000          27.000
  25226115.926   132564142.052 6      1366.873
                                        38.000
  25914162.333   136179840.486 6      1125.734
                                        36.000
  19153684.797   102207739.426 9      -595.560    19153686.173    79494973.993 8
      -463.218                          55.000          50.000
  19242324.675   102789060.496 9      -820.716
                                        53.000
  20794109.888   111312499.543 9      3101.315    20794110.281    86576390.400 8
      2412.134                          53.000          46.000
  21150153.673   112940662.415 8      3532.044    21150155.924    87842742.844 7
      2747.138                          45.000          39.000
  21968980.511   117395564.265 8     -3735.396    21968981.083    91307721.894 7
     -2905.310                          50.000          42.000
  22803805.646   121899392.610 7     -3853.516    22803810.810    94810642.242 6
     -2997.172                          42.000          34.000
  23849238.428   127577352.978 7     -1685.681    23849237.928    99226816.347 6
     -1311.106                          43.000          37.000
  24198552.185   129400544.300 6      1511.347    24198556.616   100644884.699 6
      1175.480                          35.000          35.000
 18  4  4  7 54 30.0000000  0 18G30G05G13G28G07G15G20G09G08G21R02R12
                                R03R13R11R01R19R20
  20678518.091   108666351.313 9     -1429.587    20678522.397    84675087.824 8
     -1113.964                          53.000          48.000
  20687734.182   108714770.202 9      -923.973    20687735.630    84712807.851 8
      -719.975                          54.000          46.000
  21421518.784   112570852.717 8      2166.852    21421520.035    87717556.489 7
      1688.456                          50.000          40.000
  21786073.478   114486607.336 8      1886.008    21786074.997    89210359.319 6
      1469.618                          48.000          37.000
  22315833.078   117270489.203 8     -2559.479    22315834.114    91379590.571 6
     -1994.400                          50.000          37.000
  23936899.209   125789255.652 7      3248.255    23936901.996    98017621.224 5
      2531.118                          43.000          27.000
  24039601.025   126328955.230 7      3230.016
                                        40.000
  24667096.747   129626443.946 6     -3205.426    24667104.377   101007631.322 4
     -2497.697                          37.000          24.000
  25218355.320   132523358.979 7      1352.034
                                        39.000
  25907774.104   136146274.821 6      1111.911
                                        36.000
  19157092.902   102225926.664 9      -616.979    19157094.546    79509119.613 8
      -479.872                          55.000          50.000
  19247001.106   102814040.594 9      -844.629
                                        53.000
  20776760.228   111219625.611 9      3090.291    20776760.782    86504155.120 8
      2403.561                          53.000          47.000
  21130351.418   112834920.395 8      3517.399    21130353.276    87760499.067 7
      2735.752                          45.000          39.000
  21989977.006   117507766.039 8     -3744.694    21989978.632    91394989.915 7
     -2912.536                          50.000          43.000
  22825456.666   122015123.378 7     -3861.812    22825460.400    94900655.031 6
     -3003.638                          44.000          33.000
  23858753.415   127628254.542 8     -1707.733    23858752.879    99266406.457 6
     -1328.211                          45.000          36.000
  24190138.019   129355548.423 6      1488.328    24190141.861   100609887.906 6
      1157.574                          36.000          34.000
 18  4  4  7 55  0.0000000  0 18G30G05G13G28G07G15G20G09G08G21R02R12
                                R03R13R11R01R19R20
  20686716.774   108709433.030 9     -1442.626    20686720.455    84708657.979 8
     -1124.128                          54.000          48.000
  20693063.154   108742772.085 9      -942.904    20693064.190    84734627.486 8
      -734.729                          53.000          46.000
  21409171.039   112505964.116 8      2158.906    21409172.111    87666993.943 7
      1682.274                          50.000          40.000
  21775350.402   114430256.134 8      1870.630    21775351.421    89166449.307 6
      1457.637                          48.000          37.000
  22330464.556   117347376.579 8     -2566.430    22330464.413    91439502.803 6
     -1999.811                          50.000          37.000
  23918363.153   125691848.274 7      3245.450    23918365.637    97941719.394 5
      2528.919                          42.000          27.000
  24021184.549   126232184.111 6      3221.325
                                        35.000
  24685405.187   129722642.223 7     -3207.949    24685411.066   101082590.776 5
     -2499.694                          44.000          31.000
  25210679.663   132483019.158 6      1337.196    25210685.667   103233543.057 3
      1041.974                          38.000          20.000
  25901465.749   136113120.980 6      1098.222
                                        38.000
  19160620.569   102244751.223 9      -638.072    19160622.392    79523760.919 8
      -496.275                          54.000          50.000
  19251810.267   102839731.901 9      -868.233
                                        52.000
  20759472.091   111127080.350 9      3079.334    20759472.574    86432175.489 8
      2395.035                          53.000          48.000
  21110631.396   112729615.310 8      3502.796    21110633.130    87678595.134 7
      2724.384                          45.000          39.000
  22011024.571   117620238.819 8     -3753.580    22011026.608    91482468.717 7
     -2919.443                          49.000          43.000
  22847150.768   122131097.752 7     -3869.876    22847155.985    94990857.215 6
     -3009.898                          41.000          35.000
  23868391.769   127679811.803 8     -1729.491    23868391.179    99306506.539 6
     -1345.157                          45.000          35.000
  24181852.189   129311238.395 6      1465.449    24181855.656   100575424.573 6
      1139.770                          37.000          35.000
 18  4  4  7 55 30.0000000  0 18G30G05G13G28G07G15G20G09G08G21R02R12
                                R03R13R11R01R19R20
  20694989.953   108752907.394 9     -1455.737    20694993.223    84742534.107 8
     -1134.341                          55.000          48.000
  20698499.875   108771343.838 9      -961.937    20698501.323    84756891.176 8
      -749.558                          54.000          46.000
  21396868.771   112441316.072 8      2150.858    21396869.932    87616618.844 7
      1675.997                          50.000          40.000
  21764715.635   114374369.250 8      1855.085    21764716.707    89122901.111 6
      1445.507                          49.000          37.000
  22345135.524   117424472.993 8     -2573.414    22345135.470    91499577.944 6
     -2005.253                          50.000          37.000
  23899843.590   125594527.870 7      3242.486    23899846.020    97865885.334 5
      2526.602                          42.000          27.000
  24002820.214   126135678.609 6      3212.316
                                        37.000
  24703724.420   129818919.624 6     -3210.584    24703733.426   101157611.993 4
     -2501.759                          38.000          25.000
  25203086.758   132443125.361 6      1322.255    25203093.387   103202457.023 3
      1030.325                          37.000          19.000
  25895235.053   136080379.807 6      1084.412
                                        37.000
  19164268.155   102264214.671 9      -659.531    19164269.763    79538899.142 8
      -512.970                          55.000          50.000
  19256752.106   102866132.341 9      -891.874
                                        52.000
  20742245.978   111034867.252 9      3068.112    20742246.246    86360454.200 8
      2386.311                          54.000          47.000
  21090993.966   112624749.940 8      3488.078    21090995.181    87597033.188 7
      2712.952                          45.000          39.000
  22032122.133   117732979.726 8     -3762.526    22032124.724    91570156.008 7
     -2926.397                          48.000          42.000
  22868892.544   122247314.269 7     -3877.952    22868896.279    95081247.821 6
     -3016.175                          43.000          33.000
  23878152.187   127732022.231 7     -1751.294    23878150.328    99347114.676 6
     -1362.122                          44.000          33.000
  24173694.784   129267616.836 6      1442.477    24173698.554   100541496.739 6
      1121.934                          37.000          35.000
 18  4  4  7 56  0.0000000  0 18G30G05G13G28G07G15G20G09G08G21R02R12
                                R03R13R11R01R19R20
  20703337.449   108796772.415 9     -1468.600    20703340.308    84776714.643 8
     -1144.361                          54.000          48.000
  20704045.152   108800484.319 9      -980.760    20704046.492    84779598.033 8
      -764.225                          53.000          46.000
  21384612.712   112376908.888 9      2142.951    21384613.659    87566431.439 7
      1669.828                          51.000          40.000
  21754169.123   114318948.133 8      1839.653    21754170.464    89079715.846 6
      1433.502                          49.000          37.000
  22359845.607   117501776.479 8     -2580.165    22359846.125    91559814.425 6
     -2010.517                          50.000          36.000
  23881340.985   125497295.861 7      3239.609    23881342.683    97790120.155 5
      2524.374                          44.000          27.000
  23984507.593   126039441.469 7      3203.468
                                        41.000
  24722062.166   129915275.574 7     -3213.139
                                        43.000
  25195581.482   132403679.047 6      1307.466    25195587.415   103171719.729 3
      1018.762                          38.000          18.000
  25889082.463   136048052.095 6      1070.789    25889083.946   106011483.490 3
       834.384                          37.000          16.000
  19168035.284   102284316.656 9      -680.601    19168036.803    79554534.005 8
      -529.356                          55.000          50.000
  19261826.730   102893239.542 9      -915.288
                                        52.000
  20725082.978   110942989.733 9      3057.012    20725082.781    86288993.909 8
      2377.680                          54.000          47.000
  21071438.321   112520326.678 8      3473.458    21071440.090    87515815.105 7
      2701.588                          45.000          39.000
  22053269.782   117845984.552 8     -3771.136    22053272.034    91658048.599 7
     -2933.110                          48.000          41.000
  22890676.741   122363770.360 7     -3885.811    22890681.977    95171824.707 6
     -3022.302                          41.000          34.000
  23888031.934   127784882.605 7     -1772.805    23888031.344    99388228.358 5
     -1378.871                          42.000          30.000
  24165666.196   129224685.525 6      1419.559    24165669.823   100508105.749 6
      1104.115                          38.000          35.000
 18  4  4  7 56 30.0000000  0 18G05G30G13G28G07G15G20G09G08G21R02R12
                                R03R13R11R01R19R20
  20709698.624   108830192.827 9      -999.771    20709699.786    84802747.505 8
      -779.040                          55.000          46.000
  20711758.405   108841026.673 9     -1481.651    20711761.621    84811198.485 8
     -1154.532                          55.000          47.000
  21372402.540   112312744.136 8      2134.731    21372403.309    87516432.936 7
      1663.423                          50.000          40.000
  21743711.850   114263994.897 8      1823.914    21743713.225    89036895.165 6
      1421.227                          48.000          37.000
  22374594.377   117579285.594 8     -2587.080    22374596.343    91620211.113 6
     -2015.904                          49.000          36.000
  23862855.356   125400153.566 7      3236.557    23862857.661    97714424.881 5
      2521.998                          43.000          27.000
  23966246.309   125943475.371 7      3194.286
                                        43.000
  24740412.116   130011708.827 7     -3215.778
                                        40.000
  25188159.851   132364682.237 6      1292.372    25188167.160   103141332.614 3
      1007.035                          38.000          19.000
  25883011.480   136016138.947 6      1056.849    25883011.194   105986616.086 3
       823.555                          38.000          16.000
  19171922.226   102305058.266 9      -702.105    19171923.887    79570666.362 8
      -546.085                          55.000          50.000
  19267032.727   102921051.301 9      -938.805
                                        52.000
  20707982.716   110851450.623 9      3045.632    20707982.198    86217796.826 8
      2368.822                          53.000          47.000
  21051966.715   112416348.036 8      3458.483    21051967.626    87434942.847 7
      2689.936                          45.000          39.000
  22074466.714   117959249.899 8     -3779.861    22074467.393    91746143.875 7
     -2939.890                          50.000          40.000
  22912508.363   122480463.980 7     -3893.739    22912512.008    95262586.327 6
     -3028.469                          42.000          35.000
  23898035.888   127838390.353 7     -1794.341    23898036.067    99429845.481 6
     -1395.596                          44.000          37.000
  24157767.033   129182447.098 6      1396.365    24157771.197   100475253.627 6
      1086.043                          37.000          36.000
 18  4  4  7 57  0.0000000  0 18G05G30G13G28G07G15G20G09G08G21R02R12
                                R03R13R11R01R19R20
  20715459.919   108860468.336 9     -1018.634    20715461.206    84826338.791 8
      -793.739                          55.000          46.000
  20720253.267   108885668.220 9     -1494.497    20720256.590    84845984.094 8
     -1164.534                          55.000          47.000
  21360238.668   112248822.547 8      2126.649    21360239.704    87466623.901 7
      1657.126                          50.000          40.000
  21733343.831   114209511.304 8      1808.267    21733345.547    88994440.435 6
      1409.043                          47.000          38.000
  22389382.191   117656998.295 8     -2593.824    22389385.104    91680766.412 6
     -2021.165                          48.000          37.000
  23844387.095   125303101.641 7      3233.536    23844389.204    97638800.015 5
      2519.639                          44.000          27.000
  23948036.560   125847782.360 7      3185.188
                                        42.000
  24758775.735   130108219.021 6     -3218.337
                                        34.000
  25180825.779   132326136.523 6      1277.291    25180831.193   103111297.081 3
       995.299                          38.000          19.000
  25877015.708   135984640.736 6      1042.998    25877017.763   105962072.019 3
       812.683                          38.000          18.000
  19175929.068   102326439.509 9      -723.422    19175930.694    79587296.204 8
      -562.666                          55.000          50.000
  19272371.044   102949565.404 9      -962.142
                                        52.000
  20690945.478   110760253.284 9      3034.146    20690945.710    86146865.555 8
      2359.887                          53.000          47.000
  21032577.842   112312816.033 8      3443.580    21032580.112    87354417.983 7
      2678.313                          46.000          39.000
  22095710.588   118072771.961 8     -3788.333    22095711.696    91834438.819 7
     -2946.476                          49.000          41.000
  22934382.174   122597392.968 7     -3901.553    22934385.176    95353531.091 6
     -3034.537                          43.000          33.000
  23908159.887   127892541.629 7     -1815.764    23908159.047    99471963.120 6
     -1412.269                          44.000          37.000
  24149998.333   129140902.853 6      1373.180    24150002.425   100442941.537 6
      1068.035                          36.000          36.000
 18  4  4  7 57 30.0000000  0 18G05G30G13G28G07G15G20G09G08G21R02R12
                                R03R13R11R01R19R20
  20721328.803   108891310.653 9     -1037.498    20721330.197    84850371.759 8
      -808.439                          53.000          46.000
  20728821.142   108930695.937 9     -1507.347    20728825.162    84881070.618 8
     -1174.551                          53.000          47.000
  21348121.254   112185145.647 8      2118.482    21348122.255    87417005.540 7
      1650.769                          50.000          40.000
  21723065.980   114155499.538 8      1792.509    21723067.446    88952353.375 6
      1396.771                          49.000          38.000
  22404209.710   117734913.626 8     -2600.516    22404211.943    91741479.615 6
     -2026.368                          49.000          37.000
  23825936.221   125206142.086 8      3230.446    23825938.348    97563247.148 5
      2517.247                          45.000          28.000
  23929878.773   125752365.439 7      3175.955
                                        39.000
  24777157.671   130204805.407 7     -3220.798
                                        44.000
  25173576.245   132288045.002 7      1262.133    25173582.910   103081615.393 3
       983.454                          39.000          20.000
  25871103.152   135953558.715 6      1029.083    25871103.527   105937852.226 3
       801.910                          38.000          18.000
  19180055.955   102348461.433 9      -744.741    19180057.706    79604424.348 8
      -579.239                          55.000          50.000
  19277840.162   102978779.945 9      -985.465
                                        52.000
  20673973.319   110669401.337 9      3022.650    20673973.855    86076202.923 8
      2350.952                          53.000          46.000
  21013274.080   112209733.947 8      3428.596    21013275.849    87274243.029 7
      2666.686                          46.000          39.000
  22117001.189   118186547.827 8     -3796.744    22117003.959    91922931.111 7
     -2953.016                          47.000          42.000
  22956299.495   122714555.627 7     -3909.260    22956303.569    95444657.525 6
     -3040.539                          42.000          34.000
  23918402.804   127947334.215 7     -1837.089    23918402.643    99514579.571 6
     -1428.847                          43.000          38.000
  24142359.522   129100056.075 6      1349.912    24142363.828   100411171.840 6
      1049.919                          36.000          35.000
 18  4  4  7 58  0.0000000  0 18G05G30G13G28G07G15G20G09G08G21R02R12
                                R03R13R11R01R19R20
  20727305.759   108922718.830 9     -1056.403    20727307.010    84874845.647 8
      -823.175                          54.000          46.000
  20737462.512   108976108.079 9     -1520.154    20737466.961    84916456.689 8
     -1184.538                          54.000          47.000
  21336050.676   112121714.537 8      2110.234    21336051.659    87367578.705 7
      1644.328                          50.000          40.000
  21712877.993   114101961.337 8      1776.671    21712879.637    88910635.319 6
      1384.424                          48.000          38.000
  22419075.021   117813029.638 8     -2607.234    22419076.558    91802349.203 6
     -2031.602                          50.000          37.000
  23807503.234   125109275.912 7      3227.301    23807505.235    97487767.037 5
      2514.766                          44.000          28.000
  23911772.378   125657227.111 6      3166.584
                                        36.000
  24795551.239   130301467.394 7     -3223.373
                                        40.000
  25166414.287   132250408.953 7      1246.922    25166421.292   103052288.590 3
       971.647                          40.000          18.000
  25865265.592   135922893.679 6      1015.307    25865268.076   105913957.482 3
       791.110                          35.000          17.000
  19184303.010   102371124.420 9      -766.125    19184304.547    79622051.097 8
      -595.876                          55.000          50.000
  19283440.100   103008692.812 9     -1008.753
                                        52.000
  20657066.489   110578897.799 9      3010.901    20657067.526    86005811.296 8
      2341.814                          53.000          47.000
  20994054.552   112107104.117 8      3413.393    20994056.696    87194419.836 7
      2654.861                          46.000          39.000
  22138340.484   118300573.670 8     -3805.010    22138342.503    92011617.790 7
     -2959.454                          48.000          42.000
  22978260.149   122831949.837 7     -3917.016    22978264.116    95535964.081 6
     -3046.581                          41.000          33.000
  23928761.173   128002765.204 6     -1858.281    23928764.264    99557692.542 6
     -1445.321                          38.000          37.000
  24134851.137   129059908.002 6      1326.564    24134855.712   100379945.658 6
      1031.775                          35.000          35.000
 18  4  4  7 58 30.0000000  0 18G05G30G13G28G07G15G20G09G08G21R02R12
                                R03R13R11R01R19R20
  20733390.143   108954692.357 9     -1075.085    20733391.466    84899760.070 8
      -837.730                          55.000          46.000
  20746176.859   109021903.098 9     -1532.739    20746181.648    84952141.099 8
     -1194.348                          52.000          47.000
  21324027.110   112058530.037 9      2102.132    21324028.201    87318344.032 7
      1638.027                          52.000          41.000
  21702780.529   114048898.704 8      1760.930    21702781.870    88869287.840 6
      1372.145                          49.000          38.000
  22433977.393   117891344.646 8     -2613.682    22433978.733    91863373.864 6
     -2036.644                          49.000          36.000
  23789088.205   125012504.338 7      3224.253    23789090.492    97412360.631 5
      2512.380                          44.000          28.000
  23893723.200   125562370.189 7      3157.349
                                        40.000
  24813959.817   130398204.570 7     -3225.707
                                        41.000
  25159340.155   132213230.621 7      1231.755    25159346.391   103023318.521 3
       959.809                          40.000          19.000
  25859511.320   135892646.547 6      1001.383    25859511.285   105890388.238 3
       780.297                          36.000          16.000
  19188670.450   102394429.094 9      -787.418    19188671.879    79640176.934 8
      -612.433                          55.000          50.000
  19289170.356   103039301.491 9     -1031.741
                                        52.000
  20640225.739   110488746.119 9      2999.256    20640226.275    85935693.327 8
      2332.761                          54.000          48.000
  20974920.706   112004929.416 8      3398.318    20974922.707    87114950.639 7
      2643.129                          46.000          39.000
  22159725.612   118414846.072 8     -3812.993    22159726.667    92100496.281 7
     -2965.667                          50.000          41.000
  23000265.315   122949573.456 7     -3924.451    23000268.603    95627449.074 6
     -3052.361                          42.000          33.000
  23939244.339   128058831.789 5     -1879.272    23939245.108    99601299.702 6
     -1461.659                          32.000          36.000
  24127476.020   129020461.399 6      1303.249    24127478.468   100349264.972 6
      1013.629                          37.000          36.000
 18  4  4  7 59  0.0000000  0 18G05G30G13G28G07G15G20G09G08G21R02R12
                                R03R13R11R01R19R20
  20739581.814   108987230.237 9     -1093.995    20739583.172    84925114.251 8
      -852.469                          53.000          46.000
  20754964.326   109068079.121 9     -1545.536    20754968.829    84988122.393 8
     -1204.315                          53.000          47.000
  21312050.898   111995593.742 9      2093.745    21312051.827    87269302.766 7
      1631.500                          51.000          41.000
  21692773.787   113996313.182 8      1744.867    21692775.270    88828312.134 6
      1359.636                          48.000          38.000
  22448917.719   117969857.087 8     -2620.364    22448918.756    91924552.344 6
     -2041.836                          48.000          34.000
  23770691.367   124915828.312 8      3220.931    23770692.761    97337028.666 5
      2509.813                          45.000          28.000
  23875727.414   125467797.239 7      3147.660
                                        42.000
  24832382.976   130495015.677 7     -3228.269
                                        43.000
  25152350.812   132176511.659 6      1216.333    25152358.656   102994706.391 3
       947.754                          38.000          20.000
  25853835.422   135862817.359 6       987.292    25853836.351   105867144.742 3
       769.284                          36.000          16.000
  19193157.880   102418375.347 9      -808.881    19193159.381    79658801.786 8
      -629.131                          55.000          50.000
  19295029.769   103070603.457 9     -1054.952
                                        52.000
  20623451.301   110398949.182 9      2987.283    20623451.516    85865851.277 8
      2323.444                          54.000          48.000
  20955872.685   111903211.681 8      3382.920    20955874.239    87035836.860 7
      2631.154                          46.000          39.000
  22181155.538   118529361.258 8     -3821.168    22181156.021    92189563.671 7
     -2972.029                          50.000          40.000
  23022310.900   123067424.392 7     -3932.138    23022315.528    95719110.846 6
     -3058.316                          42.000          34.000
  23949844.154   128115529.894 7     -1900.458    23949843.582    99645398.279 6
     -1478.115                          40.000          35.000
  24120229.577   128981717.654 6      1279.676    24120232.775   100319130.992 6
       995.301                          37.000          35.000
 18  4  4  7 59 30.0000000  0 18G05G30G13G28G07G15G20G09G08G21R02R12
                                R03R13R11R01R19R20
  20745880.716   109020331.185 9     -1112.769    20745882.038    84950907.183 8
      -867.094                          52.000          46.000
  20763824.127   109114634.295 9     -1558.160    20763828.059    85024399.133 8
     -1214.145                          53.000          47.000
  21300121.717   111932905.913 8      2085.413    21300122.628    87220455.113 7
      1625.004                          50.000          41.000
  21682858.177   113944206.376 8      1728.888    21682859.374    88787709.448 6
      1347.189                          49.000          38.000
  22463895.999   118048564.969 8     -2626.854    22463896.678    91985883.147 6
     -2046.900                          50.000          35.000
  23752312.720   124819248.778 7      3217.664    23752314.900    97261771.915 5
      2507.259                          43.000          28.000
  23857786.021   125373510.738 7      3138.048
                                        44.000
  24850818.125   130591899.981 6     -3230.716
                                        38.000
  25145452.208   132140254.070 6      1200.841    25145458.926   102966453.730 3
       935.745                          38.000          18.000
  25848237.432   135833407.234 6       973.323    25848238.522   105844227.791 3
       758.415                          35.000          15.000
  19197765.604   102442963.800 9      -830.316    19197767.373    79677926.120 8
      -645.802                          55.000          50.000
  19301019.233   103102596.217 9     -1077.943
                                        53.000
  20606743.122   110309510.192 9      2975.262    20606743.318    85796287.621 8
      2314.093                          54.000          47.000
  20936909.988   111801953.439 8      3367.545    20936911.704    86957080.473 7
      2619.191                          46.000          39.000
  22202629.297   118644115.668 8     -3829.135    22202630.852    92278817.096 7
     -2978.215                          47.000          40.000
  23044399.425   123185500.096 7     -3939.595    23044404.053    95810947.424 6
     -3064.133                          41.000          33.000
  23960560.797   128172857.176 7     -1921.372    23960561.047    99689986.130 6
     -1494.390                          40.000          37.000
  24113117.223   128943678.597 6      1256.219    24113119.975   100289545.086 6
       977.062                          38.000          35.000
                            4  1
RINEX FILE SPLICE; other post-header comments skipped       COMMENT
 18  4  4  8  0  0.0000000  0 18G05G30G13G28G07G15G20G09G08G21R02R12
                                R03R13R11R01R19R20
  20752286.778   109053994.699 9     -1131.377    20752287.904    84977138.477 8
      -881.597                          54.000          46.000
  20772755.780   109161567.185 9     -1570.614    20772758.996    85060970.209 8
     -1223.854                          55.000          48.000
  21288240.175   111870467.961 8      2077.189    21288241.158    87171802.168 7
      1618.597                          50.000          41.000
  21673034.003   113892580.035 8      1712.951    21673035.325    88747481.158 6
      1334.756                          48.000          38.000
  22478911.160   118127466.958 8     -2633.192    22478911.678    92047365.211 6
     -2051.835                          49.000          36.000
  23733953.103   124722767.673 7      3214.499    23733955.229    97186591.850 5
      2504.795                          44.000          28.000
  23839898.718   125279513.315 7      3128.499
                                        41.000
  24869269.178   130688856.930 7     -3233.008
                                        40.000
  25138640.554   132104459.641 6      1185.469    25138647.308   102938562.018 3
       923.727                          38.000          19.000
  25842720.657   135804416.783 6       959.424    25842722.051   105821637.827 2
       747.587                          34.000          14.000
  19202493.783   102468194.395 9      -851.565    19202495.606    79697549.897 8
      -662.328                          55.000          50.000
  19307137.283   103135277.532 9     -1100.734
                                        52.000
  20590102.665   110220432.620 9      2963.302    20590102.790    85727005.069 8
      2304.794                          54.000          47.000
  20918033.992   111701157.160 8      3352.270    20918035.976    86878683.376 7
      2607.324                          45.000          39.000
  22224147.371   118759105.909 8     -3836.828    22224150.302    92368253.878 7
     -2984.183                          46.000          42.000
  23066530.067   123303798.536 7     -3946.864    23066533.355    95902957.291 6
     -3069.796                          42.000          33.000
  23971394.571   128230810.114 7     -1941.993    23971395.107    99735060.589 6
     -1510.451                          40.000          37.000
  24106135.313   128906346.756 6      1232.702    24106138.762   100260509.270 6
       958.759                          37.000          35.000
 18  4  4  8  0 30.0000000  0 18G05G30G13G28G07G15G20G09G08G21R02R12
                                R03R13R11R01R19R20
  20758799.590   109088220.462 9     -1150.041    20758801.020    85003807.889 8
      -896.136                          53.000          46.000
  20781758.158   109208876.644 9     -1583.057    20781761.589    85097834.721 8
     -1233.546                          54.000          48.000
  21276406.450   111808281.767 9      2068.836    21276407.522    87123345.400 7
      1612.089                          51.000          41.000
  21663301.514   113841436.654 8      1696.883    21663302.729    88707629.194 6
      1322.244                          48.000          38.000
  22493962.506   118206561.878 9     -2639.532    22493963.793    92108997.619 6
     -2056.778                          51.000          38.000
  23715612.302   124626386.199 7      3211.214    23715615.196    97111489.430 5
      2502.248                          43.000          28.000
  23822066.023   125185807.626 7      3118.768
                                        39.000
  24887732.936   130785886.239 7     -3235.350
                                        39.000
  25131917.638   132069130.593 6      1170.016    25131925.036   102911032.936 3
       911.735                          38.000          20.000
  25837284.043   135775847.618 6       945.388    25837285.633   105799376.092 2
       736.685                          34.000          12.000
  19207342.846   102494068.430 9      -872.975    19207344.311    79717674.125 8
      -678.986                          55.000          50.000
  19313383.829   103168645.524 9     -1123.498
                                        52.000
  20573530.147   110131720.121 9      2951.133    20573530.487    85658006.466 8
      2295.326                          53.000          47.000
  20899245.000   111600825.493 8      3336.774    20899246.769    86800647.646 7
      2595.273                          45.000          39.000
  22245711.369   118874329.081 8     -3844.410    22245713.388    92457871.826 7
     -2990.096                          49.000          43.000
  23088701.093   123422318.406 7     -3954.159    23088705.310    95995139.340 6
     -3075.445                          41.000          33.000
  23982344.959   128289386.138 7     -1962.703    23982345.084    99780619.689 6
     -1526.537                          42.000          37.000
  24099288.029   128869724.073 6      1209.074    24099290.173   100232025.015 6
       940.406                          37.000          35.000
 18  4  4  8  1  0.0000000  0 18G05G30G13G28G07G15G20G09G08G21R02R12
                                R03R13R11R01R19R20
  20765419.259   109123007.030 9     -1168.929    20765420.778    85030914.290 8
      -910.850                          52.000          46.000
  20790832.048   109256560.592 9     -1595.733    20790835.496    85134991.044 8
     -1243.428                          55.000          48.000
  21264620.847   111746347.574 9      2060.209    21264621.830    87075084.998 7
      1605.357                          51.000          41.000
  21653661.462   113790777.528 8      1680.504    21653662.695    88668154.561 6
      1309.478                          49.000          38.000
  22509049.215   118285847.845 9     -2646.068    22509051.770    92170778.870 6
     -2061.875                          51.000          37.000
  23697291.175   124530105.640 7      3207.602    23697292.211    97036465.625 5
      2499.435                          44.000          28.000
  23804288.865   125092396.131 6      3108.783
                                        35.000
  24906211.239   130882986.988 7     -3237.919
                                        39.000
  25125284.156   132034268.774 6      1154.217    25125290.875   102883867.909 4
       899.393                          38.000          21.000
  25831927.410   135747699.417 6       931.271    25831929.572   105777442.418 2
       725.649                          36.000          12.000
  19212312.061   102520585.786 9      -894.715    19212313.705    79738298.716 8
      -695.891                          55.000          50.000
  19319758.603   103202697.668 9     -1146.469
                                        53.000
  20557026.818   110043375.799 9      2938.600    20557026.997    85589294.218 8
      2285.583                          53.000          47.000
  20880543.567   111500960.750 8      3320.997    20880545.139    86722975.099 7
      2582.992                          46.000          39.000
  22267316.876   118989781.095 8     -3852.238    22267318.591    92547667.814 7
     -2996.181                          49.000          42.000
  23110913.325   123541056.957 7     -3961.633    23110918.400    96087491.542 6
     -3081.269                          41.000          33.000
  23993411.745   128348582.117 7     -1983.545    23993410.726    99826661.012 6
     -1542.767                          44.000          35.000
  24092571.921   128833812.175 6      1185.142    24092574.387   100204093.594 6
       921.761                          37.000          36.000
 18  4  4  8  1 30.0000000  0 18G05G30G13G28G07G15G20G09G08G21R02R12
                                R03R13R11R01R19R20
  20772145.571   109158353.172 9     -1187.447    20772146.857    85058456.720 8
      -925.280                          54.000          46.000
  20799976.752   109304617.264 9     -1608.019    20799980.165    85172437.790 8
     -1253.005                          55.000          47.000
  21252883.382   111684666.616 9      2051.871    21252884.490    87027021.913 7
      1598.858                          51.000          42.000
  21644113.954   113740604.123 8      1664.410    21644115.080    88629058.425 6
      1296.942                          49.000          38.000
  22524171.984   118365323.120 8     -2652.234    22524175.236    92232707.605 6
     -2066.668                          49.000          35.000
  23678989.132   124433926.966 8      3204.289    23678990.382    96961521.219 5
      2496.853                          46.000          29.000
  23786571.050   124999281.455 7      3098.892
                                        39.000
  24924701.693   130980158.099 7     -3240.089
                                        40.000
  25118738.751   131999875.571 6      1138.673    25118745.934   102857068.050 3
       887.253                          38.000          20.000
  25826651.920   135719972.844 6       917.281    25826652.153   105755837.266 2
       714.789                          35.000          13.000
  19217402.177   102547746.603 9      -915.998    19217403.696    79759423.781 8
      -712.450                          55.000          50.000
  19326260.801   103237431.176 9     -1169.044
                                        53.000
  20540593.196   109955402.544 9      2926.326    20540592.910    85520870.575 8
      2276.025                          54.000          47.000
  20861929.799   111401564.771 8      3305.421    20861931.586    86645667.136 7
      2570.884                          46.000          40.000
  22288964.054   119105458.368 8     -3859.585    22288965.233    92637639.024 7
     -3001.903                          47.000          40.000
  23133167.049   123660012.026 7     -3968.663    23133172.141    96180012.035 6
     -3086.725                          41.000          34.000
  24004592.339   128408394.207 7     -2003.907    24004590.874    99873181.633 5
     -1558.600                          43.000          31.000
  24085988.187   128798612.887 6      1161.495    24085992.600   100176716.368 6
       903.371                          38.000          36.000
 18  4  4  8  2  0.0000000  0 18G05G30G13G28G07G15G20G09G08G21R02R12
                                R03R13R11R01R19R20
  20778978.149   109194258.792 9     -1206.102    20778979.560    85086435.111 8
      -939.821                          55.000          46.000
  20809191.843   109353045.352 9     -1620.372    20809195.721    85210173.949 8
     -1262.631                          55.000          47.000
  21241194.290   111623240.353 9      2043.359    21241195.433    86979157.302 7
      1592.224                          52.000          42.000
  21634658.954   113690918.638 8      1648.095    21634660.276    88590342.485 7
      1284.234                          49.000          39.000
  22539331.634   118444986.202 8     -2658.486    22539333.617    92294782.677 6
     -2071.539                          47.000          34.000
  23660706.530   124337851.707 8      3200.838    23660708.013    96886657.406 5
      2494.184                          45.000          28.000
  23768909.754   124906466.688 7      3088.865
                                        42.000
  24943206.031   131077399.381 6     -3242.416
                                        37.000
  25112284.156   131965953.462 7      1122.927    25112290.893   102830635.260 3
       874.999                          39.000          20.000
  25821455.662   135692669.442 6       903.071    25821457.556   105734561.895 2
       703.699                          35.000          13.000
  19222612.891   102575551.309 9      -937.505    19222614.321    79781049.643 8
      -729.162                          55.000          50.000
  19332889.744   103272843.846 9     -1191.631
                                        53.000
  20524229.120   109867804.211 9      2913.744    20524229.048    85452738.534 8
      2266.243                          54.000          47.000
  20843404.554   111302640.946 8      3289.665    20843406.466    86568726.397 7
      2558.627                          46.000          39.000
  22310651.311   119221357.994 7     -3866.890    22310653.545    92727783.124 7
     -3007.583                          44.000          39.000
  23155460.174   123779181.800 7     -3975.751    23155464.587    96272699.612 6
     -3092.241                          41.000          33.000
  24015888.349   128468819.864 7     -2024.316    24015887.545    99920179.369 6
     -1574.466                          42.000          33.000
  24079538.827   128764128.248 6      1137.574    24079543.366   100149895.028 6
       884.745                          37.000          37.000
 18  4  4  8  2 30.0000000  0 18G05G30G13G28G07G15G20G09G08G21R02R12
                                R03R13R11R01R19R20
  20785916.833   109230722.313 9     -1224.779    20785918.281    85114848.233 8
      -954.372                          54.000          46.000
  20818477.195   109401842.762 9     -1632.780    20818481.520    85248197.888 8
     -1272.293                          53.000          47.000
  21229553.783   111562069.378 9      2034.717    21229554.980    86931491.605 7
      1585.493                          51.000          41.000
  21625297.408   113641722.394 8      1631.650    21625298.462    88552007.765 7
      1271.419                          50.000          39.000
  22554527.147   118524835.132 8     -2664.787    22554528.076    92357002.601 6
     -2076.462                          49.000          35.000
  23642443.763   124241880.486 8      3197.227    23642444.996    96811874.667 5
      2491.325                          45.000          28.000
  23751305.389   124813953.821 7      3078.693
                                        43.000
  24961724.361   131174709.629 7     -3244.895
                                        40.000
  25105918.835   131932503.526 6      1106.981    25105924.052   102804570.402 4
       862.594                          38.000          21.000
  25816340.297   135665789.076 6       888.912    25816342.334   105713616.157 2
       692.654                          35.000          14.000
  19227944.221   102604000.189 9      -959.075    19227945.579    79803176.533 8
      -745.943                          55.000          50.000
  19339645.861   103308932.908 9     -1214.286
                                        53.000
  20507935.466   109780583.743 9      2900.961    20507935.555    85384900.394 8
      2256.307                          54.000          48.000
  20824968.028   111204190.876 8      3273.688    20824969.565    86492154.143 7
      2546.204                          45.000          40.000
  22332383.027   119337475.917 8     -3874.232    22332384.296    92818097.021 7
     -3013.301                          48.000          41.000
  23177793.701   123898563.680 7     -3982.978    23177799.133    96365552.134 6
     -3097.885                          41.000          33.000
  24027298.078   128529855.324 7     -2044.636    24027298.024    99967651.370 6
     -1590.252                          39.000          35.000
  24073223.593   128730359.580 6      1113.634    24073228.382   100123630.516 6
       866.154                          36.000          36.000
 18  4  4  8  3  0.0000000  0 18G05G30G13G28G07G15G20G09G08G21R02R12
                                R03R13R11R01R19R20
  20792961.731   109267742.903 9     -1243.338    20792963.072    85143695.430 8
      -968.834                          53.000          45.000
  20827833.291   109451008.122 9     -1644.992    20827837.543    85286508.538 8
     -1281.812                          52.000          47.000
  21217962.076   111501154.765 9      2026.172    21217963.255    86884025.673 7
      1578.847                          51.000          42.000
  21616028.925   113593016.882 8      1615.291    21616030.265    88514055.432 7
      1258.675                          49.000          39.000
  22569757.845   118604868.906 8     -2670.887    22569758.274    92419366.576 6
     -2081.200                          49.000          36.000
  23624201.689   124146015.387 8      3193.705    23624202.403    96737174.587 5
      2488.598                          47.000          29.000
  23733759.063   124721745.819 7      3068.472
                                        42.000
  24980253.930   131272088.325 6     -3247.076
                                        38.000
  25099643.538   131899527.923 6      1091.183    25099649.756   102778875.148 3
       850.271                          38.000          19.000
  25811306.164   135639332.491 6       874.843    25811306.790   105693000.634 2
       681.702                          33.000          13.000
  19233396.203   102633092.785 9      -980.488    19233397.490    79825804.092 8
      -762.602                          55.000          50.000
  19346527.847   103345696.170 9     -1236.656
                                        53.000
  20491712.537   109693744.580 9      2888.197    20491713.198    85317358.828 8
      2246.379                          53.000          48.000
  20806621.152   111106216.818 8      3257.792    20806622.206    86415952.117 7
      2533.839                          45.000          40.000
  22354153.787   119453808.924 8     -3881.335    22354155.092    92908578.230 7
     -3018.822                          50.000          42.000
  23200164.592   124018155.767 7     -3989.871    23200169.702    96458568.171 5
     -3103.258                          41.000          32.000
  24038820.310   128591497.705 6     -2064.942    24038821.149   100015595.423 6
     -1606.062                          37.000          35.000
  24067043.591   128697308.966 6      1089.697    24067047.701   100097924.488 6
       847.542                          36.000          36.000
 18  4  4  8  3 30.0000000  0 18G05G30G13G28G07G15G20G09G08G21R02R12
                                R03R13R11R01R19R20
  20800112.289   109305319.448 9     -1261.829    20800113.647    85172975.832 8
      -983.241                          53.000          46.000
  20837259.397   109500539.445 9     -1657.162    20837263.221    85325104.347 8
     -1291.296                          54.000          47.000
  21206419.420   111440497.844 9      2017.543    21206420.742    86836760.546 7
      1572.113                          51.000          42.000
  21606854.111   113544803.915 8      1598.840    21606855.683    88476486.912 7
      1245.849                          48.000          39.000
  22585022.315   118685085.246 8     -2676.939    22585023.137    92481872.820 6
     -2085.931                          50.000          36.000
  23605979.860   124050257.351 8      3190.123    23605980.557    96662557.977 5
      2485.802                          46.000          30.000
  23716270.043   124629844.792 7      3058.213
                                        40.000
  24998798.170   131369534.725 6     -3249.300
                                        38.000
  25093460.159   131867028.228 6      1075.315    25093465.966   102753550.711 3
       837.924                          38.000          18.000
  25806350.494   135613300.259 6       860.669    25806352.281   105672715.776 2
       670.638                          35.000          14.000
  19238968.658   102662829.780 9     -1001.987    19238970.231    79848932.850 8
      -779.324                          55.000          50.000
  19353535.577   103383130.486 9     -1259.021
                                        53.000
  20475561.853   109607289.460 9      2875.369    20475562.496    85250115.968 8
      2236.398                          53.000          47.000
  20788362.924   111008721.042 8      3241.834    20788364.604    86340122.088 7
      2521.424                          46.000          40.000
  22375962.858   119570353.485 8     -3888.338    22375964.878    92999223.957 7
     -3024.257                          48.000          41.000
  23222576.546   124137955.720 7     -3996.785    23222580.852    96551745.862 5
     -3108.606                          42.000          32.000
  24050452.918   128653743.146 6     -2084.929    24050457.064   100064008.547 6
     -1621.625                          33.000          34.000
  24060997.822   128664977.695 6      1065.748    24061001.306   100072777.962 6
       828.890                          36.000          36.000
