     2.11           OBSERVATION DATA    M (MIXED)           RINEX VERSION / TYPE
TPP                 Reference Data Shop 05-APR-18 05:27     PGM / RUN BY / DATE 
STCX                                                        MARKER NAME         
                                                            MARKER NUMBER       
VRSNet              swisstopo                               OBSERVER / AGENCY   
5433R49244          TRIMBLE NETR9                           REC # / TYPE / VERS 
53593               TRM59800.00     NONE                    ANT # / TYPE        
  4344778.5750   495114.8210  4629118.6960                  APPROX POSITION XYZ 
        0.0000        0.0000        0.0000                  ANTENNA: DELTA H/E/N
     1     1     0                                          WAVELENGTH FACT L1/2
    14    C1    P1    L1    D1    S1    C2    P2    L2    D2# / TYPES OF OBSERV 
          S2    C5    L5    D5    S5                        # / TYPES OF OBSERV 
    30.000                                                  INTERVAL            
     0                                                      RCV CLOCK OFFS APPL 
    18                                                      LEAP SECONDS        
  2018    04    04    07    00   00.0000000     GPS         TIME OF FIRST OBS   
                                                            END OF HEADER       
 18 04 04  7  0  0.0000000  0 15G02G05G07G09G13G28G30R01R02R03R11R12 0.000000000
                                R13R18R19                   
  23392596.680                   122928900.72415     -2539.867          41.100  
                  23392600.152    95788760.65016                        24.500  
                                                                
  20765762.508                   109124825.42517      1127.004          51.300  
                  20765766.988    85032347.85318                        38.500  
                                                                
  21028278.156                   110504357.39117     -1452.945          51.200  
                  21028282.918    86107311.26218                        37.800  
                                                                
  22779119.422                   119705085.98616     -2777.863          45.200  
                  22779126.680    93276708.47317                        29.300  
                                                                
  23011400.039                   120925742.93416      2846.473          43.200  
                  23011404.738    94227868.55316                        21.500  
                                                                
  23373437.781                   122828225.36515      3086.594          41.200  
                  23373442.602    95710355.78416                        18.300  
                                                                
  20288856.500                   106618669.85418       259.262          53.900  
                  20288863.313    83079517.69319                        43.600  
                                                                
  20795829.617    20795828.895   111165639.64817     -2626.437          45.300  
                  20795834.805    86462227.69118                        34.200  
                                                                
  19444845.727    19444844.969   103761451.33019      1441.754          53.300  
                  19444848.660    80703347.58119                        41.100  
                                                                
  22923824.063    22923822.777   122713017.42116      3718.063          43.400  
                  22923825.117    95443412.64217                        32.200  
                                                                
  20147706.367    20147706.102   107663246.07418     -2031.902          51.200  
                  20147709.059    83737979.62119                        41.200  
                                                                
  19564748.148    19564746.906   104511349.14018      1908.125          51.900  
                                                                                
                                                                
  23651170.148    23651167.535   126295925.52312      4527.730          35.000  
                                                                                
                                                                
  23350953.406    23350952.449   124648957.86716     -2183.879          41.600  
                                                                                
                                                                
  23631165.227    23631164.418   126410804.71914       976.352          37.900  
                                                                                
                                                                
 18 04 04  7  0 30.0000000  0 15G02G05G07G09G13G28G30R01R02R03R11R12 0.000000000
                                R13R18R19                   
  23407120.133                   123005223.968 5     -2548.402          40.600  
                  23407123.457    95848233.299 6     -1985.761          21.800  
                                                                
  20759377.078                   109091269.565 7      1110.035          51.300  
                  20759381.695    85006200.420 8       865.116          38.400  
                                                                
  21036609.617                   110548139.183 7     -1465.887          51.500  
                  21036614.063    86141426.923 8     -1142.181          37.100  
                                                                
  22794991.398                   119788496.907 6     -2782.812          45.100  
                  22794999.539    93341703.961 7     -2168.417          28.900  
                                                                
  22995161.570                   120840414.160 6      2841.973          42.100  
                  22995166.707    94161378.582 6      2214.571          20.600  
                                                                
  23355834.102                   122735715.863 5      3080.738          39.800  
                  23355838.410    95638270.494 6      2400.503          19.600  
                                                                
  20287424.313                   106611144.984 8       242.406          53.900  
                  20287430.926    83073654.161 9       188.998          43.200  
                                                                
  20810608.031    20810606.793   111244633.457 7     -2639.953          46.300  
                  20810612.344    86523667.331 8     -2053.189          33.400  
                                                                
  19436782.828    19436781.813   103718424.784 9      1426.691          53.600  
                  19436785.336    80669882.484 9      1109.765          41.200  
                                                                
  22902989.898    22902988.801   122601492.442 6      3717.043          43.700  
                  22902991.887    95356671.11117      2890.844          32.200  
                                                                
  20159175.586    20159174.801   107724530.522 8     -2053.812          50.100  
                  20159177.496    83785645.290 9     -1597.185          41.500  
                                                                
  19554100.320    19554099.242   104454471.443 8      1883.750          51.900  
                                                                                
                                                                
  23625741.969    23625739.637   126160146.327 2      4524.273          35.000  
                                                                                
                                                                
  23363281.422    23363280.629   124714766.150 5     -2203.301          40.400  
                                                                                
                                                                
  23625760.289    23625757.980   126381886.189 3       951.621          36.500  
                                                                                
                                                                
 18 04 04  7  1  0.0000000  0 15G02G05G07G09G13G28G30R01R02R03R11R12 0.000000000
                                R13R18R19                   
  23421694.398                   123081810.526 5     -2557.195          40.100  
                  23421698.070    95907911.119 6     -1992.542          22.200  
                                                                
  20753089.797                   109058229.315 7      1092.742          51.500  
                  20753094.184    84980454.768 8       851.700          38.900  
                                                                
  21045016.438                   110592316.867 8     -1479.066          53.500  
                  21045020.613    86175851.085 8     -1152.430          38.100  
                                                                
  22810893.672                   119872059.745 6     -2787.906          45.700  
                  22810900.602    93406817.833 7     -2172.356          29.600  
                                                                
  22978951.961                   120755225.750 6      2837.281          44.300  
                  22978956.133    94094998.041 6      2210.901          22.000  
                                                                
  23338264.922                   122643391.993 5      3074.332          41.300  
                  23338269.113    95566329.847 6      2395.637          18.300  
                                                                
  20286090.086                   106604133.706 8       225.191          54.700  
                  20286097.063    83068190.823 9       175.658          43.400  
                                                                
  20825463.156    20825461.754   111324039.322 7     -2653.656          48.400  
                  20825466.543    86585427.405 7     -2063.856          33.000  
                                                                
  19428805.859    19428804.914   103675857.704 9      1411.324          53.800  
                  19428808.469    80636774.754 8      1097.866          40.900  
                                                                
  22882163.039    22882162.035   122490006.370 6      3715.641          41.600  
                  22882164.734    95269959.63417      2889.900          30.000  
                                                                
  20170768.219    20170767.695   107786478.191 8     -2075.965          52.900  
                  20170769.918    83833826.805 9     -1614.355          41.200  
                                                                
  19543590.352    19543589.555   104398331.259 8      1859.176          52.300  
                                                                                
                                                                
  23600337.508    23600334.918   126024481.828 3      4520.145          35.800  
                                                                                
                                                                
  23375717.711    23375718.348   124781160.043 6     -2222.801          41.400  
                                                                                
                                                                
  23620494.492    23620492.371   126353717.248 4       926.508          37.500  
                                                                                
                                                                
 18 04 04  7  1 30.0000000  0 15G02G05G07G09G13G28G30R01R02R03R11R12 0.000000000
                                R13R18R19                   
  23436318.367                   123158657.285 5     -2565.926          40.600  
                  23436321.563    95967791.650 6     -1999.244          22.000  
                                                                
  20746900.703                   109025705.630 7      1075.402          51.300  
                  20746905.059    84955111.633 8       838.290          38.400  
                                                                
  21053498.383                   110636888.650 8     -1492.383          53.400  
                  21053502.480    86210582.343 8     -1162.621          37.800  
                                                                
  22826823.234                   119955773.583 6     -2793.102          45.600  
                  22826830.809    93472049.360 7     -2176.240          28.900  
                                                                
  22962768.328                   120670178.374 6      2832.500          43.700  
                  22962771.891    94028727.365 6      2207.251          21.500  
                                                                
  23320731.633                   122551256.947 5      3067.672          40.400  
                  23320736.523    95494536.369 5      2390.691          17.800  
                                                                
  20284853.438                   106597635.317 8       207.902          55.500  
                  20284860.242    83063127.148 9       162.365          43.200  
                                                                
  20840394.141    20840393.863   111403856.005 7     -2667.492          49.000  
                  20840397.777    86647506.999 7     -2074.459          32.700  
                                                                
  19420915.641    19420914.297   103633751.975 9      1395.711          53.400  
                  19420917.402    80604025.840 8      1085.852          40.900  
                                                                
  22861344.250    22861343.953   122378560.786 6      3714.164          43.600  
                  22861345.590    95183279.79217      2888.835          31.000  
                                                                
  20182484.484    20182483.816   107849085.787 9     -2097.992          53.200  
                  20182485.922    83882521.599 8     -1631.376          40.800  
                                                                
  19533219.305    19533218.250   104342930.359 8      1834.195          51.800  
                                                                                
                                                                
  23574952.648    23574950.762   125888935.052 2      4515.934          34.600  
                                                                                
                                                                
  23388264.742    23388264.465   124848135.771 5     -2242.316          39.800  
                                                                                
                                                                
  23615368.305    23615367.355   126326299.048 3       901.305          35.700  
                                                                                
                                                                
 18 04 04  7  2  0.0000000  0 15G02G05G07G09G13G28G30R01R02R03R11R12 0.000000000
                                R13R18R19                   
  23450990.273                   123235761.628 6     -2574.512          42.200  
                  23450993.176    96027872.937 6     -2005.978          21.700  
                                                                
  20740810.531                   108993700.699 8      1058.113          52.400  
                  20740815.211    84930172.724 8       824.734          38.800  
                                                                
  21062055.016                   110681852.983 8     -1505.391          53.500  
                  21062059.445    86245619.508 8     -1172.869          38.000  
                                                                
  22842782.773                   120039638.021 6     -2798.039          46.600  
                  22842789.969    93537398.245 7     -2180.232          29.600  
                                                                
  22946610.461                   120585273.119 6      2827.699          43.700  
                  22946615.547    93962567.452 6      2203.499          21.100  
                                                                
  23303235.398                   122459313.989 5      3061.500          39.900  
                  23303240.113    95422892.555 5      2385.659          17.400  
                                                                
  20283714.492                   106591649.641 8       190.961          55.000  
                  20283721.160    83058462.990 9       149.003          43.300  
                                                                
  20855402.656    20855401.301   111484083.042 7     -2680.996          47.900  
                  20855406.227    86709905.808 8     -2085.176          34.000  
                                                                
  19413111.563    19413110.781   103592110.267 9      1380.223          54.300  
                  19413113.902    80571637.866 8      1073.691          40.900  
                                                                
  22840532.133    22840531.762   122267157.847 6      3712.758          42.000  
                                                                                
                                                                
  20194323.070    20194322.922   107912350.134 9     -2119.738          53.600  
                  20194324.762    83931727.212 8     -1648.423          40.300  
                                                                
  19522986.328    19522985.367   104288270.368 8      1809.613          52.300  
                                                                                
                                                                
  23549593.047    23549591.043   125753509.769 2      4512.285          34.800  
                                                                                
                                                                
  23400921.938    23400920.555   124915690.139 6     -2261.328          42.000  
                                                                                
                                                                
  23610382.258    23610380.816   126299633.037 3       876.543          36.200  
                                                                                
                                                                
 18 04 04  7  2 30.0000000  0 15G02G05G07G09G13G28G30R01R02R03R11R12 0.000000000
                                R13R18R19                   
  23465711.766                   123313121.031 5     -2582.969          41.600  
                  23465714.953    96088152.973 6     -2012.558          22.800  
                                                                
  20734819.164                   108962216.091 8      1040.668          52.400  
                  20734823.676    84905639.261 8       811.202          39.800  
                                                                
  21070685.461                   110727208.273 8     -1518.473          53.700  
                  21070690.078    86280961.284 8     -1182.996          37.600  
                                                                
  22858769.195                   120123652.351 6     -2803.027          45.000  
                  22858777.238    93602863.935 7     -2184.114          29.300  
                                                                
  22930481.203                   120500510.767 6      2822.902          44.700  
                  22930485.418    93896518.858 6      2199.813          21.500  
                                                                
  23285777.000                   122367565.396 5      3054.941          40.400  
                  23285782.480    95351400.187 6      2380.538          19.000  
                                                                
  20282672.938                   106586176.204 8       173.820          55.700  
                  20282679.793    83054197.974 9       135.703          43.400  
                                                                
  20870486.328    20870485.277   111564719.024 7     -2694.695          46.700  
                  20870491.031    86772622.612 8     -2095.743          33.800  
                                                                
  19405395.430    19405394.344   103550934.878 9      1364.641          53.900  
                  19405397.434    80539612.551 9      1061.615          41.300  
                                                                
  22819729.695    22819729.277   122155799.690 6      3710.965          43.300  
                  22819732.207    95010019.17417      2886.466          32.700  
                                                                
  20206284.531    20206283.961   107976268.018 9     -2141.473          53.300  
                  20206286.234    83981441.102 8     -1665.331          40.600  
                                                                
  19512893.328    19512892.250   104234353.204 8      1784.754          51.600  
                                                                                
                                                                
  23524254.336    23524253.250   125618208.681 2      4507.945          33.700  
                                                                                
                                                                
  23413685.773    23413683.711   124983819.291 6     -2280.535          42.900  
                                                                                
                                                                
  23605540.555    23605537.238   126273720.537 4       851.059          38.400  
                                                                                
                                                                
 18 04 04  7  3  0.0000000  0 15G02G05G07G09G13G28G30R01R02R03R11R12 0.000000000
                                R13R18R19                   
  23480481.266                   123390732.300 5     -2591.090          41.600  
                  23480484.430    96148629.240 6     -2019.022          22.800  
                                                                
  20728927.164                   108931252.752 8      1023.418          52.700  
                  20728931.395    84881511.979 8       797.665          39.600  
                                                                
  21079390.203                   110772952.993 8     -1531.270          53.900  
                  21079394.836    86316606.509 8     -1193.076          37.500  
                                                                
  22874785.523                   120207815.810 6     -2807.852          45.000  
                  22874793.285    93668445.821 7     -2187.934          30.000  
                                                                
  22914379.016                   120415891.323 6      2818.340          45.000  
                  22914383.145    93830581.656 6      2196.130          22.200  
                                                                
  23268354.977                   122276014.496 5      3048.285          40.500  
                  23268360.547    95280061.859 6      2375.425          20.100  
                                                                
  20281728.953                   106581214.424 8       156.895          55.000  
                  20281735.723    83050331.658 9       122.440          43.600  
                                                                
  20885646.563    20885645.980   111645763.297 7     -2708.270          46.500  
                  20885651.688    86835656.995 7     -2106.248          32.900  
                                                                
  19397767.180    19397765.789   103510227.875 9      1349.141          53.700  
                  19397769.281    80507951.541 9      1049.477          41.100  
                                                                
  22798935.719    22798935.277   122044488.307 6      3709.688          43.300  
                  22798938.102    94923443.66017      2885.259          32.800  
                                                                
  20218367.891    20218367.199   108040836.245 8     -2163.012          53.000  
                  20218369.551    84031660.839 8     -1682.146          40.200  
                                                                
  19502938.813    19502937.969   104181180.043 8      1760.086          52.000  
                                                                                
                                                                
  23498941.094    23498938.715   125483034.546 3      4503.742          35.300  
                                                                                
                                                                
  23426554.953    23426553.195   125052519.415 6     -2299.434          42.300  
                                                                                
                                                                
  23600835.367    23600834.441   126248562.310 4       825.988          37.400  
                                                                                
                                                                
 18 04 04  7  3 30.0000000  0 15G02G05G07G09G13G28G30R01R02R03R11R12 0.000000000
                                R13R18R19                   
  23495297.492                   123468592.494 6     -2599.590          42.800  
                  23495300.348    96209299.504 6     -2025.470          24.900  
                                                                
  20723134.367                   108900811.813 8      1006.008          52.300  
                  20723139.203    84857791.765 8       784.081          39.600  
                                                                
  21088168.984                   110819085.190 8     -1544.090          53.600  
                  21088173.559    86352553.676 8     -1203.091          37.100  
                                                                
  22890829.125                   120292127.598 6     -2812.820          44.300  
                  22890837.516    93734143.282 7     -2191.792          29.200  
                                                                
  22898303.797                   120331415.820 6      2813.438          44.200  
                  22898307.977    93764756.625 6      2192.347          22.200  
                                                                
  23250971.469                   122184664.114 5      3041.660          40.700  
                  23250977.277    95208879.787 6      2370.183          21.300  
                                                                
  20280881.852                   106576763.690 8       139.941          55.300  
                  20280888.895    83046863.558 9       109.185          43.700  
                                                                
  20900885.203    20900883.520   111727214.464 7     -2721.828          46.400  
                  20900888.598    86899007.849 7     -2116.761          32.900  
                                                                
  19390226.602    19390225.563   103469991.884 9      1333.371          53.600  
                  19390229.129    80476656.860 9      1037.251          41.400  
                                                                
  22778151.563    22778150.418   121933225.346 6      3708.004          43.000  
                  22778153.789    94836905.80517      2884.028          32.700  
                                                                
  20230571.789    20230570.793   108106051.398 9     -2184.477          53.200  
                  20230573.988    84082383.723 8     -1698.823          40.200  
                                                                
  19493124.813    19493123.758   104128752.498 8      1735.227          51.800  
                                                                                
                                                                
  23473651.047    23473648.621   125347991.289 2      4499.145          34.900  
                                                                                
                                                                
  23439530.297    23439529.527   125121787.120 6     -2318.332          42.700  
                                                                                
                                                                
  23596275.836    23596273.809   126224159.221 5       800.930          39.200  
                                                                                
                                                                
 18 04 04  7  4  0.0000000  0 15G02G05G07G09G13G28G30R01R02R03R11R12 0.000000000
                                R13R18R19                   
  23510161.109                   123546699.020 6     -2607.633          43.200  
                  23510163.352    96270161.678 6     -2031.798          22.900  
                                                                
  20717441.750                   108870895.794 8       988.391          52.600  
                  20717446.340    84834480.572 8       770.464          39.800  
                                                                
  21097020.969                   110865603.525 8     -1557.086          54.100  
                  21097025.594    86388801.718 8     -1213.102          38.100  
                                                                
  22906901.617                   120376587.387 6     -2817.762          45.100  
                  22906909.371    93799956.064 7     -2195.588          29.100  
                                                                
  22882255.563                   120247085.535 6      2808.520          44.500  
                  22882260.340    93699044.736 6      2188.551          22.600  
                                                                
  23233627.438                   122093517.111 5      3034.797          40.700  
                  23233632.645    95137856.186 6      2364.897          20.100  
                                                                
  20280131.914                   106572823.837 8       122.727          54.500  
                  20280139.164    83043793.535 9        95.940          43.900  
                                                                
  20916197.906    20916197.137   111809072.062 7     -2735.348          47.800  
                  20916201.938    86962674.84317     -2127.299          32.900  
                                                                
  19382775.141    19382774.242   103430228.923 9      1317.465          54.400  
                  19382777.332    80445730.111 8      1024.968          40.900  
                                                                
  22757375.227    22757375.492   121822013.550 6      3706.211          43.200  
                  22757378.711    94750407.752 8      2882.632          33.800  
                                                                
  20242896.727    20242895.895   108171910.417 8     -2206.047          53.000  
                  20242898.293    84133607.379 8     -1715.486          40.200  
                                                                
  19483450.539    19483449.297   104077072.487 8      1710.129          52.100  
                                                                                
                                                                
  23448385.469    23448385.109   125213081.481 2      4494.539          34.900  
                                                                                
                                                                
  23452611.617    23452611.012   125191618.781 6     -2337.211          41.600  
                                                                                
                                                                
  23591855.445    23591853.418   126200512.897 5       775.535          40.700  
                                                                                
                                                                
 18 04 04  7  4 30.0000000  0 15G02G05G07G09G13G28G30R01R02R03R11R12 0.000000000
                                R13R18R19                   
  23525070.148                   123625048.750 6     -2615.676          42.100  
                  23525073.188    96331213.356 6     -2038.068          22.800  
                                                                
  20711848.453                   108841505.170 8       970.949          52.700  
                  20711853.395    84811578.785 8       756.788          39.300  
                                                                
  21105946.313                   110912506.110 8     -1569.770          54.500  
                  21105950.926    86425349.181 8     -1223.069          37.700  
                                                                
  22923002.133                   120461194.172 6     -2822.566          45.000  
                  22923009.559    93865883.391 7     -2199.415          28.600  
                                                                
  22866236.508                   120162901.075 6      2803.738          44.300  
                  22866240.754    93633446.460 6      2184.782          21.700  
                                                                
  23216321.758                   122002576.100 5      3028.016          40.400  
                  23216326.871    95066993.096 6      2359.463          20.900  
                                                                
  20279479.242                   106569393.912 8       105.871          54.500  
                  20279486.449    83041120.871 9        82.696          43.700  
                                                                
  20931587.070    20931586.512   111891334.529 7     -2748.789          48.800  
                  20931590.664    87026656.775 7     -2137.786          32.800  
                                                                
  19375412.797    19375411.758   103390941.096 9      1301.664          54.800  
                  19375414.746    80415172.907 9      1012.594          41.100  
                                                                
  22736610.617    22736610.578   121710854.633 6      3704.328          43.200  
                  22736613.508    94663950.839 8      2881.210          33.700  
                                                                
  20255340.609    20255340.438   108238409.760 9     -2227.277          53.400  
                  20255342.645    84185329.090 8     -1732.044          39.700  
                                                                
  19473915.508    19473914.992   104026141.148 8      1685.238          51.900  
                                                                                
                                                                
  23423148.289    23423145.582   125078308.522 2      4490.012          34.700  
                                                                                
                                                                
  23465798.227    23465797.387   125262010.308 5     -2355.590          40.500  
                  23465801.980    97425928.58817                        31.600  
                                                                
  23587577.250    23587574.848   126177623.768 6       750.383          41.400  
                                                                                
                                                                
 18 04 04  7  5  0.0000000  0 15G02G05G07G09G13G28G30R01R02R03R11R12 0.000000000
                                R13R18R19                   
  23540025.781                   123703638.798 6     -2623.711          42.600  
                  23540028.211    96392452.312 6     -2044.278          22.500  
                                                                
  20706356.258                   108812641.660 7       953.297          52.000  
                  20706360.605    84789087.738 8       743.094          39.600  
                                                                
  21114944.422                   110959791.440 8     -1582.562          53.600  
                  21114948.785    86462194.886 8     -1232.961          37.900  
                                                                
  22939129.992                   120545947.323 6     -2827.602          44.600  
                  22939137.395    93931924.764 7     -2203.181          27.600  
                                                                
  22850244.242                   120078862.929 6      2798.824          43.400  
                  22850249.043    93567962.212 6      2180.984          22.500  
                                                                
  23199055.852                   121911844.535 5      3020.922          39.700  
                  23199061.957    94996293.184 6      2354.075          20.600  
                                                                
  20278923.281                   106566473.547 8        88.805          53.900  
                  20278930.512    83038845.252 9        69.503          43.700  
                                                                
  20947051.836    20947050.574   111974001.043 7     -2762.359          47.200  
                  20947055.023    87090952.896 7     -2148.234          32.600  
                                                                
  19368140.164    19368138.984   103352130.709 9      1285.742          54.600  
                  19368141.902    80384987.063 9      1000.259          41.400  
                                                                
  22715855.297    22715854.738   121599750.480 6      3702.449          43.900  
                  22715857.352    94577536.550 7      2879.814          32.800  
                                                                
  20267904.445    20267904.109   108305546.244 9     -2248.445          53.400  
                  20267906.352    84237546.355 8     -1748.489          39.800  
                                                                
  19464521.945    19464520.727   103975959.760 8      1660.141          52.700  
                                                                                
                                                                
  23397936.125    23397934.379   124943675.450 3      4485.238          35.200  
                                                                                
                                                                
  23479089.281    23479087.594   125332958.135 4     -2374.141          38.600  
                  23479092.652    97481109.70317     -1846.232          31.700  
                                                                
  23583439.664    23583437.660   126155492.966 5       725.027          40.900  
                                                                                
                                                                
 18 04 04  7  5 30.0000000  0 15G02G05G07G09G13G28G30R01R02R03R11R12 0.000000000
                                R13R18R19                   
  23555024.883                   123782466.737 5     -2631.555          41.100  
                  23555029.059    96453876.641 6     -2050.462          21.300  
                                                                
  20700963.961                   108784306.563 7       935.578          51.900  
                  20700968.645    84767008.427 8       729.322          39.400  
                                                                
  21124015.148                   111007457.860 8     -1595.273          54.200  
                  21124019.820    86499337.543 8     -1242.874          37.900  
                                                                
  22955285.414                   120630846.376 6     -2832.441          45.000  
                  22955292.859    93998079.844 7     -2206.997          27.500  
                                                                
  22834279.398                   119994971.516 6      2793.914          43.300  
                  22834284.852    93502592.281 6      2177.140          21.500  
                                                                
  23181829.820                   121821325.149 5      3013.793          40.300  
                  23181836.305    94925758.608 6      2348.466          21.500  
                                                                
  20278464.953                   106564062.291 8        71.836          55.300  
                  20278471.996    83036966.347 9        56.237          43.700  
                                                                
  20962591.969    20962590.191   112057070.629 7     -2775.812          47.200  
                  20962595.156    87155562.53017     -2158.660          32.100  
                                                                
  19360956.734    19360955.602   103313800.265 9      1269.551          54.300  
                  19360958.559    80355174.505 9       987.700          41.400  
                                                                
  22695111.164    22695110.820   121488703.879 6      3700.387          44.900  
                  22695112.031    94491166.957 7      2878.226          31.500  
                                                                
  20280587.117    20280586.594   108373316.605 9     -2269.590          53.100  
                  20280588.547    84290256.645 8     -1764.944          39.800  
                                                                
  19455268.359    19455267.281   103926530.240 8      1635.055          52.500  
                                                                                
                                                                
  23372750.555    23372748.785   124809185.548 3      4480.426          36.000  
                                                                                
                                                                
  23492483.148    23492481.789   125404458.617 4     -2392.590          39.000  
                  23492487.457    97536721.18517     -1860.600          31.500  
                                                                
  23579441.805    23579441.867   126134121.746 5       699.617          40.000  
                                                                                
                                                                
 18 04 04  7  6  0.0000000  0 15G02G05G07G09G13G28G30R01R02R03R11R12 0.000000000
                                R13R18R19                   
  23570070.203                   123861529.546 6     -2639.270          42.600  
                  23570074.324    96515483.994 6     -2056.531          22.200  
                                                                
  20695673.039                   108756501.430 8       918.070          53.000  
                  20695677.434    84745342.082 8       715.526          38.800  
                                                                
  21133158.102                   111055503.692 8     -1607.758          54.800  
                  21133162.332    86536775.842 8     -1252.701          38.100  
                                                                
  22971469.031                   120715890.641 6     -2837.109          43.800  
                  22971476.254    94064348.074 7     -2210.790          26.300  
                                                                
  22818343.805                   119911228.644 6      2788.984          43.700  
                  22818348.980    93437338.094 6      2173.243          21.500  
                                                                
  23164646.086                   121731021.087 5      3006.668          40.600  
                  23164651.859    94855391.811 6      2342.825          20.600  
                                                                
  20278102.781                   106562159.570 8        55.039          54.900  
                  20278109.750    83035483.713 9        43.014          43.700  
                                                                
  20978206.531    20978205.199   112140542.159 7     -2788.957          46.300  
                  20978210.445    87220484.81017     -2169.131          32.200  
                                                                
  19353863.773    19353863.203   103275952.141 9      1253.574          54.600  
                  19353865.922    80325737.037 8       975.167          41.000  
                                                                
  22674377.852    22674377.105   121377716.468 6      3698.547          44.100  
                  22674379.910    94404843.441 8      2876.593          33.600  
                                                                
  20293387.352    20293386.684   108441717.585 8     -2290.473          53.000  
                  20293388.727    84343457.396 8     -1781.234          39.700  
                                                                
  19446156.523    19446155.023   103877854.146 8      1609.957          52.200  
                                                                                
                                                                
  23347593.133    23347590.262   124674842.360 3      4475.844          36.100  
                                                                                
                                                                
  23505981.383    23505979.859   125476508.006 5     -2410.703          39.300  
                  23505985.008    97592759.59217     -1874.828          31.900  
                                                                
  23575589.820    23575587.699   126113510.804 5       674.461          39.700  
                                                                                
                                                                
 18 04 04  7  6 30.0000000  0 15G02G05G07G09G13G28G30R01R02R03R11R12 0.000000000
                                R13R18R19                   
  23585159.164                   123940824.248 6     -2647.008          42.200  
                  23585163.488    96577272.051 6     -2062.535          22.300  
                                                                
  20690482.844                   108729227.582 8       900.297          52.300  
                  20690487.270    84724089.732 8       701.708          39.300  
                                                                
  21142372.977                   111103927.421 8     -1620.375          55.000  
                  21142377.129    86574508.605 8     -1262.518          38.100  
                                                                
  22987679.828                   120801079.427 6     -2841.984          43.500  
                  22987686.930    94130728.894 7     -2214.523          26.500  
                                                                
  22802437.117                   119827634.576 6      2784.004          43.600  
                  22802441.492    93372199.879 6      2169.346          21.500  
                                                                
  23147503.078                   121640934.797 5      2999.266          41.200  
                  23147509.508    94785194.737 6      2337.112          21.500  
                                                                
  20277837.180                   106560764.776 8        38.031          56.100  
                  20277844.289    83034396.857 9        29.829          43.600  
                                                                
  20993896.430    20993895.965   112224415.033 7     -2802.410          46.600  
                  20993900.660    87285719.23617     -2179.568          32.800  
                                                                
  19346862.000    19346861.125   103238588.455 9      1237.355          54.200  
                  19346863.781    80296676.410 8       962.562          40.400  
                                                                
  22653655.695    22653655.254   121266790.635 6      3696.516          43.900  
                  22653657.766    94318567.824 7      2875.012          32.200  
                                                                
  20306304.852    20306304.254   108510745.728 8     -2311.367          52.700  
                  20306306.168    84397145.949 8     -1797.487          39.100  
                                                                
  19437184.750    19437183.484   103829932.402 8      1584.797          51.800  
                                                                                
                                                                
  23322462.164    23322460.066   124540648.765 3      4470.609          35.800  
                                                                                
                                                                
  23519581.445    23519580.039   125549102.506 5     -2428.883          40.900  
                  23519583.141    97649221.93017     -1888.854          29.600  
                                                                
  23571878.234    23571877.027   126093660.839 5       648.852          40.200  
                                                                                
                                                                
 18 04 04  7  7  0.0000000  0 15G02G05G07G09G13G28G30R01R02R03R11R12 0.000000000
                                R13R18R19                   
  23600293.281                   124020347.818 6     -2654.578          43.200  
                  23600296.379    96639238.467 6     -2068.420          21.800  
                                                                
  20685393.930                   108702485.971 7       882.551          51.500  
                  20685398.648    84703252.105 8       687.898          39.300  
                                                                
  21151658.969                   111152727.007 8     -1632.945          54.700  
                  21151663.305    86612534.266 8     -1272.229          37.600  
                                                                
  23003918.109                   120886411.938 6     -2846.812          44.600  
                  23003925.012    94197221.719 7     -2218.229          26.900  
                                                                
  22786558.047                   119744189.946 6      2778.906          43.600  
                  22786562.070    93307178.094 6      2165.518          22.300  
                                                                
  23130403.219                   121551069.123 6      2991.676          42.400  
                  23130407.566    94715169.555 6      2331.381          21.700  
                                                                
  20277668.367                   106559877.134 8        21.113          54.000  
                  20277675.355    83033705.188 9        16.690          43.700  
                                                                
  21009662.391    21009660.543   112308687.424 7     -2815.805          47.400  
                  21009665.570    87351264.366 7     -2189.855          32.400  
                                                                
  19339951.531    19339950.328   103201711.233 9      1221.098          54.500  
                  19339953.047    80267994.097 9       949.972          41.100  
                                                                
  22632945.711    22632945.367   121155928.091 6      3694.359          43.900  
                  22632947.836    94232341.39917      2873.434          32.900  
                                                                
  20319338.766    20319338.523   108580397.506 9     -2332.125          53.200  
                  20319340.934    84451319.548 8     -1813.609          39.700  
                                                                
  19428355.086    19428353.938   103782766.062 8      1559.512          51.900  
                                                                                
                                                                
  23297359.086    23297357.930   124406607.559 3      4465.617          35.500  
                                                                                
                                                                
  23533283.133    23533281.422   125622238.264 6     -2446.816          43.200  
                                                                                
                                                                
  23568310.188    23568307.949   126074572.548 5       623.563          39.200  
                                                                                
                                                                
 18 04 04  7  7 30.0000000  0 15G02G05G07G09G13G28G30R01R02R03R11R12 0.000000000
                                R13R18R19                   
  23615468.898                   124100097.598 6     -2662.191          42.400  
                  23615472.152    96701381.115 6     -2074.245          21.800  
                                                                
  20680406.883                   108676278.438 8       864.672          52.100  
                  20680411.320    84682830.645 8       674.008          39.500  
                                                                
  21161016.383                   111201900.671 8     -1645.336          53.800  
                  21161020.898    86650851.388 8     -1281.909          37.000  
                                                                
  23020183.523                   120971887.686 6     -2851.605          45.600  
                  23020190.359    94263826.167 7     -2221.930          27.600  
                                                                
  22770707.250                   119660895.291 6      2773.949          44.100  
                  22770711.953    93242273.171 6      2161.603          22.600  
                                                                
  23113344.313                   121461427.089 5      2984.340          41.700  
                  23113349.508    94645318.650 6      2325.554          22.000  
                                                                
  20277596.031                   106559496.224 8         4.242          55.400  
                  20277603.008    83033408.376 9         3.545          43.500  
                                                                
  21025501.664    21025500.191   112393358.612 7     -2828.887          46.800  
                  21025505.156    87417119.65517     -2200.059          32.600  
                                                                
  19333132.016    19333131.445   103165323.137 9      1204.805          54.600  
                  19333134.043    80239692.251 8       937.309          40.500  
                                                                
  22612247.523    22612247.391   121045131.322 6      3692.141          43.800  
                  22612250.320    94146166.133 8      2871.668          33.200  
                                                                
  20332490.039    20332489.207   108650669.615 8     -2352.633          52.600  
                  20332491.805    84505975.612 8     -1829.597          39.300  
                                                                
  19419667.234    19419666.297   103736357.330 8      1534.313          52.300  
                                                                                
                                                                
  23272287.844    23272286.617   124272722.028 3      4460.215          37.000  
                                                                                
                                                                
  23547084.336    23547083.117   125695911.683 6     -2464.656          43.200  
                                                                                
                                                                
  23564885.680    23564883.559   126056247.056 6       598.105          41.400  
                                                                                
                                                                
 18 04 04  7  8  0.0000000  0 15G02G05G07G09G13G28G30R01R02R03R11R12 0.000000000
                                R13R18R19                   
  23630687.969                   124180070.486 6     -2669.551          44.300  
                  23630690.090    96763697.600 6     -2080.036          22.500  
                                                                
  20675521.508                   108650605.900 7       846.746          51.800  
                  20675526.082    84662826.061 8       660.073          39.200  
                                                                
  21170444.719                   111251446.793 8     -1657.801          53.500  
                  21170449.523    86689458.740 8     -1291.589          37.500  
                                                                
  23036477.195                   121057505.772 7     -2856.398          47.200  
                  23036483.211    94330541.509 7     -2225.644          27.100  
                                                                
  22754885.531                   119577751.843 6      2768.777          43.200  
                  22754889.988    93177486.106 6      2157.647          22.200  
                                                                
  23096328.891                   121372011.567 5      2976.730          41.900  
                  23096334.590    94575644.258 6      2319.566          21.100  
                                                                
  20277619.922                   106559621.164 8       -12.703          54.900  
                  20277626.598    83033505.731 9        -9.608          43.600  
                                                                
  21041415.070    21041413.832   112478427.343 7     -2842.297          47.400  
                  21041419.727    87483284.191 8     -2210.460          33.800  
                                                                
  19326405.336    19326404.109   103129425.592 9      1188.227          54.600  
                  19326406.527    80211771.939 9       924.471          41.200  
                                                                
  22591562.664    22591561.777   120934402.488 6      3689.738          44.100  
                  22591565.473    94060043.682 7      2869.871          32.700  
                                                                
  20345755.320    20345755.008   108721558.545 8     -2373.324          53.000  
                  20345757.504    84561111.428 8     -1845.547          39.700  
                                                                
  19411121.414    19411120.594   103690706.549 8      1508.973          51.900  
                                                                                
                                                                
  23247246.555    23247243.027   124138995.453 3      4454.824          36.500  
                                                                                
                                                                
  23560985.398    23560984.227   125770118.582 6     -2482.504          43.600  
                                                                                
                                                                
  23561601.672    23561600.277   126038684.687 5       572.629          40.700  
                                                                                
                                                                
 18 04 04  7  8 30.0000000  0 15G02G05G07G09G13G28G30R01R02R03R11R12 0.000000000
                                R13R18R19                   
  23645948.445                   124260263.915 6     -2676.824          43.900  
                  23645950.691    96826185.975 6     -2085.664          21.300  
                                                                
  20670738.531                   108625470.230 8       828.859          53.400  
                  20670743.133    84643239.823 8       646.165          39.000  
                                                                
  21179943.453                   111301363.985 8     -1670.090          52.500  
                  21179948.340    86728355.251 8     -1301.176          37.800  
                                                                
  23052796.695                   121143265.885 6     -2861.078          46.700  
                  23052803.684    94397367.541 7     -2229.275          27.900  
                                                                
  22739093.023                   119494760.068 6      2763.801          44.700  
                  22739097.207    93112817.190 6      2153.760          23.000  
                                                                
  23079357.156                   121282825.518 5      2968.984          41.400  
                  23079363.035    94506148.629 6      2313.640          20.100  
                                                                
  20277739.445                   106560251.699 8       -29.434          54.600  
                  20277746.527    83033997.062 9       -22.682          43.500  
                                                                
  21057402.719    21057401.949   112563892.822 7     -2855.480          47.000  
                  21057407.340    87549757.343 7     -2220.712          32.800  
                                                                
  19319770.734    19319769.438   103094021.821 8      1171.852          52.100  
                  19319772.246    80184235.666 9       911.712          41.400  
                                                                
  22570891.320    22570890.879   120823743.948 6      3687.383          43.700  
                  22570893.141    93973975.88717      2868.065          32.700  
                                                                
  20359136.086    20359135.727   108793061.168 8     -2393.676          52.200  
                  20359138.395    84616724.596 8     -1861.404          39.800  
                                                                
  19402718.180    19402717.031   103645815.526 8      1483.637          50.800  
                                                                                
                                                                
  23222233.500    23222230.887   124005431.506 4      4449.387          37.300  
                                                                                
                                                                
  23574985.359    23574984.355   125844855.373 6     -2500.203          41.100  
                                                                                
                                                                
  23558462.453    23558460.965   126021886.402 6       547.176          41.400  
                                                                                
                                                                
 18 04 04  7  9  0.0000000  0 15G02G05G07G09G13G28G30R01R02R03R11R12 0.000000000
                                R13R18R19                   
  23661250.109                   124340674.661 6     -2684.051          43.600  
                  23661252.289    96888843.618 6     -2091.252          22.200  
                                                                
  20666057.516                   108600871.251 8       810.922          53.100  
                  20666062.383    84624071.779 8       632.198          38.900  
                                                                
  21189512.578                   111351650.358 8     -1682.379          53.100  
                  21189517.430    86767539.416 8     -1310.726          37.600  
                                                                
  23069142.719                   121229166.988 7     -2865.770          47.200  
                  23069149.797    94464303.419 7     -2232.930          28.300  
                                                                
  22723329.086                   119411920.361 6      2758.758          44.400  
                  22723332.910    93048266.791 6      2149.814          23.000  
                                                                
  23062429.313                   121193871.769 5      2961.176          41.300  
                  23062434.773    94436834.039 6      2307.596          19.900  
                                                                
  20277955.641                   106561386.710 8       -46.305          55.200  
                  20277962.574    83034881.483 9       -35.777          43.400  
                                                                
  21073465.406    21073464.074   112649753.569 7     -2868.648          46.700  
                  21073469.742    87616537.878 7     -2230.893          32.700  
                                                                
  19313228.586    19313227.617   103059113.420 8      1155.250          53.000  
                  19313230.492    80157084.680 9       898.828          41.400  
                                                                
  22550232.453    22550232.109   120713157.527 6      3685.020          44.600  
                  22550233.953    93887964.25117      2866.188          32.200  
                                                                
  20372631.305    20372630.637   108865173.775 8     -2413.883          52.600  
                  20372633.574    84672812.135 8     -1877.153          39.500  
                                                                
  19394456.664    19394455.773   103601684.892 8      1458.285          51.800  
                                                                                
                                                                
  23197250.695    23197249.586   123872032.371 3      4443.848          36.100  
                                                                                
                                                                
  23589084.789    23589082.867   125920117.686 5     -2517.535          39.900  
                                                                                
                                                                
  23555464.344    23555462.785   126005852.514 5       521.668          39.900  
                                                                                
                                                                
 18 04 04  7  9 30.0000000  0 15G02G05G07G09G13G28G30R01R02R03R11R12 0.000000000
                                R13R18R19                   
  23676591.891                   124421300.310 6     -2691.066          42.600  
                  23676594.805    96951668.757 6     -2096.832          21.300  
                                                                
  20661479.078                   108576812.063 8       793.039          53.600  
                  20661483.809    84605324.358 8       618.138          39.700  
                                                                
  21199151.906                   111402304.435 8     -1694.437          53.600  
                  21199156.582    86807010.106 8     -1320.263          37.600  
                                                                
  23085515.992                   121315208.865 6     -2870.312          47.000  
                  23085523.578    94531349.003 7     -2236.598          28.900  
                                                                
  22707594.492                   119329234.707 6      2753.680          44.400  
                  22707598.621    92983836.423 6      2145.750          22.300  
                                                                
  23045546.703                   121105153.702 5      2953.379          41.300  
                  23045552.523    94367703.035 6      2301.415          20.900  
                                                                
  20278267.445                   106563026.011 8       -63.000          56.400  
                  20278274.707    83036158.872 9       -48.905          43.500  
                                                                
  21089601.820    21089599.996   112736008.874 7     -2881.750          46.900  
                  21089605.051    87683625.325 8     -2241.153          33.500  
                                                                
  19306780.031    19306779.016   103024702.941 9      1138.770          54.700  
                  19306782.145    80130320.956 9       885.914          41.600  
                                                                
  22529588.023    22529587.371   120602645.694 6      3682.496          44.900  
                  22529588.758    93802010.54917      2864.224          32.600  
                                                                
  20386239.945    20386239.137   108937893.105 8     -2433.988          52.800  
                  20386241.457    84729371.617 8     -1892.898          39.600  
                                                                
  19386338.281    19386336.758   103558316.191 8      1432.910          51.900  
                                                                                
                                                                
  23172301.344    23172300.211   123738801.783 4      4438.227          38.300  
                                                                                
                                                                
  23603280.891    23603280.027   125995902.319 6     -2534.777          41.100  
                  23603284.730    97996755.65117     -1971.280          30.800  
                                                                
  23552610.477    23552608.801   125990584.164 5       496.238          40.000  
                                                                                
                                                                
 18 04 04  7 10  0.0000000  0 15G02G05G07G09G13G28G30R01R02R03R11R12 0.000000000
                                R13R18R19                   
  23691974.609                   124502137.649 6     -2698.027          42.700  
                  23691977.680    97014658.844 6     -2102.272          21.100  
                                                                
  20657003.500                   108553293.142 8       774.883          54.000  
                  20657008.223    84586997.911 8       604.113          39.400  
                                                                
  21208861.117                   111453324.442 8     -1706.828          54.100  
                  21208865.078    86846765.953 8     -1329.757          36.900  
                                                                
  23101915.656                   121401390.411 6     -2875.156          45.800  
                  23101923.109    94598503.436 7     -2240.236          28.300  
                                                                
  22691889.180                   119246702.951 6      2748.379          44.700  
                  22691893.953    92919525.978 6      2141.746          22.600  
                                                                
  23028710.133                   121016673.677 5      2945.203          41.100  
                  23028715.719    94298757.579 6      2295.174          22.000  
                                                                
  20278675.180                   106565168.436 8       -79.855          54.200  
                  20278682.297    83037828.290 9       -61.940          43.600  
                                                                
  21105809.727    21105809.121   112822657.239 7     -2894.887          46.800  
                  21105814.953    87751018.443 7     -2251.328          32.600  
                                                                
  19300425.375    19300424.055   102990791.909 9      1121.922          53.900  
                  19300426.980    80103945.738 9       872.886          41.200  
                                                                
  22508957.148    22508956.402   120492210.254 6      3679.914          44.300  
                  22508959.262    93716116.444 7      2862.104          32.900  
                                                                
  20399961.094    20399960.570   109011215.364 8     -2454.184          52.300  
                  20399963.234    84786400.037 8     -1908.446          39.600  
                                                                
  19378361.797    19378360.836   103515710.328 8      1407.375          52.000  
                                                                                
                                                                
  23147384.656    23147382.465   123605742.727 4      4432.438          37.600  
                                                                                
                                                                
  23617575.648    23617574.598   126072204.875 6     -2551.934          41.100  
                  23617579.508    98056102.11517     -1984.682          30.900  
                                                                
  23549896.727    23549896.391   125976081.578 4       470.621          38.500  
                                                                                
                                                                
 18 04 04  7 10 30.0000000  0 15G02G05G07G09G13G28G30R01R02R03R11R12 0.000000000
                                R13R18R19                   
  23707397.391                   124583183.691 5     -2704.941          41.700  
                  23707400.500    97077811.541 6     -2107.681          21.100  
                                                                
  20652631.414                   108530315.425 8       756.863          52.700  
                  20652635.809    84569093.196 8       589.990          39.200  
                                                                
  21218639.172                   111504708.588 8     -1718.863          54.100  
                  21218643.598    86886805.541 8     -1339.233          37.900  
                                                                
  23118341.875                   121487711.159 6     -2879.723          45.500  
                  23118349.645    94665766.323 7     -2243.876          26.900  
                                                                
  22676213.477                   119164326.230 6      2743.363          45.100  
                  22676217.531    92855336.333 6      2137.712          22.600  
                                                                
  23011918.656                   120928434.338 6      2937.160          42.200  
                  23011924.043    94229999.681 6      2288.856          22.300  
                                                                
  20279178.625                   106567813.544 8       -96.516          55.500  
                  20279185.816    83039889.412 9       -75.026          43.600  
                                                                
  21122093.078    21122092.098   112909697.243 7     -2907.824          47.200  
                  21122096.746    87818716.170 7     -2261.476          32.000  
                                                                
  19294164.617    19294163.367   102957383.370 9      1105.203          53.900  
                  19294166.320    80077961.297 8       859.831          41.000  
                                                                
  22488342.602    22488342.207   120381854.079 7      3677.211          45.500  
                  22488343.887    93630283.871 8      2860.011          33.400  
                                                                
  20413794.359    20413794.023   109085137.267 9     -2473.984          53.100  
                  20413796.230    84843894.817 8     -1923.922          39.700  
                                                                
  19370529.172    19370527.719   103473868.454 8      1381.902          51.400  
                                                                                
                                                                
  23122498.977    23122497.090   123472858.784 3      4426.559          36.800  
                                                                                
                                                                
  23631966.984    23631965.344   126149021.591 6     -2569.051          42.300  
                                                                                
                                                                
  23547333.102    23547330.676   125962345.295 6       445.039          41.800  
                                                                                
                                                                
 18 04 04  7 11  0.0000000  0 15G02G05G07G09G13G28G30R01R02R03R11R12 0.000000000
                                R13R18R19                   
  23722858.391                   124664435.463 5     -2711.855          41.500  
                  23722861.613    97141124.601 6     -2113.003          20.100  
                                                                
  20648361.938                   108507880.085 7       738.805          51.600  
                  20648366.504    84551611.106 8       575.897          40.100  
                                                                
  21228485.938                   111556454.734 8     -1730.941          53.900  
                  21228490.383    86927127.197 8     -1348.608          37.300  
                                                                
  23134794.188                   121574170.329 6     -2884.332          45.000  
                  23134802.063    94733137.062 6     -2247.446          25.600  
                                                                
  22660567.641                   119082105.095 6      2738.105          44.700  
                  22660571.965    92791267.944 6      2133.642          24.400  
                                                                
  22995173.766                   120840438.849 6      2929.145          42.200  
                  22995179.566    94161431.768 6      2282.487          22.600  
                                                                
  20279777.617                   106570960.357 8      -113.285          55.100  
                  20279784.559    83042341.479 9       -88.038          43.500  
                                                                
  21138448.227    21138447.668   112997128.071 7     -2920.855          47.200  
                  21138453.273    87886717.86917     -2271.543          32.000  
                                                                
  19287998.273    19287996.836   102924478.808 9      1088.371          53.700  
                  19287999.742    80052368.859 9       846.723          41.300  
                                                                
  22467742.570    22467741.309   120271579.100 7      3674.438          45.500  
                  22467744.023    93544514.443 8      2857.956          33.900  
                                                                
  20427739.484    20427739.313   109159655.136 9     -2493.832          53.100  
                  20427741.441    84901853.191 8     -1939.417          39.800  
                                                                
  19362839.273    19362837.961   103432791.204 8      1356.410          51.700  
                                                                                
                                                                
  23097648.039    23097646.199   123340152.197 3      4420.535          36.800  
                                                                                
                                                                
  23646452.766    23646451.738   126226348.481 6     -2586.105          41.100  
                                                                                
                                                                
  23544907.070    23544905.465   125949375.650 4       419.609          38.100  
                                                                                
                                                                
 18 04 04  7 11 30.0000000  0 15G02G05G07G09G13G28G30R01R02R03R11R12 0.000000000
                                R13R18R19                   
  23738358.656                   124745890.545 5     -2718.570          40.400  
                  23738362.066    97204596.038 6     -2118.234          19.000  
                                                                
  20644196.141                   108485989.034 8       720.531          52.800  
                  20644201.047    84534553.137 8       561.742          40.000  
                                                                
  21238401.422                   111608562.210 8     -1742.957          53.900  
                  21238406.742    86967730.414 8     -1357.979          37.400  
                                                                
  23151273.625                   121660767.724 6     -2888.914          44.800  
                  23151281.453    94800615.502 7     -2251.021          26.100  
                                                                
  22644951.531                   119000040.681 6      2732.805          45.000  
                  22644955.773    92727321.663 6      2129.521          24.700  
                                                                
  22978475.273                   120752690.137 5      2920.734          40.700  
                  22978481.410    94093056.161 6      2276.057          21.100  
                                                                
  20280471.555                   106574608.708 8      -130.027          55.300  
                  20280478.816    83045184.350 9      -101.077          43.700  
                                                                
  21154876.992    21154876.082   113084948.996 7     -2933.910          46.100  
                  21154882.379    87955023.01217     -2281.732          33.000  
                                                                
  19281926.813    19281925.563   102892081.205 9      1071.520          54.300  
                  19281928.656    80027170.712 8       833.615          40.900  
                                                                
  22447157.930    22447157.066   120161387.559 7      3671.641          47.100  
                  22447158.086    93458809.929 7      2855.709          32.400  
                                                                
  20441795.383    20441795.328   109234766.109 9     -2513.590          53.500  
                  20441797.383    84960272.800 8     -1954.748          39.600  
                                                                
  19355292.891    19355291.977   103392480.562 8      1330.797          52.000  
                                                                                
                                                                
  23072830.563    23072827.879   123207627.185 4      4414.266          37.100  
                                                                                
                                                                
  23661033.617    23661032.730   126304182.043 5     -2602.863          40.400  
                                                                                
                                                                
  23542626.055    23542624.121   125937173.265 5       393.867          39.400  
                  23542627.418    97951058.72917       306.685          29.700  
                                                                
 18 04 04  7 12  0.0000000  0 15G02G05G07G09G13G28G30R01R02R03R11R12 0.000000000
                                R13R18R19                   
  23753897.586                   124827545.367 5     -2725.133          40.400  
                  23753901.207    97268223.190 6     -2123.375          18.600  
                                                                
  20640134.039                   108464642.530 8       702.328          52.800  
                  20640138.445    84517919.494 8       547.619          39.400  
                                                                
  21248385.578                   111661028.268 8     -1754.941          52.300  
                  21248390.289    87008613.044 8     -1367.237          37.600  
                                                                
  23167778.656                   121747501.994 6     -2893.453          44.700  
                  23167786.340    94868200.620 7     -2254.534          27.400  
                                                                
  22629364.852                   118918133.402 6      2727.480          43.900  
                  22629369.188    92663497.816 6      2125.479          24.400  
                                                                
  22961824.773                   120665190.609 5      2912.410          40.400  
                  22961831.051    94024874.730 6      2269.532          21.100  
                                                                
  20281261.227                   106578757.112 8      -146.738          55.600  
                  20281267.957    83048416.872 9      -114.023          43.700  
                                                                
  21171378.938    21171377.840   113173157.786 7     -2946.820          45.200  
                  21171383.934    88023629.857 7     -2291.720          33.000  
                                                                
  19275950.359    19275949.391   102860191.830 9      1054.324          54.100  
                  19275952.836    80002367.859 9       820.342          41.400  
                                                                
  22426589.273    22426588.668   120051281.961 7      3668.590          46.400  
                  22426590.348    93373172.256 7      2853.492          32.200  
                                                                
  20455961.570    20455961.305   109310465.880 8     -2533.238          52.400  
                  20455963.684    85019150.404 8     -1969.945          39.800  
                                                                
  19347890.086    19347889.102   103352936.223 8      1305.242          51.800  
                                                                                
                                                                
  23048046.375    23048044.605   123075286.235 3      4408.129          36.500  
                                                                                
                                                                
  23675707.508    23675707.582   126382517.706 4     -2619.594          38.300  
                                                                                
                                                                
  23540487.820    23540487.508   125925738.489 4       368.367          38.800  
                                                                                
                                                                
 18 04 04  7 12 30.0000000  0 15G02G05G07G09G13G28G30R01R02R03R11R12 0.000000000
                                R13R18R19                   
  23769473.766                   124909397.496 5     -2731.707          41.600  
                  23769477.016    97332003.999 6     -2128.491          20.400  
                                                                
  20636175.891                   108443842.024 8       684.191          53.900  
                  20636180.406    84501711.299 8       533.380          39.200  
                                                                
  21258437.438                   111713851.451 8     -1766.766          53.200  
                  21258442.191    87049773.941 8     -1376.529          37.500  
                                                                
  23184309.211                   121834372.914 6     -2898.000          44.300  
                  23184317.301    94935892.219 6     -2258.131          25.500  
                                                                
  22613808.039                   118836384.292 6      2722.215          43.600  
                  22613812.836    92599797.190 6      2121.324          24.500  
                                                                
  22945222.250                   120577943.436 5      2903.969          40.300  
                  22945228.113    93956889.897 6      2262.937          20.600  
                                                                
  20282145.805                   106583405.110 8      -163.391          55.600  
                  20282152.551    83052038.689 9      -127.025          43.600  
                                                                
  21187952.617    21187951.660   113261753.971 7     -2959.719          46.400  
                  21187957.207    88092537.971 7     -2301.770          32.600  
                                                                
  19270070.516    19270069.219   102828813.444 9      1037.344          54.100  
                  19270072.699    79977962.442 9       807.035          41.400  
                                                                
  22406036.164    22406036.313   119941264.668 7      3665.602          47.300  
                  22406038.445    93287603.253 8      2851.189          33.800  
                                                                
  20470237.805    20470236.715   109386751.113 9     -2552.648          53.300  
                  20470239.496    85078483.309 8     -1985.077          40.000  
                                                                
  19340631.336    19340630.328   103314159.894 8      1279.668          51.500  
                                                                                
                                                                
  23023298.383    23023296.613   122943132.474 3      4401.938          36.500  
                                                                                
                                                                
  23690476.344    23690475.125   126461351.598 3     -2636.012          36.600  
                                                                                
                                                                
  23538491.781    23538490.762   125915071.828 3       342.805          35.500  
                                                                                
                                                                
 18 04 04  7 13  0.0000000  0 14G02G05G07G09G13G28G30R01R02R03R11R12 0.000000000
                                R13R19                      
  23785087.102                   124991443.972 5     -2737.977          39.800  
                  23785090.012    97395936.309 6     -2133.517          19.900  
                                                                
  20632321.703                   108423588.871 8       666.047          54.300  
                  20632326.234    84485929.612 8       519.167          38.900  
                                                                
  21268557.148                   111767030.021 8     -1778.480          53.700  
                  21268561.867    87091211.778 8     -1385.713          36.900  
                                                                
  23200866.742                   121921379.758 6     -2902.395          44.500  
                  23200874.250    95003689.700 7     -2261.629          26.100  
                                                                
  22598282.414                   118754794.202 6      2716.984          43.400  
                  22598286.934    92536220.510 6      2117.229          24.000  
                                                                
  22928668.039                   120490951.273 5      2895.508          41.100  
                  22928674.016    93889103.799 6      2256.293          21.500  
                                                                
  20283125.000                   106588551.963 8      -179.793          56.300  
                  20283132.105    83056049.225 9      -139.940          43.700  
                                                                
  21204599.070    21204597.738   113350736.006 7     -2972.352          46.400  
                  21204603.512    88161746.228 7     -2311.779          32.400  
                                                                
  19264286.109    19264285.070   102797947.704 9      1020.340          53.200  
                  19264288.582    79953955.748 8       793.767          41.000  
                                                                
  22385501.727    22385500.840   119831337.228 7      3662.805          47.000  
                  22385502.719    93202104.128 8      2848.848          33.400  
                                                                
  20484622.070    20484621.875   109463618.384 8     -2571.832          53.000  
                  20484624.121    85138268.968 8     -2000.124          39.400  
                                                                
  19333515.695    19333514.852   103276152.085 8      1254.148          52.100  
                                                                                
                                                                
  22998586.813    22998583.590   122811169.689 4      4395.684          37.600  
                                                                                
                                                                
  23536644.305    23536643.238   125905173.194 5       317.270          40.300  
                  23536644.957    97926152.71417       246.958          29.900  
                                                                
 18 04 04  7 13 30.0000000  0 14G02G05G07G09G13G28G30R01R02R03R11R12 0.000000000
                                R13R19                      
  23800737.266                   125073681.722 5     -2744.273          41.100  
                  23800739.113    97460017.630 6     -2138.407          19.600  
                                                                
  20628572.148                   108403884.171 8       647.734          54.200  
                  20628576.660    84470575.290 8       504.943          40.200  
                                                                
  21278743.945                   111820562.480 8     -1790.172          53.500  
                  21278748.668    87132925.373 8     -1394.849          37.300  
                                                                
  23217449.617                   122008521.803 6     -2906.848          44.500  
                  23217456.848    95071592.529 7     -2265.089          26.900  
                                                                
  22582785.883                   118673363.652 6      2711.777          43.400  
                  22582791.734    92472768.141 6      2113.104          23.400  
                                                                
  22912163.563                   120404217.186 5      2886.926          41.300  
                  22912168.945    93821518.818 6      2249.576          21.100  
                                                                
  20284199.406                   106594196.854 8      -196.383          55.900  
                  20284206.328    83060447.839 9      -152.840          43.600  
                                                                
  21221315.922    21221314.871   113440102.748 7     -2985.195          45.900  
                  21221320.871    88231253.612 7     -2321.725          32.200  
                                                                
  19258598.063    19258597.047   102767597.140 9      1003.148          53.700  
                  19258600.777    79930349.727 9       780.426          41.100  
                                                                
  22364982.672    22364982.727   119721502.739 7      3659.688          46.200  
                  22364984.625    93116677.327 8      2846.415          34.500  
                                                                
  20499115.289    20499114.719   109541064.083 8     -2591.047          52.700  
                  20499116.906    85198504.521 8     -2015.060          39.400  
                                                                
  19326545.000    19326543.875   103238913.917 8      1228.488          51.900  
                                                                                
                                                                
  22973910.594    22973908.004   122679400.358 4      4389.211          37.700  
                                                                                
                                                                
  23534937.258    23534935.629   125896043.294 4       291.660          38.100  
                                                                                
                                                                
 18 04 04  7 14  0.0000000  0 14G02G05G07G09G13G28G30R01R02R03R11R12 0.000000000
                                R13R19                      
  23816422.625                   125156107.884 6     -2750.594          42.400  
                  23816423.816    97524245.728 6     -2143.242          19.300  
                                                                
  20624927.195                   108384728.876 8       629.328          54.000  
                  20624931.707    84455649.078 8       490.672          39.400  
                                                                
  21288997.789                   111874446.717 8     -1801.906          53.500  
                  21289002.332    87174913.084 8     -1403.958          36.500  
                                                                
  23234057.500                   122095798.287 6     -2911.426          44.600  
                  23234065.344    95139600.154 7     -2268.579          26.900  
                                                                
  22567320.703                   118592093.339 6      2706.398          43.900  
                  22567325.953    92409440.621 6      2108.934          24.700  
                                                                
  22895708.422                   120317743.951 6      2878.094          42.100  
                  22895713.469    93754137.083 6      2242.784          21.800  
                                                                
  20285368.156                   106600338.763 8      -212.937          56.200  
                  20285374.949    83065233.750 9      -165.725          43.700  
                                                                
  21238105.492    21238104.629   113529852.654 7     -2997.941          45.800  
                  21238110.313    88301059.08217     -2331.579          30.900  
                                                                
  19253007.445    19253006.406   102737763.764 9       985.895          53.900  
                  19253009.734    79907145.995 9       767.019          41.200  
                                                                
  22344483.242    22344483.203   119611762.936 7      3656.398          46.700  
                  22344484.504    93031324.179 8      2843.895          33.700  
                                                                
  20513714.867    20513715.164   109619084.364 9     -2610.156          53.500  
                  20513717.238    85259186.929 8     -2029.889          39.400  
                                                                
  19319718.664    19319717.023   103202445.885 8      1202.801          52.000  
                                                                                
                                                                
  22949269.250    22949267.719   122547827.743 4      4382.520          37.700  
                                                                                
                                                                
  23533373.594    23533370.465   125887681.772 5       266.090          39.200  
                                                                                
                                                                
 18 04 04  7 14 30.0000000  0 14G02G05G07G09G13G28G30R01R02R03R11R12 0.000000000
                                R13R19                      
  23832141.633                   125238719.657 5     -2756.824          39.700  
                  23832144.637    97588618.520 6     -2148.083          20.600  
                                                                
  20621386.938                   108366124.041 8       610.855          54.600  
                  20621391.219    84441151.802 8       476.315          39.500  
                                                                
  21299318.219                   111928681.411 8     -1813.656          52.700  
                  21299322.879    87217173.870 8     -1413.083          37.200  
                                                                
  23250691.313                   122183208.736 6     -2916.043          44.800  
                  23250698.949    95207712.158 7     -2272.093          27.600  
                                                                
  22551886.477                   118510984.281 6      2700.895          44.300  
                  22551891.156    92346238.805 6      2104.696          23.200  
                                                                
  22879303.648                   120231534.582 6      2869.113          42.300  
                  22879308.156    93686960.952 6      2235.906          22.900  
                                                                
  20286631.430                   106606977.101 8      -229.637          56.700  
                  20286638.148    83070406.477 9      -178.666          43.700  
                                                                
  21254966.664    21254966.223   113619985.024 6     -3010.832          44.300  
                  21254971.699    88371161.95617     -2341.527          31.500  
                                                                
  19247514.031    19247513.039   102708449.735 9       968.426          53.800  
                  19247516.211    79884346.224 9       753.475          41.600  
                                                                
  22324001.734    22324001.316   119502120.851 7      3652.969          46.600  
                  22324001.809    92946046.964 8      2841.299          33.700  
                                                                
  20528423.313    20528422.621   109697676.072 8     -2629.270          52.700  
                  20528424.934    85320313.817 8     -2044.701          39.400  
                                                                
  19313036.391    19313034.844   103166749.004 8      1176.941          52.800  
                                                                                
                                                                
  22924667.086    22924665.410   122416455.682 3      4375.582          36.400  
                                                                                
                                                                
  23531954.039    23531953.680   125880089.399 5       240.203          39.800  
                                                                                
                                                                
 18 04 04  7 15  0.0000000  0 14G02G05G07G09G13G28G30R01R02R03R11R12 0.000000000
                                R13R19                      
  23847896.953                   125321513.933 5     -2762.812          39.800  
                  23847899.816    97653133.482 6     -2152.792          19.300  
                                                                
  20617951.250                   108348070.765 8       592.594          53.900  
                  20617955.973    84427084.304 8       461.961          39.200  
                                                                
  21309704.984                   111983264.753 8     -1825.219          53.000  
                  21309709.805    87259706.333 8     -1422.118          37.300  
                                                                
  23267350.023                   122270752.529 6     -2920.316          44.500  
                  23267358.199    95275928.069 7     -2275.556          27.900  
                                                                
  22536482.703                   118430037.648 6      2695.570          44.000  
                  22536487.547    92283163.514 6      2100.455          24.800  
                                                                
  22862949.500                   120145591.818 6      2860.266          42.500  
                  22862953.992    93619992.617 6      2228.885          22.900  
                                                                
  20287988.742                   106614111.064 8      -246.082          56.000  
                  20287995.516    83075965.411 9      -191.537          43.800  
                                                                
  21271898.922    21271898.246   113710498.277 6     -3023.504          45.000  
                  21271903.137    88441561.12517     -2351.365          31.400  
                                                                
  19242118.719    19242117.234   102679656.899 9       951.125          54.500  
                  19242120.770    79861951.760 9       739.953          41.400  
                                                                
  22303538.281    22303537.465   119392578.368 7      3649.738          46.500  
                  22303538.770    92860847.284 8      2838.686          33.400  
                                                                
  20543237.031    20543236.012   109776835.438 8     -2648.039          52.300  
                  20543238.137    85381882.190 8     -2059.363          39.100  
                                                                
  19306498.180    19306496.867   103131823.850 8      1151.301          53.000  
                                                                                
                                                                
  22900105.609    22900102.199   122285286.462 3      4368.836          35.700  
                                                                                
                                                                
  23530679.266    23530677.637   125873266.122 5       214.555          39.900  
                                                                                
                                                                
 18 04 04  7 15 30.0000000  0 14G02G05G07G09G13G28G30R01R02R03R11R12 0.000000000
                                R13R19                      
  23863686.773                   125404487.853 5     -2768.730          39.400  
                  23863690.500    97717788.405 6     -2157.369          19.900  
                                                                
  20614621.094                   108330570.259 8       574.148          54.100  
                  20614625.625    84413447.543 8       447.600          40.100  
                                                                
  21320158.203                   112038195.147 8     -1836.824          53.800  
                  21320162.578    87302509.225 8     -1431.105          36.900  
                                                                
  23284034.078                   122358429.009 6     -2924.812          44.000  
                  23284042.480    95344247.348 6     -2278.985          25.300  
                                                                
  22521110.086                   118349254.034 6      2690.020          44.200  
                  22521114.566    92220215.255 6      2096.195          24.700  
                                                                
  22846645.523                   120059918.247 6      2851.320          42.600  
                  22846651.020    93553234.026 6      2221.864          22.600  
                                                                
  20289440.586                   106621739.722 8      -262.566          56.200  
                  20289447.750    83081909.812 9      -204.361          43.800  
                                                                
  21288902.984    21288902.566   113801391.279 7     -3036.105          47.200  
                  21288907.301    88512252.65217                        31.400  
                                                                
  19236820.945    19236819.391   102651387.678 9       933.531          53.400  
                  19236822.766    79839964.597 9       726.297          41.600  
                                                                
  22283092.328    22283092.266   119283138.213 6      3646.328          44.700  
                  22283094.195    92775727.148 8      2836.031          33.700  
                                                                
  20558155.320    20558155.242   109856558.938 8     -2666.863          52.800  
                  20558157.270    85443889.353 8     -2073.947          38.800  
                                                                
  19300104.469    19300103.250   103097671.179 8      1125.512          52.500  
                                                                                
                                                                
  22875578.125    22875576.852   122154323.725 3      4361.855          36.400  
                                                                                
                                                                
  23529546.383    23529543.910   125867212.071 5       189.043          39.700  
                                                                                
                                                                
 18 04 04  7 16  0.0000000  0 14G02G05G07G09G13G28G30R01R02R03R11R12 0.000000000
                                R13R19                      
  23879509.164                   125487638.539 5     -2774.551          41.100  
                  23879513.238    97782581.152 6     -2161.973          20.600  
                                                                
  20611396.156                   108313623.570 8       555.734          54.700  
                  20611400.746    84400242.317 8       433.222          40.100  
                                                                
  21330676.781                   112093470.453 8     -1848.203          53.400  
                  21330680.906    87345580.880 8     -1440.044          36.400  
                                                                
  23300744.031                   122446237.588 6     -2929.043          44.500  
                  23300751.504    95412669.574 7     -2282.395          26.200  
                                                                
  22505768.516                   118268634.053 6      2684.738          44.800  
                  22505772.887    92157394.483 6      2091.982          24.900  
                                                                
  22830394.109                   119974516.577 6      2842.203          42.600  
                  22830399.234    93486687.285 6      2214.760          21.800  
                                                                
  20290985.977                   106629862.316 8      -278.863          56.900  
                  20290993.422    83088239.108 9      -217.161          43.600  
                                                                
  21305976.977    21305976.043   113892662.575 7     -3048.621          45.700  
                  21305981.324    88583241.45217     -2371.034          32.000  
                                                                
  19231621.656    19231620.406   102623644.210 9       915.988          53.400  
                  19231623.953    79818386.335 9       712.634          41.500  
                                                                
  22262668.234    22262667.066   119173802.612 7      3642.805          46.700  
                  22262668.844    92690688.331 7      2833.333          32.600  
                                                                
  20573180.000    20573179.523   109936842.920 8     -2685.422          52.900  
                  20573181.449    85506332.435 8     -2088.475          38.900  
                                                                
  19293855.469    19293854.555   103064291.794 8      1099.820          52.100  
                                                                                
                                                                
  22851093.891    22851092.430   122023569.805 4      4355.113          37.200  
                                                                                
                                                                
  23528559.922    23528557.824   125861927.477 6       163.457          42.200  
                                                                                
                                                                
 18 04 04  7 16 30.0000000  0 14G02G05G07G09G13G28G30R01R02R03R11R12 0.000000000
                                R13R19                      
  23895366.148                   125570962.918 5     -2780.277          40.600  
                  23895369.598    97847509.176 6     -2166.411          19.000  
                                                                
  20608276.836                   108297231.124 8       537.105          54.600  
                  20608281.664    84387468.973 8       418.786          39.900  
                                                                
  21341260.859                   112149088.865 8     -1859.672          53.400  
                  21341264.855    87388919.886 8     -1448.946          36.100  
                                                                
  23317477.813                   122534177.287 6     -2933.496          42.800  
                  23317486.016    95481193.982 6     -2285.821          24.200  
                                                                
  22490458.000                   118188178.494 6      2679.055          43.900  
                  22490463.176    92094701.872 6      2087.670          26.000  
                                                                
  22814195.055                   119889390.092 5      2832.988          41.800  
                  22814199.965    93420354.967 6      2207.610          21.800  
                                                                
  20292625.711                   106638477.683 8      -295.406          56.700  
                  20292632.777    83094952.371 9      -229.980          43.700  
                                                                
  21323121.234    21323120.629   113984310.933 7     -3061.195          45.900  
                  21323126.539    88654523.50317     -2380.844          32.100  
                                                                
  19226521.102    19226520.086   102596428.304 9       898.301          53.600  
                  19226523.559    79797218.396 9       698.951          41.400  
                                                                
  22242262.484    22242262.305   119064573.786 7      3639.094          45.800  
                  22242263.711    92605732.567 8      2830.509          33.100  
                                                                
  20588308.414    20588307.535   110017683.419 9     -2703.945          53.400  
                  20588309.727    85569208.371 8     -2102.854          38.600  
                                                                
  19287751.359    19287750.563   103031685.858 8      1073.938          51.600  
                                                                                
                                                                
  22826648.891    22826646.512   121893028.829 4      4347.887          38.000  
                                                                                
                                                                
  23527715.055    23527712.559   125857411.947 5       137.695          40.000  
                                                                                
                                                                
 18 04 04  7 17  0.0000000  0 14G02G05G07G09G13G28G30R01R02R03R11R12 0.000000000
                                R13R19                      
  23911254.766                   125654458.362 5     -2786.012          39.800  
                  23911258.254    97912570.546 6     -2170.828          20.900  
                                                                
  20605263.156                   108281394.365 8       518.574          54.500  
                  20605267.684    84375128.629 8       404.359          40.200  
                                                                
  21351909.617                   112205048.647 8     -1871.000          53.200  
                  21351913.465    87432524.908 8     -1457.778          36.000  
                                                                
  23334237.727                   122622247.615 6     -2937.836          44.300  
                  23334245.348    95549820.158 6     -2289.152          25.400  
                                                                
  22475179.438                   118107888.268 6      2673.668          45.000  
                  22475184.516    92032138.068 7      2083.390          26.400  
                                                                
  22798048.508                   119804541.313 5      2823.652          41.600  
                  22798053.781    93354239.047 6      2200.343          21.800  
                                                                
  20294358.859                   106647585.030 8      -311.797          56.100  
                  20294365.844    83102049.005 9      -242.725          43.900  
                                                                
  21340337.219    21340336.027   114076334.892 7     -3073.781          46.600  
                  21340341.563    88726097.590 7     -2390.529          31.900  
                                                                
  19221520.188    19221519.172   102569741.976 9       880.695          53.600  
                  19221522.758    79776462.359 9       685.235          41.300  
                                                                
  22221877.500    22221878.070   118955454.115 7      3635.469          45.900  
                  22221879.063    92520861.76818      2827.659          33.600  
                                                                
  20603539.758    20603539.043   110099077.041 9     -2722.281          53.800  
                  20603541.414    85632514.504 8     -2117.064          38.300  
                                                                
  19281792.594    19281791.516   102999854.316 8      1048.102          51.300  
                                                                                
                                                                
  22802241.750    22802239.863   121762703.764 4      4340.664          38.200  
                                                                                
                                                                
  23527013.719    23527013.004   125853665.498 5       112.059          39.200  
                                                                                
                                                                
 18 04 04  7 17 30.0000000  0 14G02G05G07G09G13G28G30R01R02R03R11R12 0.000000000
                                R13R19                      
  23927176.563                   125738121.820 6     -2791.547          42.600  
                  23927179.117    97977762.796 6     -2175.164          20.900  
                                                                
  20602355.719                   108266114.074 8       500.059          54.500  
                  20602360.262    84363221.907 8       389.897          39.600  
                                                                
  21362622.875                   112261348.302 8     -1882.293          53.800  
                  21362627.262    87476394.753 8     -1466.569          35.500  
                                                                
  23351021.500                   122710447.859 6     -2942.184          43.100  
                  23351028.422    95618547.583 6     -2292.548          25.900  
                                                                
  22459932.641                   118027764.246 6      2667.988          45.200  
                  22459937.754    91969703.761 6      2079.010          24.900  
                                                                
  22781956.016                   119719972.926 6      2814.234          44.000  
                  22781961.191    93288341.595 6      2193.016          21.800  
                                                                
  20296185.430                   106657183.405 8      -328.121          56.500  
                  20296192.160    83109528.254 9      -255.477          43.600  
                                                                
  21357622.258    21357620.832   114168733.063 6     -3086.211          45.000  
                  21357626.523    88797962.83717     -2400.060          31.200  
                                                                
  19216619.031    19216617.688   102543587.144 9       862.977          53.700  
                  19216621.336    79756119.700 9       671.411          41.500  
                                                                
  22201516.000    22201514.949   118846446.326 7      3631.734          46.800  
                  22201516.371    92436077.940 8      2824.725          33.800  
                                                                
  20618873.750    20618873.625   110181020.017 9     -2740.562          53.300  
                  20618875.777    85696247.935 8     -2131.338          38.200  
                                                                
  19275978.102    19275977.516   102968797.314 8      1022.309          52.000  
                                                                                
                                                                
  22777876.227    22777875.211   121632596.876 3      4333.238          36.700  
                                                                                
                                                                
  23526457.383    23526456.199   125850688.096 5        86.430          39.800  
                                                                                
                                                                
 18 04 04  7 18  0.0000000  0 14G02G05G07G09G13G28G30R01R02R03R11R12 0.000000000
                                R13R19                      
  23943128.211                   125821950.342 6     -2797.086          42.900  
                  23943130.172    98043083.687 6     -2179.395          20.400  
                                                                
  20599554.023                   108251391.538 8       481.387          54.500  
                  20599558.391    84351749.789 8       375.403          39.700  
                                                                
  21373400.750                   112317986.165 8     -1893.625          52.600  
                  21373404.918    87520528.150 8     -1475.320          36.100  
                                                                
  23367830.664                   122798777.537 6     -2946.574          43.500  
                  23367837.492    95687375.841 6     -2295.894          24.500  
                                                                
  22444717.469                   117947807.401 6      2662.465          46.400  
                  22444722.457    91907399.726 6      2074.680          24.900  
                                                                
  22765917.063                   119635688.113 6      2804.668          43.400  
                  22765922.445    93222665.139 6      2185.640          22.600  
                                                                
  20298105.148                   106667272.062 8      -344.602          56.500  
                  20298112.004    83117389.543 9      -268.178          43.700  
                                                                
  21374975.883    21374976.285   114261504.461 7     -3098.758          45.500  
                  21374981.293    88870118.30617     -2409.870          30.800  
                                                                
  19211817.891    19211816.359   102517966.305 9       844.969          53.900  
                  19211819.941    79736192.386 9       657.523          41.900  
                                                                
  22181172.797    22181171.676   118737552.456 7      3627.754          46.000  
                  22181174.535    92351382.787 8      2821.730          33.400  
                                                                
  20634310.828    20634310.328   110263508.872 9     -2758.754          53.200  
                  20634312.594    85760405.918 8     -2145.393          37.800  
                                                                
  19270309.609    19270308.813   102938515.901 8       996.395          52.000  
                                                                                
                                                                
  22753552.836    22753550.504   121502712.139 4      4325.652          37.100  
                                                                                
                                                                
  23526045.047    23526043.207   125848480.007 4        60.773          38.600  
                                                                                
                                                                
 18 04 04  7 18 30.0000000  0 14G02G05G07G09G13G28G30R01R02R03R11R12 0.000000000
                                R13R19                      
  23959110.398                   125905940.921 5     -2802.309          40.000  
                  23959112.867    98108530.841 6     -2183.592          20.100  
                                                                
  20596858.453                   108237227.416 8       462.891          54.500  
                  20596863.164    84340712.799 8       360.863          39.400  
                                                                
  21384242.445                   112374960.496 7     -1904.703          51.700  
                  21384246.684    87564923.718 8     -1484.071          36.100  
                                                                
  23384663.023                   122887236.050 6     -2950.816          43.000  
                  23384670.574    95756304.483 6     -2299.251          24.500  
                                                                
  22429534.297                   117868018.405 6      2656.762          46.400  
                  22429538.934    91845226.499 6      2070.292          25.200  
                                                                
  22749933.352                   119551689.301 6      2795.117          43.600  
                  22749938.516    93157211.542 6      2178.150          22.600  
                                                                
  20300117.875                   106677850.072 8      -360.734          56.400  
                  20300124.371    83125632.153 9      -280.901          43.700  
                                                                
  21392401.344    21392400.785   114354647.607 7     -3110.930          45.600  
                  21392405.230    88942562.95717     -2419.519          30.200  
                                                                
  19207117.453    19207115.711   102492881.259 9       827.227          53.700  
                  19207118.688    79716681.799 9       643.578          41.600  
                                                                
  22160854.469    22160852.832   118628775.647 7      3623.953          47.600  
                  22160853.801    92266778.589 8      2818.582          33.700  
                                                                
  20649849.055    20649848.457   110346539.936 8     -2776.664          52.700  
                  20649850.902    85824985.624 8     -2159.434          38.000  
                                                                
  19264786.375    19264785.227   102909010.368 8       970.613          51.600  
                                                                                
                                                                
  22729270.289    22729270.023   121373052.869 3      4318.309          36.400  
                                                                                
                                                                
  23525775.477    23525773.988   125847041.159 4        35.219          39.000  
                                                                                
                                                                
 18 04 04  7 19  0.0000000  0 14G02G05G07G09G13G28G30R01R02R03R11R12 0.000000000
                                R13R19                      
  23975124.133                   125990090.673 5     -2807.605          39.800  
                  23975125.844    98174102.009 6     -2187.654          20.100  
                                                                
  20594269.570                   108223622.913 8       444.297          54.500  
                  20594274.461    84330111.880 8       346.368          40.500  
                                                                
  21395148.336                   112432269.527 7     -1915.762          52.000  
                  21395152.488    87609580.095 8     -1492.702          35.500  
                                                                
  23401520.961                   122975822.598 6     -2954.910          45.000  
                  23401527.477    95825332.942 6     -2302.538          25.300  
                                                                
  22414382.609                   117788398.179 6      2651.336          44.600  
                  22414387.738    91783184.747 6      2065.978          25.800  
                                                                
  22734003.477                   119467979.310 6      2785.504          43.800  
                  22734007.793    93091983.012 6      2170.673          22.000  
                                                                
  20302223.828                   106688916.422 8      -376.883          55.900  
                  20302230.430    83134255.280 9      -293.526          43.700  
                                                                
  21409894.984    21409893.746   114448160.937 7     -3123.184          45.200  
                  21409899.680    89015295.48917     -2429.046          31.300  
                                                                
  19202516.719    19202515.727   102468334.086 9       809.254          53.800  
                  19202518.566    79697589.528 9       629.675          41.200  
                                                                
  22140554.016    22140554.164   118520117.850 7      3619.910          47.000  
                  22140555.879    92182266.951 8      2815.563          34.200  
                                                                
  20665487.180    20665487.055   110430109.396 8     -2794.520          53.000  
                  20665489.695    85889984.061 8     -2173.317          38.700  
                                                                
  19259407.938    19259407.094   102880280.849 8       944.805          50.900  
                                                                                
                                                                
  22705033.852    22705032.438   121243621.657 4      4310.711          37.600  
                                                                                
                                                                
  23525651.297    23525650.043   125846371.080 4         9.707          38.000  
                                                                                
                                                                
 18 04 04  7 19 30.0000000  0 14G02G05G07G09G13G28G30R01R02R03R11R12 0.000000000
                                R13R19                      
  23991166.914                   126074396.895 5     -2812.742          41.400  
                  23991168.582    98239795.145 6     -2191.710          20.100  
                                                                
  20591787.578                   108210578.794 8       425.508          54.900  
                  20591792.383    84319947.627 8       331.767          40.500  
                                                                
  21406116.766                   112489911.343 8     -1926.898          52.700  
                  21406121.340    87654495.786 8     -1501.365          35.500  
                                                                
  23418402.711                   123064536.732 6     -2959.250          44.200  
                  23418410.230    95894460.767 6     -2305.850          25.800  
                                                                
  22399263.836                   117708947.472 6      2645.539          45.200  
                  22399268.672    91721275.121 7      2061.523          26.200  
                                                                
  22718129.547                   119384561.071 6      2775.695          45.300  
                  22718133.613    93026981.811 6      2163.017          22.300  
                                                                
  20304422.547                   106700470.246 9      -393.207          57.200  
                  20304429.152    83143258.256 9      -306.219          43.700  
                                                                
  21427457.539    21427455.973   114542043.494 6     -3135.520          45.000  
                  21427461.863    89088315.24817     -2438.630          31.500  
                                                                
  19198017.570    19198016.508   102444326.989 9       791.203          53.500  
                  19198019.859    79678917.338 9       615.589          41.800  
                                                                
  22120278.844    22120278.191   118411582.042 7      3615.816          47.800  
                  22120280.363    92097850.224 8      2812.331          35.100  
                                                                
  20681226.281    20681226.109   110514213.769 8     -2812.270          52.200  
                  20681229.125    85955398.562 8     -2187.179          38.100  
                                                                
  19254174.281    19254173.906   102852328.098 8       918.805          51.200  
                                                                                
                                                                
  22680839.461    22680837.715   121114421.946 4      4302.633          38.000  
                                                                                
                                                                
  23525670.977    23525667.988   125846469.758 5       -16.047          39.800  
                                                                                
                                                                
 18 04 04  7 20  0.0000000  0 14G02G05G07G09G13G28G30R01R02R03R11R12 0.000000000
                                R13R19                      
  24007236.836                   126158856.508 4     -2817.734          37.400  
                  24007241.730    98305607.777 6     -2195.643          19.300  
                                                                
  20589412.094                   108198095.683 8       406.813          55.000  
                  20589416.570    84310220.520 8       317.171          39.700  
                                                                
  21417148.742                   112547884.042 7     -1937.844          52.000  
                  21417153.223    87699669.301 8     -1509.941          36.300  
                                                                
  23435308.234                   123153377.679 6     -2963.473          43.600  
                  23435316.098    95963687.449 6     -2309.186          24.800  
                                                                
  22384177.875                   117629667.176 6      2639.891          46.300  
                  22384182.004    91659498.268 6      2057.070          25.500  
                                                                
  22702311.641                   119301437.293 6      2765.918          45.300  
                  22702315.449    92962210.050 6      2155.323          22.900  
                                                                
  20306713.773                   106712510.489 9      -409.391          57.500  
                  20306720.566    83152640.262 9      -318.847          43.600  
                                                                
  21445088.867    21445088.074   114636293.718 6     -3147.828          45.000  
                  21445093.621    89161620.92317     -2448.173          31.600  
                                                                
  19193620.203    19193619.328   102420861.806 9       773.129          53.700  
                  19193622.605    79660666.610 9       601.539          41.500  
                                                                
  22100027.516    22100026.066   118303170.033 7      3611.695          47.900  
                  22100028.813    92013529.757 8      2809.100          35.400  
                                                                
  20697065.383    20697064.762   110598849.306 8     -2829.937          52.900  
                  20697066.953    86021226.211 8     -2200.918          37.300  
                                                                
  19249087.453    19249086.398   102825152.055 8       892.953          51.600  
                                                                                
                                                                
  22656688.930    22656686.715   120985456.984 4      4295.059          37.600  
                                                                                
                                                                
  23525831.078    23525829.566   125847336.796 5       -41.621          39.900  
                                                                                
                                                                
 18 04 04  7 20 30.0000000  0 14G02G05G07G09G13G28G30R01R02R03R11R12 0.000000000
                                R13R19                      
  24023338.750                   126243467.300 4     -2822.687          37.700  
                  24023342.422    98371538.187 6     -2199.466          19.300  
                                                                
  20587143.758                   108186175.717 8       388.043          54.400  
                  20587148.984    84300932.222 8       302.562          40.400  
                                                                
  21428243.367                   112606187.062 8     -1948.805          52.800  
                  21428247.836    87745100.212 8     -1518.477          35.100  
                                                                
  23452238.922                   123242345.567 6     -2967.566          43.200  
                  23452246.355    96033013.010 6     -2312.389          24.200  
                                                                
  22369123.984                   117550559.131 6      2634.113          45.000  
                  22369128.273    91597855.658 7      2052.608          26.500  
                                                                
  22686550.859                   119218611.810 6      2755.953          45.300  
                  22686554.375    92897670.739 6      2147.607          24.500  
                                                                
  20309097.500                   106725037.025 8      -425.500          55.800  
                  20309104.410    83162401.199 9      -331.446          43.400  
                                                                
  21462789.531    21462788.363   114730910.867 7     -3159.879          46.000  
                  21462793.965    89235212.03817     -2457.628          31.900  
                                                                
  19189325.141    19189323.914   102397941.347 9       755.051          53.700  
                  19189327.391    79642839.609 9       587.416          41.300  
                                                                
  22079798.852    22079797.543   118194885.772 7      3607.418          47.500  
                  22079799.645    91929308.644 8      2805.803          35.600  
                                                                
  20713002.969    20713002.301   110684013.070 8     -2847.418          52.700  
                  20713004.633    86087464.677 8     -2214.537          37.800  
                                                                
  19244145.680    19244144.695   102798754.014 8       867.105          51.700  
                                                                                
                                                                
  22632582.008    22632579.441   120856730.090 4      4287.039          38.800  
                                                                                
                                                                
  23526137.602    23526135.926   125848972.665 5       -67.379          40.400  
                                                                                
                                                                
 18 04 04  7 21  0.0000000  0 14G02G05G07G09G13G28G30R01R02R03R11R12 0.000000000
                                R13R19                      
  24039466.852                   126328224.716 4     -2827.789          37.100  
                  24039472.145    98437582.889 6     -2203.282          18.600  
                                                                
  20584982.180                   108174817.726 8       369.215          55.100  
                  20584986.805    84292081.829 8       287.955          40.300  
                                                                
  21439400.203                   112664816.712 8     -1959.723          53.000  
                  21439404.785    87790785.644 8     -1526.922          35.700  
                                                                
  23469192.344                   123331438.082 6     -2971.762          44.500  
                  23469200.637    96102435.714 6     -2315.645          24.500  
                                                                
  22354101.836                   117471621.928 6      2628.406          44.500  
                  22354107.266    91536346.156 6      2048.163          25.500  
                                                                
  22670846.250                   119136085.227 6      2745.824          44.100  
                  22670850.578    92833364.343 6      2139.768          24.300  
                                                                
  20311572.883                   106738047.012 8      -441.719          56.400  
                  20311580.031    83172538.855 9      -343.973          43.400  
                                                                
  21480557.344    21480556.809   114825891.980 7     -3172.137          46.100  
                  21480561.836    89309086.18217     -2467.002          30.600  
                                                                
  19185131.805    19185131.000   102375565.728 9       736.719          53.500  
                  19185134.453    79625436.342 9       573.240          41.700  
                                                                
  22059594.453    22059593.707   118086729.796 7      3603.039          46.300  
                  22059596.031    91845187.346 8      2802.416          35.500  
                                                                
  20729037.352    20729037.414   110769699.435 8     -2864.945          52.900  
                  20729039.141    86154109.609 8     -2228.011          37.400  
                                                                
  19239349.461    19239348.758   102773132.792 8       841.141          52.000  
                                                                                
                                                                
  22608519.805    22608517.918   120728243.097 4      4278.762          38.300  
                                                                                
                                                                
  23526587.219    23526585.707   125851375.461 5       -92.871          40.900  
                                                                                
                                                                
 18 04 04  7 21 30.0000000  0 14G02G05G07G09G13G28G30R01R02R03R11R12 0.000000000
                                R13R19                      
  24055624.695                   126413126.530 5     -2832.430          39.600  
                  24055628.406    98503740.102 6     -2207.008          19.000  
                                                                
  20582928.172                   108164023.025 8       350.324          54.800  
                  20582933.090    84283670.370 8       273.285          40.000  
                                                                
  21450619.188                   112723772.034 7     -1970.613          51.800  
                  21450623.500    87836724.844 8     -1535.387          35.400  
                                                                
  23486170.219                   123420655.276 6     -2976.082          44.900  
                  23486177.488    96171955.542 6     -2318.901          24.200  
                                                                
  22339114.188                   117392857.767 6      2622.473          45.300  
                  22339118.160    91474971.493 7      2043.622          26.600  
                                                                
  22655198.523                   119053861.034 6      2735.711          45.800  
                  22655203.789    92769293.557 6      2131.875          24.000  
                                                                
  20314140.359                   106751540.255 8      -457.910          56.100  
                  20314147.898    83183053.068 9      -356.535          43.300  
                                                                
  21498394.266    21498393.074   114921236.181 7     -3184.262          45.500  
                  21498397.816    89383242.72217     -2476.331          30.500  
                                                                
  19181041.945    19181040.414   102353737.654 9       718.414          53.500  
                  19181043.371    79608458.926 9       559.021          41.500  
                                                                
  22039413.102    22039412.875   117978704.951 7      3598.531          46.200  
                  22039416.105    91761168.056 8      2798.970          36.100  
                                                                
  20745170.445    20745169.875   110855905.810 9     -2882.219          53.400  
                  20745171.867    86221158.992 8     -2241.434          37.800  
                                                                
  19234699.094    19234697.688   102748289.072 8       815.086          51.900  
                                                                                
                                                                
  22584503.945    22584501.637   120599999.784 4      4270.438          38.000  
                                                                                
                                                                
  23527179.594    23527178.012   125854545.400 6      -118.426          41.300  
                                                                                
                                                                
 18 04 04  7 22  0.0000000  0 14G02G05G07G09G13G28G30R01R02R03R11R12 0.000000000
                                R13R19                      
  24071809.852                   126498170.388 5     -2837.035          41.500  
                  24071811.676    98570008.074 6     -2210.620          18.300  
                                                                
  20580981.500                   108153793.214 8       331.672          54.600  
                  20580986.449    84275699.078 8       258.661          40.600  
                                                                
  21461899.789                   112783051.307 8     -1981.242          52.600  
                  21461904.324    87882916.469 8     -1543.736          35.300  
                                                                
  23503171.148                   123509996.766 6     -2980.121          43.400  
                  23503178.430    96241572.241 6     -2322.076          22.800  
                                                                
  22324158.289                   117314267.647 6      2616.867          45.100  
                  22324163.297    91413732.442 6      2039.166          25.300  
                                                                
  22639610.320                   118971942.597 6      2725.484          45.000  
                  22639615.480    92705461.062 6      2123.937          23.000  
                                                                
  20316799.984                   106765515.970 8      -473.816          55.900  
                  20316806.879    83193943.231 9      -369.004          43.200  
                                                                
  21516297.094    21516296.512   115016942.599 7     -3196.152          45.200  
                  21516301.941    89457681.05917     -2485.803          31.100  
                                                                
  19177053.695    19177052.938   102332459.329 9       700.238          53.600  
                  19177056.270    79591909.136 9       544.819          41.200  
                                                                
  22019259.102    22019258.215   117870814.636 7      3594.105          47.000  
                  22019260.820    91677253.338 8      2795.503          36.300  
                                                                
  20761399.055    20761398.363   110942628.451 9     -2899.227          53.200  
                  20761400.668    86288609.923 8     -2254.718          37.700  
                                                                
  19230193.672    19230192.500   102724223.360 8       789.293          52.100  
                                                                                
                                                                
  22560532.500    22560531.953   120472003.311 4      4262.531          37.300  
                                                                                
                                                                
  23527914.883    23527913.207   125858482.292 5      -143.957          40.600  
                                                                                
                                                                
 18 04 04  7 22 30.0000000  0 14G02G05G07G09G13G28G30R01R02R03R11R12 0.000000000
                                R13R19                      
  24088017.930                   126583352.849 5     -2841.613          39.900  
                  24088021.348    98636383.981 6     -2214.202          20.400  
                                                                
  20579142.281                   108144128.504 8       312.840          53.800  
                  20579146.984    84268168.127 8       243.947          40.200  
                                                                
  21473241.453                   112842652.934 8     -1991.957          52.300  
                  21473245.930    87929359.282 8     -1552.106          35.800  
                                                                
  23520195.898                   123599461.895 6     -2984.148          43.800  
                  23520202.961    96311285.277 6     -2325.288          22.200  
                                                                
  22309236.555                   117235852.236 6      2611.078          45.400  
                  22309241.340    91352629.550 6      2034.581          25.700  
                                                                
  22624080.633                   118890332.255 6      2715.328          44.700  
                  22624085.652    92641868.606 6      2115.883          22.600  
                                                                
  20319551.156                   106779973.137 8      -489.820          56.700  
                  20319558.262    83205208.544 9      -381.522          43.100  
                                                                
  21534268.500    21534267.121   115113009.490 6     -3208.160          44.100  
                  21534273.805    89532399.67017     -2495.281          30.000  
                                                                
  19173169.766    19173168.633   102311732.888 9       681.809          54.300  
                  19173171.902    79575788.548 9       530.446          41.300  
                                                                
  21999129.820    21999128.652   117763061.235 7      3589.516          47.400  
                  21999131.715    91593445.114 8      2791.901          36.700  
                                                                
  20777723.547    20777723.094   111029863.775 8     -2916.246          52.300  
                  20777725.609    86356459.616 8     -2268.032          37.400  
                                                                
  19225833.781    19225833.078   102700935.346 8       763.418          52.100  
                                                                                
                                                                
  22536611.234    22536609.230   120344257.207 4      4254.191          38.600  
                                                                                
                                                                
  23528793.563    23528793.531   125863185.962 5      -169.469          40.100  
                                                                                
                                                                
 18 04 04  7 23  0.0000000  0 14G02G05G07G09G13G28G30R01R02R03R11R12 0.000000000
                                R13R19                      
  24104253.695                   126668671.079 5     -2846.125          40.100  
                  24104255.902    98702865.736 6     -2217.796          18.600  
                                                                
  20577411.055                   108135029.835 8       293.801          54.900  
                  20577415.836    84261078.245 8       229.175          40.700  
                                                                
  21484644.539                   112902575.201 8     -2002.687          53.700  
                  21484648.777    87976051.949 8     -1560.446          35.900  
                                                                
  23537243.234                   123689049.862 6     -2988.281          43.700  
                  23537250.176    96381094.062 6     -2328.515          22.900  
                                                                
  22294347.523                   117157612.214 6      2605.086          45.500  
                  22294352.324    91291663.318 7      2029.972          27.600  
                                                                
  22608610.023                   118809032.932 6      2704.773          44.100  
                  22608614.980    92578518.514 6      2107.718          24.700  
                                                                
  20322393.578                   106794910.574 8      -505.930          56.300  
                  20322400.629    83216848.101 9      -394.022          43.300  
                                                                
  21552307.453    21552305.371   115209435.447 6     -3220.238          44.600  
                  21552312.223    89607397.57217     -2504.412          30.800  
                                                                
  19169389.398    19169388.242   102291559.727 9       663.199          54.500  
                  19169391.770    79560098.306 8       516.042          40.900  
                                                                
  21979026.758    21979026.387   117655447.063 7      3584.824          48.600  
                  21979028.059    91509745.256 8      2788.204          36.700  
                                                                
  20794143.859    20794143.168   111117607.692 8     -2933.262          52.500  
                  20794145.680    86424704.857 8     -2281.210          37.800  
                                                                
  19221620.383    19221619.117   102678425.495 8       737.359          51.600  
                                                                                
                                                                
  22512737.563    22512734.996   120216764.311 4      4245.449          38.400  
                                                                                
                                                                
  23529816.219    23529815.082   125868655.334 5      -195.020          40.100  
                                                                                
                                                                
 18 04 04  7 23 30.0000000  0 14G02G05G07G09G13G28G30R01R02R03R11R12 0.000000000
                                R13R19                      
  24120513.797                   126754122.217 4     -2850.422          38.100  
                  24120517.676    98769450.977 5     -2221.137          17.800  
                                                                
  20575787.563                   108126498.276 8       275.047          54.400  
                  20575792.586    84254430.268 8       214.481          39.900  
                                                                
  21496107.703                   112962816.177 8     -2013.262          53.100  
                  21496112.363    88022992.958 8     -1568.689          35.400  
                                                                
  23554315.109                   123778760.242 6     -2992.324          43.800  
                  23554321.836    96450998.192 6     -2331.667          22.300  
                                                                
  22279493.180                   117079548.850 6      2599.188          46.000  
                  22279497.949    91230834.720 7      2025.394          27.400  
                                                                
  22593199.047                   118728047.337 6      2694.348          46.500  
                  22593204.047    92515412.882 6      2099.569          25.600  
                                                                
  20325327.336                   106810327.368 8      -521.809          56.200  
                  20325334.066    83228861.188 9      -406.442          43.500  
                                                                
  21570412.352    21570411.137   115306218.978 6     -3231.984          44.900  
                  21570417.117    89682673.697 7     -2513.726          30.500  
                                                                
  19165713.016    19165711.719   102271942.412 9       644.754          54.000  
                  19165714.973    79544840.373 9       501.638          41.200  
                                                                
  21958950.445    21958949.535   117547974.967 7      3580.090          48.500  
                  21958951.836    91426155.861 8      2784.493          36.300  
                                                                
  20810658.742    20810658.172   111205856.759 8     -2949.988          52.100  
                  20810660.508    86493343.030 8     -2294.275          38.500  
                                                                
  19217551.828    19217551.008   102656694.135 8       711.488          52.200  
                                                                                
                                                                
  22488908.797    22488907.523   120089527.511 5      4236.992          40.200  
                                                                                
                                                                
  23530982.164    23530981.098   125874890.343 6      -220.598          41.300  
                                                                                
                                                                
 18 04 04  7 24  0.0000000  0 14G02G05G07G09G13G28G30R01R02R03R11R12 0.000000000
                                R13R19                      
  24136798.719                   126839703.256 3     -2854.902          36.900  
                  24136802.398    98836137.473 6     -2224.484          18.600  
                                                                
  20574271.742                   108118533.899 8       256.051          54.800  
                  20574276.703    84248224.255 8       199.752          40.000  
                                                                
  21507631.750                   113023374.256 8     -2023.812          52.700  
                  21507636.016    88070181.050 8     -1576.876          36.000  
                                                                
  23571409.836                   123868592.163 6     -2996.375          43.400  
                  23571416.949    96520997.057 6     -2334.811          22.800  
                                                                
  22264671.859                   117001662.629 6      2593.344          45.800  
                  22264676.422    91170144.165 7      2020.800          28.100  
                                                                
  22577847.906                   118647377.706 6      2683.813          46.100  
                  22577852.609    92452553.456 7      2091.336          26.500  
                                                                
  20328352.094                   106826222.206 8      -537.723          56.000  
                  20328359.223    83241246.770 9      -418.826          43.000  
                                                                
  21588585.109    21588583.848   115403358.605 7     -3243.844          46.000  
                  21588589.414    89758226.64817     -2522.849          31.500  
                                                                
  19162141.422    19162139.984   102252882.037 9       626.117          53.500  
                  19162143.383    79530015.646 8       487.140          41.000  
                                                                
  21938899.625    21938898.926   117440647.405 7      3575.199          47.700  
                  21938901.641    91342678.820 8      2780.803          35.400  
                                                                
  20827266.938    20827266.953   111294606.988 8     -2966.555          51.800  
                  20827269.504    86562370.974 8     -2307.172          38.500  
                                                                
  19213629.969    19213628.563   102635740.973 8       685.508          52.100  
                                                                                
                                                                
  22465130.773    22465129.051   119962549.767 5      4228.379          40.300  
                                                                                
                                                                
  23532290.180    23532288.715   125881890.001 5      -246.031          39.200  
                                                                                
                                                                
 18 04 04  7 24 30.0000000  0 14G02G05G07G09G13G28G30R01R02R03R11R12 0.000000000
                                R13R19                      
  24153109.031                   126925411.104 4     -2858.941          37.900  
                  24153112.387    98902922.736 5     -2227.739          17.400  
                                                                
  20572864.453                   108111137.795 8       237.180          54.600  
                  20572869.109    84242461.051 8       184.957          40.100  
                                                                
  21519215.758                   113084247.437 8     -2034.195          52.500  
                  21519219.852    88117614.690 8     -1585.067          35.800  
                                                                
  23588526.492                   123958545.063 6     -3000.309          43.100  
                  23588534.996    96591090.172 6     -2337.942          24.400  
                                                                
  22249885.000                   116923954.527 6      2587.477          46.200  
                  22249889.332    91109592.400 7      2016.152          28.000  
                                                                
  22562557.930                   118567027.198 6      2673.148          46.100  
                  22562562.895    92389942.703 6      2082.994          25.700  
                                                                
  20331467.695                   106842594.188 8      -553.512          56.100  
                  20331474.609    83254004.155 9      -431.220          43.300  
                                                                
  21606823.094    21606822.418   115500852.855 7     -3255.578          45.100  
                  21606827.125    89834055.52217     -2532.068          31.500  
                                                                
  19158674.125    19158672.898   102234381.082 9       607.543          54.200  
                  19158676.121    79515625.992 9       472.632          41.200  
                                                                
  21918877.734    21918877.012   117333466.984 7      3570.297          47.600  
                  21918879.340    91259316.350 8      2776.860          34.800  
                                                                
  20843968.719    20843968.121   111383854.752 8     -2982.957          51.700  
                  20843970.789    86631785.880 8     -2319.996          39.000  
                                                                
  19209853.328    19209852.180   102615566.035 8       659.664          52.500  
                                                                                
                                                                
  22441400.352    22441398.535   119835834.921 5      4219.484          39.400  
                                                                                
                                                                
  23533742.805    23533740.027   125889653.892 5      -271.391          40.400  
                                                                                
                                                                
 18 04 04  7 25  0.0000000  0 14G02G05G07G09G13G28G30R01R02R03R11R12 0.000000000
                                R13R19                      
  24169441.789                   127011243.424 3     -2863.090          36.200  
                  24169446.051    98969805.029 6     -2230.953          18.600  
                                                                
  20571565.297                   108104310.593 8       218.109          54.100  
                  20571570.031    84237141.142 8       170.156          39.900  
                                                                
  21530859.055                   113145434.164 8     -2044.711          52.100  
                  21530863.078    88165292.649 8     -1593.185          35.600  
                                                                
  23605667.063                   124048618.371 6     -3004.391          42.100  
                  23605675.934    96661277.116 6     -2341.086          25.600  
                                                                
  22235130.977                   116846425.648 7      2581.293          47.200  
                  22235135.770    91049180.293 7      2011.463          28.300  
                                                                
  22547328.664                   118486998.348 6      2662.246          45.200  
                  22547333.797    92327582.617 7      2074.588          27.700  
                                                                
  20334673.711                   106859442.216 8      -569.473          55.300  
                  20334680.941    83267132.485 9      -443.578          43.200  
                                                                
  21625128.008    21625126.535   115598700.282 6     -3267.500          44.900  
                  21625131.980    89910159.06117     -2541.280          31.100  
                                                                
  19155312.266    19155311.063   102216441.357 9       588.559          54.300  
                  19155314.441    79501672.866 9       458.010          41.800  
                                                                
  21898883.102    21898882.898   117226436.745 7      3565.258          47.600  
                  21898884.777    91176070.587 8      2772.918          34.100  
                                                                
  20860762.000    20860761.875   111473596.368 8     -2999.609          51.100  
                  20860764.449    86701584.881 8     -2332.826          38.700  
                                                                
  19206222.438    19206220.867   102596169.334 8       633.590          52.300  
                                                                                
                                                                
  22417720.758    22417718.824   119709385.614 5      4210.559          39.700  
                                                                                
                                                                
  23535337.242    23535335.051   125898181.145 6      -297.051          41.200  
                                                                                
                                                                
 18 04 04  7 25 30.0000000  0 14G02G05G07G09G13G28G30R01R02R03R11R12 0.000000000
                                R13R19                      
  24185797.227                   127097196.859 3     -2867.180          35.400  
                  24185802.902    99036781.604 5     -2234.056          16.900  
                                                                
  20570374.883                   108098053.055 8       199.082          53.400  
                  20570379.297    84232265.123 8       155.389          40.400  
                                                                
  21542561.570                   113206932.243 7     -2055.148          52.000  
                  21542566.148    88213213.223 8     -1601.241          35.200  
                                                                
  23622830.320                   124138811.375 6     -3008.379          43.200  
                  23622838.586    96731557.342 6     -2344.187          24.200  
                                                                
  22220412.367                   116769076.689 7      2575.344          48.100  
                  22220416.887    90988908.371 7      2006.823          27.700  
                                                                
  22532161.117                   118407293.970 6      2651.367          45.800  
                  22532166.348    92265475.342 6      2066.153          24.000  
                                                                
  20337970.211                   106876765.164 8      -585.391          54.900  
                  20337977.203    83280630.877 9      -455.895          43.400  
                                                                
  21643497.797    21643496.371   115696899.316 6     -3279.191          44.100  
                  21643502.277    89986536.00817     -2550.284          30.400  
                                                                
  19152055.898    19152054.906   102199064.656 9       569.785          54.300  
                  19152057.926    79488157.631 9       443.451          42.100  
                                                                
  21878917.141    21878917.125   117119558.788 7      3560.004          48.000  
                  21878919.027    91092943.299 8      2768.977          35.000  
                                                                
  20877648.227    20877647.680   111563828.087 8     -3015.844          50.400  
                  20877649.840    86771765.089 8     -2345.464          39.300  
                                                                
  19202736.484    19202735.547   102577551.027 8       607.605          51.700  
                                                                                
                                                                
  22394091.000    22394089.324   119583204.570 4      4201.418          37.900  
                                                                                
                                                                
  23537072.891    23537071.449   125907471.446 5      -322.480          40.100  
                                                                                
                                                                
 18 04 04  7 26  0.0000000  0 14G02G05G07G09G13G28G30R01R02R03R11R12 0.000000000
                                R13R19                      
  24202176.906                   127183268.274 3     -2871.035          35.200  
                  24202181.738    99103850.238 6     -2237.067          18.600  
                                                                
  20569292.469                   108092365.637 8       180.176          54.600  
                  20569296.672    84227833.364 8       140.553          40.400  
                                                                
  21554323.055                   113268740.302 8     -2065.328          52.500  
                  21554327.688    88261375.325 8     -1609.295          35.400  
                                                                
  23640016.047                   124229123.439 6     -3012.270          43.200  
                  23640024.699    96801930.322 6     -2347.271          23.300  
                                                                
  22205727.656                   116691908.450 7      2569.289          49.400  
                  22205732.242    90928777.296 7      2002.080          27.900  
                                                                
  22517056.047                   118327916.726 6      2640.520          45.800  
                  22517061.281    92203622.968 6      2057.614          25.500  
                                                                
  20341356.609                   106894561.838 8      -601.016          56.200  
                  20341363.949    83294498.418 9      -468.204          43.300  
                                                                
  21661932.727    21661932.309   115795448.561 6     -3290.738          44.500  
                  21661937.684    90063185.40517     -2559.385          29.400  
                                                                
  19148905.414    19148904.164   102182252.574 9       551.000          54.600  
                  19148907.520    79475081.589 9       428.737          41.500  
                                                                
  21858979.234    21858980.109   117012835.764 7      3554.949          47.000  
                  21858983.313    91009936.552 8      2764.890          34.900  
                                                                
  20894623.953    20894624.438   111654546.184 8     -3031.937          51.300  
                  20894626.277    86842323.575 8     -2358.012          38.000  
                                                                
  19199396.406    19199395.961   102559710.716 8       581.867          51.600  
                                                                                
                                                                
  22370512.164    22370510.961   119457294.874 4      4192.594          38.800  
                                                                                
                                                                
  23538952.641    23538949.934   125917523.804 5      -347.750          40.800  
                                                                                
                                                                
 18 04 04  7 26 30.0000000  0 14G02G05G07G09G13G28G30R01R02R03R11R12 0.000000000
                                R13R19                      
  24218577.797                   127269455.126 4     -2874.758          37.900  
                  24218583.082    99171008.758 5     -2240.010          16.900  
                                                                
  20568318.961                   108087249.015 8       161.020          54.100  
                  20568323.801    84223846.372 8       125.724          40.300  
                                                                
  21566143.508                   113330856.653 8     -2075.707          52.200  
                  21566148.488    88309777.668 8     -1617.271          35.100  
                                                                
  23657225.141                   124319553.869 6     -3016.324          43.000  
                  23657232.672    96872395.540 6     -2350.303          24.600  
                                                                
  22191078.023                   116614921.859 7      2563.133          47.100  
                  22191082.023    90868787.760 7      1997.356          28.600  
                                                                
  22502013.320                   118248869.038 6      2629.484          43.200  
                  22502019.102    92142027.381 6      2049.009          22.800  
                                                                
  20344833.219                   106912831.138 8      -616.918          55.600  
                  20344840.453    83308734.232 9      -480.463          43.400  
                                                                
  21680434.125    21680433.027   115894346.184 6     -3302.426          44.500  
                                                                                
                                                                
  19145860.836    19145859.680   102166007.234 9       531.969          54.500  
                  19145863.395    79462446.313 9       414.054          41.800  
                                                                
  21839073.375    21839072.559   116906270.602 7      3549.555          47.100  
                  21839076.285    90927052.570 8      2760.754          34.700  
                                                                
  20911692.406    20911691.598   111745746.564 8     -3048.129          51.300  
                  20911693.371    86913257.219 8     -2370.511          38.000  
                                                                
  19196202.734    19196201.703   102542648.200 8       555.723          51.700  
                                                                                
                                                                
  22346985.586    22346983.488   119331660.131 4      4183.094          38.300  
                                                                                
                                                                
  23540974.922    23540972.543   125928337.562 6      -373.223          41.300  
                                                                                
                                                                
 18 04 04  7 27  0.0000000  0 14G02G05G07G09G13G28G30R01R02R03R11R12 0.000000000
                                R13R19                      
  24235000.500                   127355754.314 3     -2878.410          36.400  
                  24235004.836    99238254.914 6     -2242.914          18.600  
                                                                
  20567453.836                   108082703.585 8       142.012          54.500  
                  20567458.523    84220304.462 8       110.879          41.000  
                                                                
  21578022.406                   113393279.440 8     -2085.836          53.700  
                  21578026.977    88358418.777 8     -1625.202          35.200  
                                                                
  23674455.461                   124410102.130 6     -3020.324          42.100  
                  23674463.465    96942952.599 6     -2353.369          22.900  
                                                                
  22176462.531                   116538118.014 7      2557.051          49.200  
                  22176466.645    90808940.625 7      1992.600          27.500  
                                                                
  22487035.219                   118170153.796 6      2618.273          45.000  
                  22487039.645    92080690.836 7      2040.364          26.300  
                                                                
  20348399.578                   106931572.009 8      -632.461          55.800  
                  20348406.703    83323337.499 9      -492.685          43.400  
                                                                
  21698999.586    21698999.191   115993590.915 6     -3313.902          44.700  
                                                                                
                                                                
  19142923.195    19142921.922   102150330.382 9       513.109          54.300  
                  19142925.453    79450253.176 9       399.322          41.400  
                                                                
  21819195.516    21819195.523   116799865.999 7      3544.113          46.400  
                  21819198.324    90844293.432 8      2756.539          35.600  
                                                                
  20928848.445    20928847.707   111837425.978 8     -3063.840          51.100  
                  20928849.980    86984563.402 8     -2382.798          38.500  
                                                                
  19193154.500    19193153.164   102526363.215 8       529.852          51.600  
                                                                                
                                                                
  22323509.578    22323507.738   119206303.410 5      4173.941          39.200  
                                                                                
                                                                
  23543136.625    23543136.570   125939911.778 5      -398.484          39.200  
                                                                                
                                                                
 18 04 04  7 27 30.0000000  0 14G02G05G07G09G13G28G30R01R02R03R11R12 0.000000000
                                R13R19                      
  24251445.625                   127442163.28115     -2881.937          41.100  
                  24251448.059    99305586.51415     -2245.767          16.900  
                                                                
  20566697.680                   108078730.551 8       122.934          54.700  
                  20566702.797    84217208.585 8        95.986          40.900  
                                                                
  21589959.188                   113456006.881 8     -2095.941          53.000  
                  21589963.742    88407297.261 8     -1633.106          35.400  
                                                                
  23691708.422                   124500767.583 6     -3024.129          43.100  
                  23691716.547    97013600.969 6     -2356.423          22.900  
                                                                
  22161881.734                   116461497.665 7      2550.961          48.600  
                  22161885.871    90749236.468 7      1987.798          29.000  
                                                                
  22472119.500                   118091773.405 6      2607.098          45.300  
                  22472125.043    92019615.236 6      2031.616          24.800  
                                                                
  20352055.102                   106950783.359 8      -648.207          55.900  
                  20352062.258    83338307.383 9      -504.918          42.900  
                                                                
  21717630.477    21717629.426   116093181.313 7     -3325.418          45.100  
                                                                                
                                                                
  19140092.188    19140090.961   102135223.657 9       494.008          53.800  
                  19140094.152    79438503.498 9       384.467          41.800  
                                                                
  21799349.781    21799348.988   116693624.310 7      3538.602          47.400  
                  21799351.445    90761660.963 8      2752.332          35.300  
                                                                
  20946093.555    20946092.934   111929580.326 8     -3079.703          50.300  
                  20946095.453    87056238.984 8     -2395.134          38.400  
                                                                
  19190250.617    19190250.266   102510856.116 8       503.938          51.400  
                                                                                
                                                                
  22300085.961    22300085.086   119081227.620 5      4164.309          39.300  
                                                                                
                                                                
  23545442.938    23545441.332   125952245.840 5      -423.875          40.600  
                                                                                
                                                                
 18 04 04  7 28  0.0000000  0 14G02G05G07G09G13G28G30R01R02R03R11R12 0.000000000
                                R13R19                      
  24267907.320                   127528678.36615     -2885.371          39.200  
                  24267911.469    99373000.78816     -2248.452          18.600  
                                                                
  20566050.594                   108075329.763 8       103.855          53.800  
                  20566055.355    84214558.617 8        81.134          40.900  
                                                                
  21601953.422                   113519036.864 8     -2106.016          53.500  
                  21601957.824    88456411.517 8     -1640.933          34.700  
                                                                
  23708984.164                   124591549.159 6     -3027.965          42.100  
                  23708991.801    97084339.806 6     -2359.384          22.500  
                                                                
  22147336.422                   116385061.477 7      2544.773          47.600  
                  22147340.785    90689675.813 7      1983.004          26.900  
                                                                
  22457268.086                   118013730.691 6      2595.727          43.900  
                  22457274.344    91958802.771 7      2022.793          27.600  
                                                                
  20355800.109                   106970463.541 8      -663.812          55.100  
                  20355807.262    83353642.584 9      -517.059          42.800  
                                                                
  21736325.148    21736324.707   116193115.188 6     -3336.863          44.900  
                                                                                
                                                                
  19137368.422    19137367.242   102120688.617 9       474.898          53.400  
                  19137370.590    79427198.452 9       369.639          41.700  
                                                                
  21779534.320    21779532.824   116587548.375 7      3533.047          48.000  
                  21779535.766    90679157.481 8      2747.965          36.900  
                                                                
  20963427.125    20963426.504   112022205.589 8     -3095.273          49.700  
                  20963429.188    87128280.836 8     -2407.275          38.600  
                                                                
  19187493.727    19187492.391   102496125.334 8       478.086          52.200  
                                                                                
                                                                
  22276717.414    22276715.035   118956435.385 5      4155.043          39.400  
                                                                                
                                                                
  23547890.984    23547889.543   125965338.288 6      -449.102          41.100  
                                                                                
                                                                
 18 04 04  7 28 30.0000000  0 14G02G05G07G09G13G28G30R01R02R03R11R12 0.000000000
                                R13R19                      
  24284390.867                   127615297.078 5     -2888.910          39.200  
                  24284393.914    99440495.882 5     -2251.108          16.900  
                                                                
  20565512.375                   108072502.124 8        84.754          54.900  
                  20565517.078    84212355.257 8        66.203          40.500  
                                                                
  21614005.219                   113582368.205 8     -2116.020          53.300  
                  21614009.070    88505760.598 8     -1648.769          34.800  
                                                                
  23726280.844                   124682446.737 5     -3031.895          41.500  
                  23726288.766    97155169.036 6     -2362.472          22.500  
                                                                
  22132826.805                   116308810.663 7      2538.621          48.800  
                  22132831.188    90630259.594 7      1978.171          29.100  
                                                                
  22442482.336                   117936028.542 6      2584.391          46.300  
                  22442488.102    91898255.668 7      2013.905          26.700  
                                                                
  20359634.234                   106990611.885 8      -679.289          56.600  
                  20359641.445    83369342.600 9      -529.233          42.800  
                                                                
  21755084.109    21755083.012   116293391.764 6     -3348.273          44.200  
                                                                                
                                                                
  19134751.789    19134750.703   102106727.367 9       455.734          54.200  
                  19134754.223    79416339.689 9       354.695          41.600  
                                                                
  21759748.750    21759748.922   116481641.124 7      3527.406          46.800  
                  21759751.801    90596785.177 8      2743.580          36.800  
                                                                
  20980848.297    20980848.148   112115298.384 8     -3110.789          50.000  
                  20980850.191    87200686.334 8     -2419.401          38.200  
                                                                
  19184881.617    19184880.422   102482171.835 8       452.145          52.000  
                                                                                
                                                                
  22253400.742    22253399.445   118831930.479 5      4145.375          39.800  
                                                                                
                                                                
  23550480.266    23550478.473   125979188.421 5      -474.156          40.200  
                                                                                
                                                                
 18 04 04  7 29  0.0000000  0 14G02G05G07G09G13G28G30R01R02R03R11R12 0.000000000
                                R13R19                      
  24300895.188                   127702016.81215     -2892.270          41.100  
                  24300896.934    99508069.63716     -2253.658          20.900  
                                                                
  20565083.609                   108070248.183 8        65.648          53.100  
                  20565088.602    84210598.928 8        51.319          40.400  
                                                                
  21626113.406                   113645998.802 8     -2125.902          53.800  
                  21626117.504    88555342.871 8     -1656.487          34.200  
                                                                
  23743599.930                   124773459.489 5     -3035.625          41.600  
                  23743608.262    97226087.991 6     -2365.403          22.500  
                                                                
  22118351.758                   116232745.938 7      2532.410          48.900  
                  22118356.496    90570988.383 7      1973.359          28.800  
                                                                
  22427761.477                   117858669.192 6      2572.965          45.400  
                  22427767.121    91837975.674 7      2004.987          26.600  
                                                                
  20363557.227                   107011227.256 8      -694.867          56.200  
                  20363564.430    83385406.521 9      -541.323          42.900  
                                                                
  21773906.844    21773905.559   116394009.006 6     -3359.488          44.600  
                                                                                
                                                                
  19132243.680    19132242.617   102093341.729 9       436.691          54.000  
                  19132245.828    79405928.637 9       339.793          41.900  
                                                                
  21739996.516    21739995.816   116375905.024 7      3521.699          47.900  
                  21739998.938    90514546.000 8      2739.181          36.900  
                                                                
  20998356.492    20998355.992   112208854.908 8     -3126.152          51.600  
                  20998357.906    87273452.464 8     -2431.313          38.200  
                                                                
  19182414.633    19182413.695   102468994.798 8       426.348          51.900  
                                                                                
                                                                
  22230140.031    22230137.746   118707715.413 5      4135.605          40.200  
                                                                                
                                                                
  23553210.180    23553208.855   125993795.668 5      -499.395          40.900  
                                                                                
                                                                
 18 04 04  7 29 30.0000000  0 14G02G05G07G09G13G28G30R01R02R03R11R12 0.000000000
                                R13R19                      
  24317412.422                   127788834.227 3     -2895.504          35.200  
                  24317416.680    99575719.539 5     -2256.242          14.800  
                                                                
  20564763.703                   108068567.982 8        46.531          52.700  
                  20564768.352    84209289.670 8        36.405          40.200  
                                                                
  21638278.383                   113709926.701 7     -2135.723          51.100  
                  21638282.828    88605156.786 8     -1664.189          34.100  
                                                                
  23760941.586                   124864586.513 5     -3039.383          41.600  
                  23760948.566    97297096.013 6     -2368.403          22.200  
                                                                
  22103912.531                   116156868.000 7      2526.293          48.700  
                  22103917.352    90511862.723 7      1968.496          28.700  
                                                                
  22413106.469                   117781654.982 6      2561.453          45.400  
                  22413111.035    91777964.630 6      1995.992          26.000  
                                                                
  20367568.875                   107032307.762 8      -710.285          55.700  
                  20367576.520    83401832.888 9      -553.398          42.700  
                                                                
  21792791.820    21792791.543   116494965.021 6     -3370.625          44.700  
                                                                                
                                                                
  19129843.086    19129841.883   102080532.620 8       417.430          52.800  
                  19129845.281    79395966.005 9       324.821          41.800  
                                                                
  21720276.742    21720276.324   116270342.691 7      3515.887          47.900  
                  21720278.863    90432442.002 8      2734.537          36.700  
                                                                
  21015949.781    21015949.563   112302870.825 8     -3141.391          50.700  
                  21015951.688    87346575.979 8     -2443.201          37.900  
                                                                
  19180093.109    19180091.938   102456593.621 8       400.504          51.400  
                                                                                
                                                                
  22206933.477    22206931.824   118583793.129 5      4125.863          40.100  
                                                                                
                                                                
  23556081.398    23556079.207   126009158.393 5      -524.602          40.700  
                                                                                
                                                                
 18 04 04  7 30  0.0000000  0 14G02G05G07G09G13G28G30R01R02R03R11R12 0.000000000
                                R13R19                      
  24333954.508                   127875746.195 5     -2898.578          39.800  
                  24333955.664    99643443.140 6     -2258.659          19.900  
                                                                
  20564553.352                   108067462.276 8        27.270          53.200  
                  20564558.398    84208428.065 8        21.477          40.000  
                                                                
  21650499.664                   113774150.062 7     -2145.645          51.600  
                  21650504.398    88655200.949 8     -1671.859          34.000  
                                                                
  23778304.109                   124955827.361 5     -3043.230          41.400  
                  23778311.602    97368192.692 6     -2371.317          21.700  
                                                                
  22089509.977                   116081178.118 7      2519.875          49.400  
                  22089513.969    90452883.596 7      1963.589          29.700  
                                                                
  22398516.781                   117704988.950 6      2549.641          46.000  
                  22398522.215    91718224.884 7      1986.918          26.800  
                                                                
  20371668.688                   107053852.640 8      -725.883          56.100  
                  20371675.789    83418621.107 9      -565.458          42.600  
                                                                
  21811741.516    21811740.863   116596258.803 6     -3381.941          44.900  
                                                                                
                                                                
  19127551.516    19127549.961   102068302.383 9       398.004          53.200  
                  19127553.465    79386453.566 9       309.809          41.600  
                                                                
  21700590.250    21700590.305   116164957.226 7      3509.859          47.900  
                  21700592.012    90350475.524 8      2729.977          36.800  
                                                                
  21033628.563    21033628.672   112397342.881 8     -3156.613          49.800  
                  21033630.750    87420054.244 8     -2454.998          38.400  
                                                                
  19177916.594    19177915.539   102444967.934 8       374.590          52.100  
                                                                                
                                                                
  22183781.836    22183780.938   118460166.770 5      4116.035          40.500  
                                                                                
                                                                
  23559095.953    23559094.605   126025275.611 5      -549.781          40.000  
                                                                                
                                                                
 18 04 04  7 30 30.0000000  0 14G02G05G07G09G13G28G30R01R02R03R11R12 0.000000000
                                R13R19                      
  24350510.578                   127962750.312 5     -2901.711          40.200  
                  24350509.461    99711238.447 5     -2260.982          16.300  
                                                                
  20564452.414                   108066931.462 8         8.078          54.000  
                  20564457.145    84208014.442 8         6.552          40.100  
                                                                
  21662777.211                   113838667.549 7     -2155.547          51.400  
                  21662781.621    88705474.285 8     -1679.468          34.000  
                                                                
  23795688.055                   125047181.416 5     -3047.145          41.300  
                  23795695.176    97439377.611 6     -2374.257          22.600  
                                                                
  22075142.602                   116005676.975 7      2513.449          48.400  
                  22075146.508    90394051.550 7      1958.679          29.400  
                                                                
  22383994.531                   117628673.723 6      2537.973          46.100  
                  22384000.117    91658758.489 7      1977.781          26.200  
                                                                
  20375856.633                   107075860.700 8      -741.375          55.600  
                  20375864.293    83435770.240 9      -577.447          42.600  
                                                                
  21830754.141    21830752.973   116697888.327 7     -3393.328          45.300  
                                                                                
                                                                
  19125367.844    19125366.852   102056652.860 8       378.578          52.300  
                  19125370.125    79377392.833 9       294.743          41.300  
                                                                
  21680937.594    21680936.355   116059751.036 7      3503.770          48.700  
                  21680939.148    90268648.467 8      2725.267          36.900  
                                                                
  21051392.844    21051392.129   112492267.171 8     -3171.703          49.800  
                  21051394.582    87493884.195 8     -2466.617          38.200  
                                                                
  19175885.523    19175884.375   102434117.325 8       348.715          51.400  
                                                                                
                                                                
  22160685.977    22160685.102   118336839.421 5      4106.039          39.900  
                                                                                
                                                                
  23562248.875    23562247.504   126042146.247 5      -575.047          39.400  
                                                                                
                                                                
 18 04 04  7 31  0.0000000  0 15G02G05G07G09G13G20G28G30R01R02R03R11 0.000000000
                                R12R13R19                   
  24367081.797                   128049843.366 4     -2904.535          38.100  
                  24367083.887    99779103.148 5     -2263.283          16.300  
                                                                
  20564460.844                   108066976.171 8       -11.027          54.000  
                  20564465.793    84208049.266 8        -8.389          39.900  
                                                                
  21675110.094                   113903477.426 8     -2165.230          53.100  
                  21675114.594    88755975.478 8     -1687.032          34.600  
                                                                
  23813093.906                   125138648.014 5     -3050.695          41.800  
                  23813101.000    97510650.214 6     -2377.127          22.000  
                                                                
  22060811.367                   115930365.270 7      2507.199          50.000  
                  22060814.844    90335367.121 7      1953.751          28.500  
                                                                
  24967994.758                   131207728.29011      3548.324          31.500  
                                                                                
                                                                
  22369539.844                   117552711.768 6      2526.121          46.700  
                  22369544.938    91599567.376 7      1968.556          27.100  
                                                                
  20380132.563                   107098330.703 8      -756.625          56.400  
                  20380140.145    83453279.331 9      -589.429          43.200  
                                                                
  21849828.781    21849827.449   116799852.480 6     -3404.348          44.300  
                                                                                
                                                                
  19123294.266    19123292.875   102045585.329 9       359.227          53.400  
                  19123295.953    79368784.747 9       279.633          41.900  
                                                                
  21661316.594    21661316.508   115954727.202 7      3497.742          48.000  
                  21661319.898    90186963.307 8      2720.466          37.800  
                                                                
  21069239.773    21069239.906   112587639.897 8     -3186.480          49.100  
                  21069242.711    87568062.979 8     -2478.187          38.500  
                                                                
  19173999.234    19173998.227   102424041.756 8       322.957          52.400  
                                                                                
                                                                
  22137646.570    22137646.047   118213814.459 5      4095.879          40.000  
                                                                                
                                                                
  23565544.563    23565541.105   126059769.469 5      -599.926          40.600  
                                                                                
                                                                
 18 04 04  7 31 30.0000000  0 15G02G05G07G09G13G20G28G30R01R02R03R11 0.000000000
                                R12R13R19                   
  24383671.453                   128137022.558 4     -2907.430          37.100  
                  24383673.754    99847034.875 5     -2265.469          15.600  
                                                                
  20564579.016                   108067596.746 8       -30.301          52.500  
                  20564584.082    84208532.824 8       -23.362          40.100  
                                                                
  21687498.102                   113968577.645 8     -2174.852          52.800  
                  21687502.465    88806702.902 8     -1694.541          34.200  
                                                                
  23830520.078                   125230226.640 5     -3054.512          41.100  
                  23830527.523    97582010.146 6     -2380.079          21.700  
                                                                
  22046515.641                   115855244.485 7      2500.816          48.800  
                  22046519.848    90276831.452 7      1948.776          29.400  
                                                                
  24947752.305                   131101355.23411      3543.301          32.800  
                                                                                
                                                                
  22355151.898                   117477105.775 6      2514.242          46.100  
                  22355157.793    91540653.629 7      1959.284          27.800  
                                                                
  20384496.328                   107121261.506 8      -772.008          56.400  
                  20384503.391    83471147.487 9      -601.391          43.400  
                                                                
  21868964.984    21868963.980   116902149.215 7     -3415.402          45.400  
                                                                                
                                                                
  19121329.531    19121328.281   102035101.803 9       339.738          53.600  
                  19121331.449    79360630.887 9       264.464          41.600  
                                                                
  21641732.227    21641731.883   115849888.300 7      3491.504          48.400  
                  21641735.230    90105421.942 8      2715.669          37.500  
                                                                
  21087171.789    21087171.121   112683457.350 8     -3201.242          50.400  
                  21087173.703    87642587.618 8     -2489.689          38.300  
                                                                
  19172258.094    19172257.180   102414740.369 8       297.156          51.900  
                                                                                
                                                                
  22114666.344    22114664.035   118091094.604 5      4085.547          40.000  
                                                                                
                                                                
  23568978.430    23568977.387   126078144.045 5      -624.863          40.400  
                                                                                
                                                                
 18 04 04  7 32  0.0000000  0 15G02G05G07G09G13G20G28G30R01R02R03R11 0.000000000
                                R12R13R19                   
  24400277.008                   128224285.344 4     -2910.199          38.400  
                  24400280.219    99915031.823 5     -2267.547          16.300  
                                                                
  20564806.820                   108068793.925 8       -49.531          53.800  
                  20564811.582    84209465.678 8       -38.298          40.300  
                                                                
  21699941.133                   114033966.584 8     -2184.398          53.500  
                  21699945.750    88857655.294 8     -1701.975          34.500  
                                                                
  23847968.523                   125321916.741 6     -3058.266          42.100  
                  23847975.742    97653456.899 6     -2382.900          21.800  
                                                                
  22032257.086                   115780315.756 7      2494.414          48.900  
                  22032261.391    90218445.430 7      1943.831          29.300  
                                                                
  24927538.539                   130995127.90112      3538.457          33.300  
                                                                                
                                                                
  22340832.703                   117401858.371 6      2502.289          46.100  
                  22340838.223    91482019.318 7      1949.988          27.700  
                                                                
  20388947.602                   107144651.924 8      -787.340          56.400  
                  20388954.590    83489373.790 9      -613.259          43.300  
                                                                
  21888164.445    21888162.902   117004777.407 6     -3426.457          44.700  
                                                                                
                                                                
  19119474.805    19119473.602   102025203.930 9       320.242          54.300  
                  19119476.672    79352932.520 9       249.367          41.400  
                                                                
  21622183.211    21622182.605   115745237.420 8      3485.207          49.300  
                  21622184.730    90024026.781 8      2710.849          36.700  
                                                                
  21105185.633    21105184.355   112779715.912 8     -3215.918          49.800  
                  21105187.371    87717455.339 8     -2501.027          38.800  
                                                                
  19170661.898    19170660.750   102406212.707 8       271.410          51.900  
                                                                                
                                                                
  22091741.688    22091740.105   117968682.856 5      4075.297          40.100  
                                                                                
                                                                
  23572552.922    23572552.254   126097268.866 5      -650.023          40.800  
                                                                                
                                                                
 18 04 04  7 32 30.0000000  0 15G02G05G07G09G13G20G28G30R01R02R03R11 0.000000000
                                R12R13R19                   
  24416896.055                   128311628.152 2     -2912.859          33.200  
                  24416901.945    99983091.100 5     -2269.731          15.600  
                                                                
  20565144.258                   108070567.604 8       -68.719          52.300  
                  20565149.324    84210847.760 8       -53.337          40.500  
                                                                
  21712438.930                   114099642.634 8     -2193.898          52.100  
                  21712443.234    88908831.418 8     -1709.479          34.300  
                                                                
  23865437.977                   125413717.262 6     -3061.965          42.500  
                  23865446.355    97724989.714 6     -2385.847          22.500  
                                                                
  22018035.258                   115705579.402 7      2487.957          48.600  
                  22018039.938    90160209.311 7      1938.754          29.400  
                                                                
  24907351.477                   130889048.344 2      3533.336          33.400  
                                                                                
                                                                
  22326582.086                   117326971.749 6      2490.250          46.300  
                  22326587.641    91423666.104 7      1940.546          26.400  
                                                                
  20393485.461                   107168500.399 8      -802.570          56.700  
                  20393492.520    83507957.013 9      -625.198          43.200  
                                                                
  21907423.969    21907422.754   117107734.510 6     -3437.312          44.600  
                                                                                
                                                                
  19117729.703    19117728.641   102015892.918 9       300.637          54.400  
                  19117731.961    79345690.615 9       234.047          41.600  
                                                                
  21602668.508    21602668.773   115640777.388 7      3478.840          48.100  
                  21602670.371    89942780.085 8      2705.837          36.700  
                                                                
  21123278.930    21123279.344   112876411.370 7     -3230.340          48.700  
                  21123282.527    87792662.918 8     -2512.343          38.600  
                                                                
  19169209.867    19169208.906   102398458.032 8       245.656          52.000  
                                                                                
                                                                
  22068877.633    22068875.770   117846582.088 5      4064.746          40.600  
                                                                                
                                                                
  23576268.344    23576266.785   126117142.341 6      -674.980          41.700  
                                                                                
                                                                
 18 04 04  7 33  0.0000000  0 15G02G05G07G09G13G20G28G30R01R02R03R11 0.000000000
                                R12R13R19                   
  24433534.164                   128399048.516 4     -2915.270          37.600  
                  24433537.535   100051210.866 5     -2271.622          16.900  
                                                                
  20565591.922                   108072918.039 8       -88.043          54.100  
                  20565596.414    84212679.246 9       -68.315          41.200  
                                                                
  21724990.602                   114165603.892 7     -2203.441          51.100  
                  21724995.285    88960229.797 8     -1716.866          33.800  
                                                                
  23882927.906                   125505627.888 6     -3065.652          42.500  
                  23882935.430    97796608.321 6     -2388.718          21.100  
                                                                
  22003850.328                   115631036.232 7      2481.523          48.800  
                  22003854.770    90102123.717 7      1933.736          29.300  
                                                                
  24887194.297                   130783118.991 2      3528.441          34.000  
                                                                                
                                                                
  22312401.047                   117252448.711 6      2477.930          46.900  
                  22312406.305    91365596.233 7      1931.049          26.500  
                                                                
  20398110.797                   107192805.884 8      -817.812          56.200  
                  20398117.855    83526896.346 9      -637.047          43.400  
                                                                
  21926746.875    21926744.910   117211019.574 6     -3448.340          44.600  
                                                                                
                                                                
  19116095.219    19116094.367   102007170.904 9       280.883          54.400  
                  19116097.254    79338906.826 9       218.716          41.500  
                                                                
  21583190.086    21583190.305   115536510.728 7      3472.184          47.400  
                  21583192.875    89861683.824 8      2700.734          37.000  
                                                                
  21141456.523    21141455.977   112973540.313 8     -3244.852          50.200  
                  21141458.535    87868207.627 8     -2523.572          38.500  
                                                                
  19167903.352    19167902.016   102391475.761 8       219.859          52.100  
                                                                                
                                                                
  22046072.125    22046068.738   117724795.605 6      4054.332          41.300  
                                                                                
                                                                
  23580123.070    23580122.453   126137763.270 6      -699.891          41.200  
                  23580124.762    98107018.90917      -543.984          30.800  
                                                                
 18 04 04  7 33 30.0000000  0 15G02G05G07G09G13G20G28G30R01R02R03R11 0.000000000
                                R12R13R19                   
  24450181.844                   128486543.66212     -2917.730          34.400  
                  24450187.293   100119388.74415     -2273.469          15.600  
                                                                
  20566148.852                   108075845.743 8      -107.312          52.800  
                  20566153.457    84214960.566 8       -83.309          39.600  
                                                                
  21737596.992                   114231848.427 7     -2212.926          50.600  
                  21737601.148    89011848.881 8     -1724.170          33.600  
                                                                
  23900438.914                   125597647.765 5     -3069.168          41.500  
                  23900447.301    97868312.043 6     -2391.475          22.500  
                                                                
  21989702.273                   115556687.542 7      2475.012          49.600  
                  21989706.535    90044189.672 7      1928.691          30.000  
                                                                
  24867065.609                   130677342.596 2      3523.160          33.500  
                                                                                
                                                                
  22298290.109                   117178291.786 7      2465.734          47.300  
                  22298294.492    91307811.648 7      1921.534          26.800  
                                                                
  20402822.484                   107217566.972 8      -833.035          56.200  
                  20402829.840    83546190.696 9      -648.845          43.400  
                                                                
  21946128.719    21946127.410   117314630.483 6     -3459.145          44.700  
                                                                                
                                                                
  19114570.992    19114570.258   101999038.885 9       261.164          53.500  
                  19114573.363    79332581.898 9       203.418          41.400  
                                                                
  21563749.906    21563749.160   115432440.280 7      3465.602          48.700  
                  21563751.254    89780740.143 8      2695.636          36.900  
                                                                
  21159713.531    21159713.336   113071098.640 8     -3259.074          51.000  
                  21159715.621    87944086.302 8     -2534.601          38.900  
                                                                
  19166740.289    19166739.234   102385264.902 8       194.137          51.600  
                                                                                
                                                                
  22023323.531    22023321.879   117603326.715 5      4043.551          41.000  
                                                                                
                                                                
  23584118.477    23584117.363   126159130.375 6      -724.625          41.300  
                  23584119.031    98123637.83517      -563.382          29.700  
                                                                
 18 04 04  7 34  0.0000000  0 15G02G05G07G09G13G20G28G30R01R02R03R11 0.000000000
                                R12R13R19                   
  24466848.406                   128574110.308 4     -2920.250          38.600  
                  24466850.125   100187622.603 6     -2275.396          18.600  
                                                                
  20566815.883                   108079351.071 8      -126.578          53.700  
                  20566820.438    84217691.978 8       -98.304          40.600  
                                                                
  21750256.516                   114298374.358 8     -2222.336          52.100  
                  21750260.875    89063687.260 8     -1731.492          33.700  
                                                                
  23917970.063                   125689776.269 5     -3072.750          41.600  
                  23917978.121    97940100.409 6     -2394.329          22.500  
                                                                
  21975591.500                   115482534.054 7      2468.359          49.500  
                  21975595.762    89986407.742 7      1923.582          30.500  
                                                                
  24846967.078                   130571721.479 1      3517.988          32.900  
                                                                                
                                                                
  22284248.617                   117104503.449 7      2453.281          47.800  
                  22284252.496    91250314.269 6      1911.918          25.700  
                                                                
  20407620.961                   107242782.330 9      -848.156          57.200  
                  20407628.277    83565839.017 9      -660.636          43.600  
                                                                
  21965571.594    21965570.426   117418565.850 6     -3469.941          44.200  
                                                                                
                                                                
  19113158.461    19113157.164   101991498.672 9       241.301          54.100  
                  19113160.492    79326717.259 9       188.058          41.400  
                                                                
  21544345.211    21544345.219   115328568.718 7      3458.875          48.300  
                  21544347.156    89699951.156 8      2690.425          37.100  
                                                                
  21178050.469    21178049.520   113169082.569 8     -3273.238          51.400  
                  21178052.059    88020296.012 8     -2545.618          38.200  
                                                                
  19165721.477    19165720.820   102379824.824 8       168.355          51.100  
                                                                                
                                                                
  22000635.703    22000634.242   117482177.097 5      4032.801          40.400  
                                                                                
                                                                
  23588252.898    23588250.121   126181242.012 6      -749.598          41.400  
                                                                                
                                                                
 18 04 04  7 34 30.0000000  0 15G02G05G07G09G13G20G28G30R01R02R03R11 0.000000000
                                R12R13R19                   
  24483521.922                   128661745.747 2     -2922.430          33.500  
                  24483528.434   100255909.853 5     -2277.144          16.300  
                                                                
  20567592.875                   108083434.055 8      -145.859          53.400  
                  20567597.652    84220873.513 8      -113.341          40.600  
                                                                
  21762969.242                   114365180.354 7     -2231.547          50.600  
                  21762973.488    89115743.863 8     -1738.750          33.500  
                                                                
  23935522.477                   125782012.902 5     -3076.453          42.000  
                  23935530.613    98011973.078 6     -2397.144          22.600  
                                                                
  21961518.172                   115408577.169 7      2461.797          49.800  
                  21961522.578    89928779.006 7      1918.449          30.900  
                                                                
  24826897.000                   130466257.911 3      3512.711          35.300  
                                                                                
                                                                
  22270277.625                   117031086.279 7      2440.938          47.900  
                  22270282.184    91193106.113 7      1902.220          27.400  
                                                                
  20412505.484                   107268450.853 8      -863.273          56.700  
                  20412512.883    83585840.464 9      -672.425          43.400  
                                                                
  21985075.359    21985074.660   117522823.933 6     -3480.617          44.300  
                                                                                
                                                                
  19111857.352    19111855.469   101984552.088 9       221.574          54.400  
                  19111858.672    79321314.374 9       172.652          41.700  
                                                                
  21524979.039    21524978.883   115224899.629 7      3452.188          48.300  
                  21524981.109    89619319.660 8      2685.138          37.600  
                                                                
  21196465.094    21196464.758   113267488.486 8     -3287.277          50.700  
                  21196467.648    88096833.924 8     -2556.522          39.200  
                                                                
  19164847.477    19164846.609   102375155.337 8       142.711          52.000  
                                                                                
                                                                
  21978009.195    21978006.934   117361350.848 5      4021.883          39.800  
                                                                                
                                                                
  23592524.289    23592522.777   126204097.129 5      -774.457          40.100  
                                                                                
                                                                
 18 04 04  7 35  0.0000000  0 15G02G05G07G09G13G20G28G30R01R02R03R11 0.000000000
                                R12R13R19                   
  24500212.578                   128749447.58813     -2924.207          36.100  
                  24500216.586   100324248.97915     -2278.718          17.400  
                                                                
  20568479.852                   108088095.435 8      -165.031          52.600  
                  20568484.309    84224505.740 8      -128.346          40.700  
                                                                
  21775735.172                   114432264.591 7     -2240.730          51.400  
                  21775739.652    89168017.268 8     -1745.933          34.000  
                                                                
  23953095.750                   125874357.031 6     -3079.930          42.200  
                  23953102.977    98083929.452 6     -2399.878          22.300  
                                                                
  21947481.773                   115334817.477 7      2455.324          49.600  
                  21947486.270    89871303.929 7      1913.352          31.300  
                                                                
  24806858.578                   130360954.587 3      3507.461          36.500  
                                                                                
                                                                
  22256377.953                   116958042.491 6      2428.543          47.000  
                  22256382.281    91136188.893 7      1892.521          27.900  
                                                                
  20417476.156                   107294571.185 8      -878.242          55.300  
                  20417483.660    83606193.969 9      -684.122          43.500  
                                                                
  22004637.891    22004637.684   117627403.101 6     -3491.363          43.200  
                                                                                
                                                                
  19110666.492    19110665.242   101978200.633 9       201.715          53.700  
                  19110668.523    79316374.322 9       157.213          41.100  
                                                                
  21505651.281    21505651.477   115121435.194 7      3445.297          48.700  
                  21505653.375    89538847.332 8      2679.791          37.600  
                                                                
  21214957.766    21214958.063   113366312.656 8     -3301.105          49.400  
                  21214960.996    88173697.121 8     -2567.289          39.100  
                                                                
  19164117.398    19164116.602   102371255.254 8       117.133          51.600  
                                                                                
                                                                
  21955442.203    21955440.742   117240850.836 5      4011.168          39.700  
                                                                                
                                                                
  23596935.930    23596933.715   126227694.070 6      -799.066          41.300  
                                                                                
                                                                
 18 04 04  7 35 30.0000000  0 15G02G05G07G09G13G20G28G30R01R02R03R11 0.000000000
                                R12R13R19                   
  24516916.945                   128837211.35815     -2926.367          39.600  
                  24516918.805   100392636.26116     -2280.329          18.300  
                                                                
  20569476.883                   108093335.164 7      -184.379          51.700  
                  20569481.855    84228588.637 8      -143.339          40.000  
                                                                
  21788552.758                   114499625.042 7     -2249.961          50.600  
                  21788558.020    89220505.928 8     -1753.070          33.800  
                                                                
  23970688.484                   125966807.747 6     -3083.488          42.700  
                  23970695.359    98155968.917 6     -2402.629          22.600  
                                                                
  21933483.391                   115261255.801 7      2448.672          49.500  
                  21933487.875    89813983.150 7      1908.214          30.600  
                                                                
  24786850.797                   130255813.906 2      3501.813          34.100  
                                                                                
                                                                
  22242548.805                   116885374.678 6      2415.965          46.900  
                  22242553.957    91079564.633 6      1882.767          25.100  
                                                                
  20422532.328                   107321141.829 8      -893.285          54.100  
                  20422539.371    83626898.355 9      -695.763          43.200  
                                                                
  22024261.078    22024260.824   117732301.408 6     -3501.988          43.200  
                                                                                
                                                                
  19109587.141    19109586.570   101972445.217 9       181.887          54.200  
                  19109589.930    79311897.879 9       141.812          41.500  
                                                                
  21486362.703    21486361.910   115018178.486 7      3438.344          48.900  
                  21486364.152    89458536.550 8      2674.400          38.100  
                                                                
  21233530.344    21233529.184   113465551.091 8     -3314.902          49.800  
                  21233531.840    88250882.549 8     -2577.961          38.600  
                                                                
  19163531.211    19163530.156   102368123.453 8        91.570          52.000  
                                                                                
                                                                
  21932937.859    21932936.891   117120679.722 5      4000.023          40.000  
                                                                                
                                                                
  23601484.570    23601483.199   126252031.297 5      -823.520          39.200  
                                                                                
                                                                
 18 04 04  7 36  0.0000000  0 15G02G05G07G09G13G20G28G30R01R02R03R11 0.000000000
                                R12R13R19                   
  24533622.414                   128925035.406 1     -2928.551          31.500  
                  24533630.059   100461070.547 5     -2281.923          15.600  
                                                                
  20570583.938                   108099153.298 8      -203.586          52.300  
                  20570589.031    84233122.229 8      -158.373          40.500  
                                                                
  21801423.539                   114567260.308 7     -2259.098          50.500  
                  21801427.801    89273208.712 7     -1760.186          33.000  
                                                                
  23988300.289                   126059364.555 5     -3087.043          41.400  
                  23988308.715    98228091.052 6     -2405.387          22.200  
                                                                
  21919522.898                   115187893.413 7      2442.113          49.100  
                  21919527.281    89756817.661 7      1903.031          30.400  
                                                                
  24766875.633                   130150838.113 3      3496.430          36.900  
                                                                                
                                                                
  22228793.320                   116813085.563 6      2403.332          46.500  
                  22228797.922    91023235.477 7      1872.871          27.000  
                                                                
  20427673.898                   107348161.623 8      -908.164          55.000  
                  20427680.809    83647952.736 9      -707.450          43.300  
                                                                
  22043944.023    22043943.793   117837517.044 6     -3512.520          43.800  
                                                                                
                                                                
  19108621.133    19108619.789   101967287.911 9       161.988          53.500  
                  19108623.590    79307886.657 9       126.243          41.700  
                                                                
  21467111.953    21467111.656   114915132.465 7      3431.281          47.900  
                  21467114.020    89378389.679 8      2668.893          37.200  
                                                                
  21252177.828    21252177.633   113565199.942 8     -3328.492          49.900  
                  21252179.691    88328387.238 8     -2588.612          37.700  
                                                                
  19163088.844    19163087.742   102365759.518 8        66.020          51.600  
                                                                                
                                                                
  21910495.570    21910494.320   117000840.900 5      3988.992          39.900  
                                                                                
                                                                
  23606172.117    23606169.973   126277107.708 5      -848.113          39.100  
                                                                                
                                                                
 18 04 04  7 36 30.0000000  0 15G02G05G07G09G13G20G28G30R01R02R03R11 0.000000000
                                R12R13R19                   
  24550349.008                   129012917.19513     -2930.398          36.400  
                  24550354.559   100529549.79815     -2283.347          16.300  
                                                                
  20571801.148                   108105550.333 8      -222.777          52.700  
                  20571806.109    84238106.926 8      -173.454          40.500  
                                                                
  21814345.945                   114635168.293 7     -2268.086          50.000  
                  21814350.332    89326123.988 7     -1767.278          31.900  
                                                                
  24005934.141                   126152026.786 5     -3090.473          40.500  
                  24005941.008    98300295.349 6     -2408.171          19.300  
                                                                
  21905600.438                   115114730.953 7      2435.508          50.000  
                  21905604.996    89699807.946 7      1897.770          30.100  
                                                                
  24746930.938                   130046030.347 4      3490.934          37.200  
                                                                                
                                                                
  22215109.125                   116741177.523 7      2390.645          47.100  
                  22215114.141    90967203.268 7      1862.895          27.000  
                                                                
  20432900.820                   107375629.146 8      -922.953          55.700  
                  20432908.160    83669355.988 9      -719.090          43.100  
                                                                
  22063687.609    22063685.645   117943048.679 6     -3522.855          43.800  
                                                                                
                                                                
  19107767.375    19107765.586   101962729.915 8       142.023          52.900  
                  19107769.102    79304341.528 9       110.625          41.400  
                                                                
  21447902.633    21447901.441   114812299.947 7      3424.203          48.900  
                  21447904.215    89298408.807 8      2663.264          37.400  
                                                                
  21270902.586    21270901.215   113665255.654 8     -3341.875          50.500  
                  21270903.348    88406208.304 8     -2599.099          37.400  
                                                                
  19162789.086    19162788.570   102364162.505 8        40.523          51.400  
                                                                                
                                                                
  21888118.313    21888116.121   116881336.653 6      3977.777          41.300  
                                                                                
                                                                
  23610999.672    23610997.387   126302921.332 5      -872.738          39.900  
                                                                                
                                                                
 18 04 04  7 37  0.0000000  0 15G02G05G07G09G13G20G28G30R01R02R03R11 0.000000000
                                R12R13R19                   
  24567085.586                   129100852.139 4     -2931.746          37.300  
                  24567086.254   100598070.418 5     -2284.652          14.800  
                                                                
  20573128.773                   108112526.183 8      -242.180          52.500  
                  20573133.758    84243542.644 8      -188.445          39.700  
                                                                
  21827320.164                   114703347.425 7     -2277.105          49.500  
                  21827324.379    89379250.579 7     -1774.274          32.100  
                                                                
  24023586.563                   126244793.781 5     -3093.977          39.600  
                  24023594.598    98372581.227 6     -2410.820          21.300  
                                                                
  21891716.102                   115041769.393 6      2428.707          46.600  
                  21891720.820    89642954.784 7      1892.583          29.600  
                                                                
  24727018.109                   129941392.740 4      3485.094          37.100  
                                                                                
                                                                
  22201498.883                   116669653.137 6      2377.781          45.600  
                  22201502.504    90911469.987 7      1852.971          26.200  
                                                                
  20438213.031                   107403543.057 8      -937.863          54.500  
                  20438220.094    83691107.078 9      -730.607          42.300  
                                                                
  22083486.703    22083485.277   118048894.191 6     -3533.344          42.000  
                                                                                
                                                                
  19107025.008    19107024.250   101958772.547 8       121.941          49.600  
                  19107027.441    79301263.594 9        95.067          41.200  
                                                                
  21428732.328    21428732.430   114709683.989 7      3417.020          47.300  
                  21428734.750    89218596.410 8      2657.725          37.000  
                                                                
  21289700.383    21289700.328   113765714.423 7     -3355.320          48.700  
                  21289703.363    88484342.884 8     -2609.496          38.000  
                                                                
  19162634.203    19162633.148   102363331.208 7        15.004          48.600  
                                                                                
                                                                
  21865802.656    21865799.434   116762169.801 5      3966.609          40.900  
                                                                                
                                                                
  23615962.117    23615959.668   126329470.398 4      -897.207          38.700  
                                                                                
                                                                
 18 04 04  7 37 30.0000000  0 15G02G05G07G09G13G20G28G30R01R02R03R11 0.000000000
                                R12R13R19                   
  24583827.375                   129188839.39415     -2933.637          39.100  
                  24583830.145   100666631.95415     -2285.998          16.300  
                                                                
  20574566.656                   108120081.355 8      -261.547          52.400  
                  20574571.418    84249429.794 8      -203.492          39.900  
                                                                
  21840345.484                   114771795.969 7     -2286.035          50.600  
                  21840350.453    89432587.090 7     -1781.239          32.300  
                                                                
  24041259.320                   126337664.963 5     -3097.379          41.600  
                  24041266.172    98444948.302 6     -2413.508          20.100  
                                                                
  21877870.516                   114969010.031 6      2421.922          46.000  
                  21877875.320    89586259.179 7      1887.333          30.500  
                                                                
  24707140.211                   129836927.711 3      3479.078          36.000  
                                                                                
                                                                
  22187962.039                   116598514.830 6      2364.793          45.700  
                  22187966.152    90856037.582 7      1842.908          26.500  
                                                                
  20443609.258                   107431902.164 8      -952.770          53.300  
                  20443616.035    83713205.075 9      -742.147          42.500  
                                                                
  22103346.547    22103344.770   118155052.311 6     -3543.824          42.100  
                                                                                
                                                                
  19106396.492    19106395.617   101955417.577 9       101.750          53.400  
                  19106398.699    79298654.162 9        79.420          41.300  
                                                                
  21409604.773    21409603.629   114607287.381 7      3409.578          48.900  
                  21409605.855    89138954.588 8      2652.037          36.700  
                                                                
  21308575.430    21308574.859   113866572.366 8     -3368.512          49.600  
                  21308578.090    88562787.937 8     -2619.769          37.800  
                                                                
  19162621.820    19162620.484   102363264.713 8       -10.543          51.600  
                                                                                
                                                                
  21843548.625    21843547.563   116643344.322 6      3955.230          42.000  
                                                                                
                                                                
  23621061.125    23621059.777   126356753.766 5      -921.672          39.200  
                                                                                
                                                                
 18 04 04  7 38  0.0000000  0 15G02G05G07G09G13G20G28G30R01R02R03R11 0.000000000
                                R12R13R19                   
  24600577.773                   129276875.16213     -2935.121          35.700  
                  24600582.469   100735231.16415     -2287.213          16.300  
                                                                
  20576114.508                   108128215.560 8      -280.828          53.000  
                  20576119.305    84255768.125 8      -218.559          40.300  
                                                                
  21853421.852                   114840511.898 7     -2294.953          51.300  
                  21853426.008    89486131.949 7     -1788.179          32.100  
                                                                
  24058952.492                   126430639.475 5     -3100.867          40.600  
                  24058960.168    98517395.889 6     -2416.225          20.100  
                                                                
  21864063.883                   114896453.580 7      2415.113          49.800  
                  21864068.336    89529721.681 7      1882.012          31.000  
                                                                
  24687294.203                   129732637.824 3      3473.293          35.300  
                                                                                
                                                                
  22174498.352                   116527764.621 7      2351.867          47.600  
                  22174502.996    90800907.580 7      1832.751          27.800  
                                                                
  20449090.234                   107460704.836 8      -967.410          54.700  
                  20449097.738    83735648.717 9      -753.682          42.200  
                                                                
  22123263.906    22123262.176   118261520.723 6     -3554.035          43.200  
                                                                                
                                                                
  19105881.438    19105879.930   101952666.287 9        81.582          53.700  
                  19105883.266    79296514.256 9        63.705          41.200  
                                                                
  21390516.977    21390516.230   114505112.878 8      3402.125          49.700  
                  21390518.723    89059485.545 8      2646.147          36.200  
                                                                
  21327523.969    21327523.633   113967825.562 8     -3381.656          50.500  
                  21327526.023    88641540.353 8     -2629.985          37.500  
                                                                
  19162752.438    19162751.055   102363962.237 8       -35.906          51.100  
                                                                                
                                                                
  21821360.391    21821359.422   116524862.458 6      3943.711          41.100  
                                                                                
                                                                
  23626300.180    23626297.004   126384769.427 5      -946.090          40.100  
                                                                                
                                                                
 18 04 04  7 38 30.0000000  0 15G02G05G07G09G13G20G28G30R01R02R03R11 0.000000000
                                R12R13R19                   
  24617339.344                   129364956.62312     -2936.613          34.000  
                  24617344.133   100803866.11515     -2288.318          16.300  
                                                                
  20577772.648                   108136929.067 8      -300.168          53.000  
                  20577777.188    84262557.866 8      -233.571          40.500  
                                                                
  21866548.766                   114909493.706 7     -2303.797          50.100  
                  21866553.246    89539883.986 7     -1795.016          32.800  
                                                                
  24076664.000                   126523716.790 5     -3104.395          40.300  
                  24076671.719    98589923.572 6     -2418.867          19.900  
                                                                
  21850295.555                   114824100.916 7      2408.277          48.200  
                  21850300.117    89473342.993 7      1876.753          31.600  
                                                                
  24667482.563                   129628525.447 4      3467.535          38.800  
                  24667486.043   101009231.32415      2701.979          16.300  
                                                                
  22161109.188                   116457405.146 6      2338.684          45.500  
                  22161114.383    90746082.029 7      1822.624          28.100  
                                                                
  20454655.453                   107489949.824 8      -982.273          55.000  
                  20454662.004    83758437.015 9      -765.118          42.100  
                                                                
  22143239.250    22143237.637   118368297.932 6     -3564.383          43.700  
                                                                                
                                                                
  19105478.828    19105477.789   101950520.089 8        61.438          52.800  
                  19105481.184    79294844.980 9        48.098          41.300  
                                                                
  21371472.141    21371471.797   114403163.670 7      3394.527          49.000  
                  21371473.738    88980191.737 8      2640.334          36.400  
                                                                
  21346545.281    21346545.203   114069470.372 8     -3394.750          51.300  
                  21346547.488    88720597.412 8     -2640.096          38.400  
                                                                
  19163025.125    19163024.141   102365422.279 8       -61.457          50.500  
                                                                                
                                                                
  21799239.500    21799236.254   116406726.769 6      3931.934          41.900  
                                                                                
                                                                
  23631673.461    23631670.637   126413515.518 5      -970.375          40.100  
                                                                                
                                                                
 18 04 04  7 39  0.0000000  0 16G02G05G07G09G13G20G21G28G30R01R02R03 0.000000000
                                R11R12R13R19                
  24634108.516                   129453080.740 2     -2938.059          34.000  
                  24634113.266   100872534.198 5     -2289.466          15.600  
                                                                
  20579541.227                   108146221.941 8      -319.316          54.000  
                  20579545.840    84269799.048 8      -248.628          40.300  
                                                                
  21879725.594                   114978739.616 7     -2312.531          49.500  
                  21879730.512    89593841.817 7     -1801.872          31.800  
                                                                
  24094396.008                   126616896.192 5     -3107.570          40.900  
                  24094403.734    98662530.790 6     -2421.491          21.500  
                                                                
  21836566.477                   114751952.915 7      2401.563          48.400  
                  21836570.785    89417123.775 7      1871.417          31.700  
                                                                
  24647704.125                   129524593.168 3      3461.324          36.600  
                  24647708.910   100928245.023 5      2697.272          14.800  
                                                                
  26154839.883                   137444564.55011      1517.871          30.100  
                                                                                
                                                                
  22147795.328                   116387438.871 6      2325.613          46.400  
                  22147800.398    90691562.886 7      1812.358          29.400  
                                                                
  20460304.258                   107519635.644 8      -996.828          54.500  
                  20460311.699    83781568.817 9      -776.576          41.700  
                                                                
  22163271.945    22163269.602   118475382.039 6     -3574.516          43.200  
                                                                                
                                                                
  19105190.180    19105188.977   101948979.898 8        41.266          52.500  
                  19105192.414    79293647.039 9        32.314          41.200  
                                                                
  21352470.344    21352468.965   114301442.659 7      3386.961          48.600  
                  21352471.355    88901075.361 8      2634.373          36.300  
                                                                
  21365640.414    21365638.926   114171502.986 8     -3407.445          50.900  
                  21365641.539    88799956.088 8     -2650.083          37.300  
                                                                
  19163441.297    19163440.102   102367643.801 8       -86.648          50.500  
                                                                                
                                                                
  21777180.195    21777179.063   116288940.882 6      3920.465          41.700  
                                                                                
                                                                
  23637182.273    23637180.926   126442990.402 5      -994.594          40.000  
                                                                                
                                                                
 18 04 04  7 39 30.0000000  0 16G02G05G07G09G13G20G21G28G30R01R02R03 0.000000000
                                R11R12R13R19                
  24650886.438                   129541244.760 2     -2939.309          34.300  
                  24650890.805   100941233.336 5     -2290.374          16.300  
                                                                
  20581419.703                   108156094.381 8      -338.707          53.000  
                  20581424.215    84277491.844 8      -263.705          40.100  
                                                                
  21892952.570                   115048248.075 7     -2321.215          50.800  
                  21892957.473    89648004.224 8     -1808.684          33.400  
                                                                
  24112146.695                   126710177.246 5     -3111.109          40.200  
                  24112154.359    98735217.257 6     -2424.194          19.600  
                                                                
  21822876.891                   114680010.788 7      2394.672          50.800  
                  21822880.828    89361064.993 7      1866.042          31.500  
                                                                
  24627962.219                   129420843.570 4      3455.270          37.500  
                  24627966.348   100847401.267 5      2692.423          15.600  
                                                                
  26146210.828                   137399214.984 1      1505.578          29.900  
                                                                                
                                                                
  22134555.914                   116317868.099 7      2312.410          47.600  
                  22134561.281    90637351.917 7      1802.043          28.500  
                                                                
  20466036.867                   107549761.114 8     -1011.449          54.100  
                  20466043.945    83805043.211 9      -787.979          41.800  
                                                                
  22183360.164    22183359.207   118582771.490 6     -3584.664          43.000  
                                                                                
                                                                
  19105015.375    19105014.594   101948047.711 9        20.938          53.500  
                  19105017.551    79292921.986 9        16.537          41.800  
                                                                
  21333510.211    21333509.984   114199952.760 8      3379.152          49.500  
                  21333512.141    88822138.787 8      2628.346          36.600  
                                                                
  21384805.680    21384805.082   114273919.832 8     -3420.242          50.800  
                  21384807.199    88879613.611 8     -2660.004          38.000  
                                                                
  19163999.492    19163998.320   102370626.347 8      -112.055          51.100  
                                                                                
                                                                
  21755187.883    21755187.078   116171507.135 6      3908.563          42.000  
                                                                                
                                                                
  23642827.969    23642826.902   126473192.514 6     -1018.871          41.100  
                                                                                
                                                                
 18 04 04  7 40  0.0000000  0 16G02G05G07G09G13G20G21G28G30R01R02R03 0.000000000
                                R11R12R13R19                
  24667670.578                   129629446.172 2     -2940.734          34.700  
                  24667674.336   101009961.727 5     -2291.380          15.600  
                                                                
  20583408.781                   108166546.383 8      -358.137          54.100  
                  20583413.113    84285636.242 8      -278.761          39.900  
                                                                
  21906229.766                   115118017.325 7     -2330.004          49.900  
                  21906234.188    89702369.846 7     -1815.418          33.000  
                                                                
  24129916.305                   126803559.043 6     -3114.445          42.200  
                  24129924.809    98807982.200 6     -2426.774          22.000  
                                                                
  21809225.898                   114608275.425 7      2387.664          51.400  
                  21809229.957    89305167.310 7      1860.656          31.200  
                                                                
  24608254.453                   129317279.097 4      3448.898          38.600  
                  24608258.105   100766701.623 5      2687.703          16.900  
                                                                
  26137652.852                   137354244.054 2      1492.672          33.700  
                                                                                
                                                                
  22121392.891                   116248695.256 7      2299.113          48.000  
                  22121398.059    90583450.999 7      1791.691          27.900  
                                                                
  20471853.109                   107580324.705 8     -1026.148          54.400  
                  20471860.047    83828858.981 9      -799.325          42.000  
                                                                
  22203505.625    22203505.137   118690464.236 6     -3594.805          41.800  
                                                                                
                                                                
  19104954.969    19104953.695   101947724.461 9         0.594          53.500  
                  19104956.941    79292670.572 9         0.775          41.200  
                                                                
  21314595.203    21314594.598   114098697.041 7      3371.176          48.800  
                  21314597.711    88743384.360 8      2622.211          37.000  
                                                                
  21404042.422    21404042.227   114376717.041 8     -3432.953          50.700  
                  21404044.070    88959566.960 8     -2669.811          37.400  
                                                                
  19164699.672    19164698.945   102374368.156 8      -137.465          51.400  
                                                                                
                                                                
  21733263.047    21733261.844   116054428.787 6      3896.680          42.000  
                                                                                
                                                                
  23648610.563    23648608.816   126504119.631 6     -1043.000          42.000  
                                                                                
                                                                
 18 04 04  7 40 30.0000000  0 16G02G05G07G09G13G20G21G28G30R01R02R03 0.000000000
                                R11R12R13R19                
  24684463.102                   129717681.794 4     -2941.703          38.400  
                  24684464.961   101078716.764 5     -2292.205          17.800  
                                                                
  20585507.852                   108177577.971 8      -377.324          53.400  
                  20585512.422    84294232.268 8      -293.811          39.900  
                                                                
  21919555.391                   115188045.071 7     -2338.590          49.700  
                  21919560.172    89756936.904 8     -1822.153          33.200  
                                                                
  24147705.734                   126897041.004 5     -3117.742          41.300  
                  24147713.781    98880825.212 6     -2429.365          20.900  
                                                                
  21795614.336                   114536747.978 7      2380.773          50.500  
                  21795618.898    89249431.647 7      1855.229          31.000  
                                                                
  24588582.172                   129213902.200 3      3442.875          35.700  
                  24588586.777   100686148.226 5      2682.710          14.800  
                                                                
  26129167.211                   137309653.315 1      1480.188          31.900  
                                                                                
                                                                
  22108305.805                   116179922.981 7      2285.684          47.200  
                  22108311.086    90529862.209 7      1781.251          28.300  
                                                                
  20477752.336                   107611324.995 8     -1040.609          54.800  
                  20477759.152    83853015.053 9      -810.680          41.800  
                                                                
  22223708.008    22223707.895   118798458.424 6     -3604.781          41.800  
                                                                                
                                                                
  19105009.016    19105007.625   101948011.938 9       -19.730          54.100  
                  19105010.832    79292894.157 9       -15.112          41.400  
                                                                
  21295724.500    21295723.613   113997678.419 7      3363.285          48.700  
                  21295726.262    88664814.339 8      2616.023          37.100  
                                                                
  21423349.250    21423349.406   114479890.631 8     -3445.340          49.400  
                  21423351.938    89039813.063 8     -2679.569          37.200  
                                                                
  19165542.188    19165541.273   102378868.340 8      -162.605          51.400  
                                                                                
                                                                
  21711405.422    21711403.723   115937708.457 5      3884.676          40.900  
                                                                                
                                                                
  23654528.164    23654525.949   126535770.418 5     -1067.086          40.600  
                                                                                
                                                                
 18 04 04  7 41  0.0000000  0 17G02G05G07G09G13G15G20G21G28G30R01R02 0.000000000
                                R03R11R12R13R19             
  24701259.438                   129805948.348 4     -2942.715          37.700  
                  24701262.863   101147495.803 5     -2292.993          16.300  
                                                                
  20587717.438                   108189189.173 8      -396.641          53.300  
                  20587722.016    84303279.940 8      -308.850          39.800  
                                                                
  21932929.875                   115258329.936 7     -2347.055          49.600  
                  21932934.848    89811704.305 7     -1828.806          32.500  
                                                                
  24165513.625                   126990622.413 5     -3121.000          41.500  
                  24165522.137    98953745.723 6     -2431.915          22.200  
                                                                
  21782042.836                   114465429.256 7      2373.824          50.000  
                  21782047.441    89193858.627 7      1849.805          31.900  
                                                                
  24457155.797                   128523296.04311      3311.750          32.800  
                                                                                
                                                                
  24568946.406                   129110715.616 4      3436.363          37.800  
                  24568951.914   100605743.079 5      2677.803          16.300  
                                                                
  26120754.391                   137265443.821 2      1467.605          33.700  
                                                                                
                                                                
  22095295.273                   116111553.062 7      2272.316          47.600  
                  22095300.180    90476586.977 7      1770.749          28.700  
                                                                
  20483734.680                   107642760.544 8     -1055.062          54.700  
                  20483741.242    83877510.283 9      -821.957          42.300  
                                                                
  22243966.922    22243966.223   118906752.312 6     -3614.707          42.300  
                                                                                
                                                                
  19105177.352    19105176.219   101948910.909 9       -40.098          53.700  
                  19105179.699    79293593.347 9       -30.982          41.700  
                                                                
  21276897.547    21276897.129   113896899.743 8      3355.297          49.700  
                  21276899.848    88586430.969 8      2609.719          37.900  
                                                                
  21442726.367    21442725.844   114583437.017 7     -3457.668          48.400  
                  21442729.387    89120349.126 8     -2689.225          37.200  
                                                                
  19166526.602    19166525.641   102384125.433 8      -187.785          51.900  
                                                                                
                                                                
  21689615.445    21689613.746   115821349.126 6      3872.695          42.300  
                                                                                
                                                                
  23660579.281    23660576.926   126568142.454 5     -1091.074          40.700  
                                                                                
                                                                
 18 04 04  7 41 30.0000000  0 17G02G05G07G09G13G15G20G21G28G30R01R02 0.000000000
                                R03R11R12R13R19             
  24718060.484                   129894243.767 3     -2943.727          36.400  
                  24718065.367   101216297.389 5     -2293.706          16.900  
                                                                
  20590037.063                   108201379.718 8      -416.055          54.600  
                  20590041.809    84312779.050 8      -323.925          40.300  
                                                                
  21946353.180                   115328870.487 7     -2355.715          50.200  
                  21946358.484    89866670.960 7     -1835.444          32.200  
                                                                
  24183341.008                   127084302.833 5     -3124.359          40.400  
                  24183349.313    99026743.347 6     -2434.475          20.400  
                                                                
  21768510.508                   114394320.480 7      2366.746          50.100  
                  21768515.641    89138449.184 7      1844.327          30.900  
                                                                
  24438254.930                   128423969.127 2      3309.977          34.300  
                                                                                
                                                                
  24549347.703                   129007722.090 5      3429.930          39.100  
                  24549352.453   100525488.399 5      2672.734          14.800  
                                                                
  26112413.883                   137221617.138 1      1454.238          32.900  
                                                                                
                                                                
  22082362.109                   116043588.302 7      2258.672          47.900  
                  22082366.953    90423627.447 7      1760.197          28.100  
                                                                
  20489799.125                   107674630.119 8     -1069.582          55.800  
                  20489806.715    83902343.708 9      -833.231          42.800  
                                                                
  22264282.773    22264280.973   119015344.373 6     -3624.668          43.200  
                                                                                
                                                                
  19105461.172    19105459.430   101950423.072 9       -60.629          53.500  
                  19105463.125    79294769.462 9       -46.909          41.300  
                                                                
  21258116.555    21258117.125   113796364.393 8      3347.020          49.700  
                  21258118.383    88508236.790 8      2603.380          37.200  
                                                                
  21462173.883    21462173.383   114687352.634 8     -3470.039          49.500  
                  21462175.500    89201172.330 8     -2698.686          37.000  
                                                                
  19167652.859    19167651.055   102390138.524 8      -213.051          51.400  
                                                                                
                                                                
  21667895.281    21667892.480   115705353.915 6      3860.402          43.400  
                                                                                
                                                                
  23666764.688    23666763.105   126601234.150 5     -1115.062          40.100  
                                                                                
                                                                
 18 04 04  7 42  0.0000000  0 17G02G05G07G09G13G15G20G21G28G30R01R02 0.000000000
                                R03R11R12R13R19             
  24734868.891                   129982565.264 4     -2944.508          38.000  
                  24734872.668   101285119.281 5     -2294.419          15.600  
                                                                
  20592467.297                   108214150.104 8      -435.379          54.300  
                  20592472.027    84322729.991 8      -338.948          40.500  
                                                                
  21959825.273                   115399665.049 7     -2364.082          49.300  
                  21959830.078    89921835.517 7     -1841.968          32.300  
                                                                
  24201186.148                   127178081.738 5     -3127.586          40.300  
                  24201194.180    99099817.726 6     -2437.009          20.100  
                                                                
  21755019.789                   114323422.545 7      2359.707          47.800  
                  21755024.383    89083204.046 7      1838.879          31.400  
                                                                
  24419363.586                   128324697.947 4      3308.207          38.000  
                                                                                
                                                                
  24529785.469                   128904923.949 3      3423.328          36.500  
                  24529790.484   100445385.912 5      2667.708          14.800  
                                                                
  26104147.672                   137178174.561 3      1441.371          35.400  
                                                                                
                                                                
  22069507.195                   115976031.218 6      2245.105          45.500  
                  22069511.402    90370985.585 7      1749.616          28.600  
                                                                
  20495945.789                   107706932.431 8     -1083.953          55.600  
                  20495953.383    83927514.338 9      -844.418          42.700  
                                                                
  22284651.375    22284651.543   119124232.649 6     -3634.656          43.900  
                                                                                
                                                                
  19105859.141    19105857.914   101952549.516 9       -81.121          53.600  
                  19105861.469    79296423.353 9       -62.779          41.600  
                                                                
  21239381.914    21239381.945   113696075.760 8      3338.832          50.000  
                  21239383.980    88430234.550 8      2596.999          38.500  
                                                                
  21481688.758    21481688.328   114791633.839 8     -3482.078          49.500  
                  21481689.930    89282279.927 8     -2708.103          37.200  
                                                                
  19168919.141    19168918.063   102396906.312 8      -238.207          51.700  
                                                                                
                                                                
  21646241.133    21646238.988   115589725.520 6      3848.160          43.900  
                                                                                
                                                                
  23673086.094    23673083.832   126635043.628 6     -1138.996          41.100  
                                                                                
                                                                
